Timestamp;NavState;SecurityLevel;Heading;Declination;Pitch;Roll;Depth;Temperature;Pa;Lat;Lon;DesiredH;BallastCmd;BallastPos;LinCmd;LinPos;AngCmd;AngPos;Voltage;Altitude;
21/07/2019 23:24:49;117;1024;106.41;16;63.25;-1.97;4.3;16.50;70161;4854.554;-13036.442;270;400;404.0;20;20.1;0;-0.5;28.5;-1.0;
21/07/2019 23:24:59;115;1024;116.68;16;46.56;1.72;3.4;16.50;70116;4854.554;-13036.442;270;350;348.5;100;61.8;0;-0.5;28.8;-1.0;
21/07/2019 23:25:09;115;1024;95.76;16;30.85;-2.03;3.1;16.50;70228;4854.554;-13036.442;270;350;346.5;100;100.1;0;-0.5;28.8;-1.0;
21/07/2019 23:25:19;115;1024;76.18;16;-14.82;5.08;2.3;16.50;70234;4854.554;-13036.442;270;350;344.6;100;100.0;0;-0.5;28.9;-1.0;
21/07/2019 23:25:29;116;1024;88.85;16;-27.88;6.42;2.5;16.50;70245;4854.554;-13036.442;270;350;340.6;100;100.0;0;-0.5;28.9;-1.0;
21/07/2019 23:25:49;116;1024;79.45;16;-28.41;6.50;2.5;16.50;70272;4854.569;-13036.302;270;350;340.6;100;99.9;0;-0.5;28.8;-1.0;
21/07/2019 23:26:09;116;1024;92.04;16;-10.37;0.39;2.4;16.60;70270;4854.569;-13036.299;270;350;342.6;100;99.9;0;-0.5;28.8;-1.0;
21/07/2019 23:26:29;116;1024;96.84;16;-6.91;-5.73;2.3;16.60;70275;4854.571;-13036.292;270;350;342.6;100;99.9;0;-0.5;28.8;-1.0;
21/07/2019 23:26:49;116;1024;88.00;16;-29.12;5.07;2.6;16.70;70285;4854.572;-13036.290;270;350;342.6;100;99.9;0;-0.5;28.8;-1.0;
21/07/2019 23:27:09;116;1024;85.47;16;-35.68;-10.91;2.7;16.70;70300;4854.579;-13036.275;270;350;342.6;100;99.9;0;-0.5;28.8;-1.0;
21/07/2019 23:28:11;116;1024;90.25;16;-8.14;6.00;2.3;17.00;70296;4854.579;-13036.274;270;350;340.6;100;99.9;0;-0.5;28.8;-1.0;
21/07/2019 23:28:31;116;1024;91.22;16;-36.00;2.61;2.7;17.00;70306;4854.583;-13036.267;270;350;340.6;100;100.0;0;-0.5;28.8;-1.0;
21/07/2019 23:28:51;116;1024;74.30;16;-28.76;-2.74;2.6;17.10;70321;4854.585;-13036.264;270;350;338.6;100;100.1;0;-0.5;28.9;-1.0;
21/07/2019 23:29:11;116;1024;104.65;16;-8.66;5.47;2.3;17.10;70318;4854.588;-13036.261;270;350;340.6;100;100.0;0;-0.5;28.8;-1.0;
21/07/2019 23:29:31;116;0;92.93;16;-12.65;1.71;2.4;17.20;70320;4854.590;-13036.258;270;350;342.6;100;100.0;0;-0.5;28.9;-1.0;
21/07/2019 23:29:51;116;0;86.43;16;-32.87;7.34;2.6;17.30;70328;4854.592;-13036.253;270;350;338.6;100;100.1;0;-0.5;28.8;-1.0;
21/07/2019 23:30:12;116;0;86.01;16;-15.23;3.75;2.3;17.30;70337;4854.594;-13036.250;270;350;340.6;100;100.0;0;-0.5;28.8;-1.0;
21/07/2019 23:30:32;116;0;95.90;16;-15.51;5.17;2.3;17.30;70329;4854.595;-13036.243;270;350;342.6;100;99.9;0;-0.5;28.9;-1.0;
21/07/2019 23:30:52;110;0;86.28;16;-9.79;5.31;2.4;17.40;70331;4854.595;-13036.243;270;-500;225.7;100;100.0;0;-0.5;28.8;-1.0;
21/07/2019 23:31:02;110;0;93.56;16;-36.29;2.98;2.6;17.40;70591;4854.595;-13036.243;270;-500;69.3;100;100.0;0;-0.5;28.7;-1.0;
21/07/2019 23:31:12;110;0;69.64;16;-32.91;1.15;2.7;17.40;70808;4854.595;-13036.243;270;-500;-108.9;100;100.1;0;-0.5;28.8;-1.0;
21/07/2019 23:31:22;110;0;62.97;16;-61.22;10.08;3.6;17.40;71083;4854.595;-13036.243;270;-500;-308.9;94;94.0;0;-0.5;28.8;-1.0;
21/07/2019 23:31:32;110;0;64.98;16;-58.32;-2.14;4.8;17.50;71424;4854.595;-13036.243;270;-500;-501.0;82;81.7;0;-0.5;28.8;-1.0;
21/07/2019 23:31:42;110;0;59.35;16;-49.81;1.81;7.2;17.50;71721;4854.595;-13036.243;270;-500;-501.0;71;70.9;0;-0.5;28.9;-1.0;
21/07/2019 23:31:52;100;0;61.80;16;-38.40;2.86;10.7;17.50;71710;4854.595;-13036.243;270;-500;-499.0;70;70.0;0;-0.5;28.8;-1.0;
21/07/2019 23:32:12;100;0;61.56;16;-28.64;3.25;17.3;17.50;71695;4854.595;-13036.243;270;-500;-497.0;70;69.9;0;-0.5;28.8;0.0;
21/07/2019 23:32:32;100;0;62.23;16;-26.84;3.28;23.2;17.50;71668;4854.595;-13036.243;270;-500;-497.0;70;69.7;45;45.6;28.8;0.0;
21/07/2019 23:32:52;118;0;50.49;16;-21.55;24.53;28.0;17.40;71584;4854.595;-13036.243;270;150;-479.2;57;56.8;0;-0.5;28.9;0.0;
21/07/2019 23:33:02;118;0;62.32;16;-10.15;3.49;29.6;17.40;71446;4854.595;-13036.243;270;150;-322.8;57;56.6;0;-0.5;28.5;0.0;
21/07/2019 23:33:12;118;0;62.19;16;-0.71;3.37;30.0;17.40;71214;4854.595;-13036.243;270;150;-170.3;57;56.6;0;-0.5;28.5;-1.0;
21/07/2019 23:33:22;118;0;59.48;16;6.42;3.16;29.8;17.40;70935;4854.595;-13036.243;270;150;-19.8;57;56.6;0;-0.5;28.5;-1.0;
21/07/2019 23:33:32;118;0;59.20;16;8.10;3.31;29.6;17.30;70650;4854.595;-13036.243;270;150;132.7;57;56.3;0;-0.5;28.5;-1.0;
21/07/2019 23:33:42;118;0;59.18;16;9.81;3.50;28.9;17.30;70395;4854.595;-13036.243;270;150;156.4;57;56.3;0;-0.5;28.5;-1.0;
21/07/2019 23:33:52;118;0;51.02;16;12.11;3.51;27.9;17.30;70366;4854.595;-13036.243;270;150;158.4;57;56.9;0;-0.5;28.9;-1.0;
21/07/2019 23:34:02;117;0;52.62;16;12.43;3.44;26.9;17.20;70358;4854.595;-13036.243;270;150;156.4;57;57.1;0;-0.5;28.8;-1.0;
21/07/2019 23:34:22;117;0;50.44;16;11.36;3.43;24.8;17.20;70332;4854.595;-13036.243;270;150;158.4;57;57.1;-45;-45.1;28.8;-1.0;
21/07/2019 23:34:42;117;0;33.18;16;9.52;-19.04;22.7;17.10;70350;4854.595;-13036.243;270;150;158.4;57;57.2;-45;-45.6;28.9;-1.0;
21/07/2019 23:35:02;117;0;12.37;16;7.92;-19.20;20.9;17.00;70357;4854.595;-13036.243;270;150;160.4;57;57.1;-33;-32.9;28.9;-1.0;
21/07/2019 23:35:22;117;0;348.82;16;5.23;-12.64;19.4;17.00;70391;4854.595;-13036.243;270;150;160.4;57;57.1;-22;-22.1;28.9;-1.0;
21/07/2019 23:35:42;117;0;327.53;16;3.34;-6.83;17.9;17.00;70424;4854.595;-13036.243;270;150;158.4;57;57.1;-15;-14.4;28.9;-1.0;
21/07/2019 23:36:02;117;0;306.43;16;1.74;-2.96;16.5;16.90;70446;4854.595;-13036.243;270;150;158.4;57;57.2;-10;-9.5;28.8;-1.0;
21/07/2019 23:36:22;117;0;309.26;16;3.80;-0.40;15.1;16.90;70463;4854.595;-13036.243;270;150;158.4;57;57.2;-19;-19.4;28.8;-1.0;
21/07/2019 23:36:42;117;0;307.28;16;6.46;-5.30;13.6;16.90;70499;4854.595;-13036.243;270;150;158.4;57;57.1;-21;-21.7;28.9;-1.0;
21/07/2019 23:37:02;117;0;295.48;16;4.05;-6.86;12.2;16.90;70519;4854.595;-13036.243;270;150;158.4;57;57.2;-16;-15.8;28.8;-1.0;
21/07/2019 23:37:22;117;0;264.59;16;5.02;-3.34;10.9;16.90;70536;4854.595;-13036.243;270;150;158.4;57;57.1;-2;-1.8;28.8;-1.0;
