Timestamp;NavState;SecurityLevel;Heading;Declination;Pitch;Roll;Depth;Temperature;Pa;Lat;Lon;DesiredH;BallastCmd;BallastPos;LinCmd;LinPos;AngCmd;AngPos;Voltage;Altitude;
22/07/2019 08:25:33;117;0;263.95;16;7.28;2.08;9.9;10.30;69885;4854.461;-13036.930;270;150;148.5;57;57.1;-2;-2.3;28.8;-1.0;
22/07/2019 08:25:43;115;0;262.88;16;7.74;2.19;9.4;10.30;69886;4854.461;-13036.930;270;300;158.4;100;100.0;0;0.9;28.8;-1.0;
22/07/2019 08:25:53;115;0;247.78;16;-31.73;5.53;9.1;10.40;69818;4854.461;-13036.930;270;300;305.0;100;100.1;0;0.9;28.4;-1.0;
22/07/2019 08:26:03;115;0;285.91;16;-68.94;-0.98;9.4;10.40;69652;4854.461;-13036.930;270;300;305.0;100;100.1;0;0.5;28.8;-1.0;
22/07/2019 08:26:13;115;0;263.41;16;-48.42;0.27;7.6;10.50;69664;4854.461;-13036.930;270;300;306.9;100;100.0;0;0.9;28.8;-1.0;
22/07/2019 08:26:23;116;0;250.13;16;-50.64;0.93;4.8;10.50;69689;4854.461;-13036.930;270;300;306.9;100;100.0;0;0.9;28.8;-1.0;
22/07/2019 08:26:43;116;0;157.63;16;-40.60;-1.93;2.9;10.70;69705;4854.461;-13036.930;270;300;306.9;100;100.0;0;0.5;28.8;-1.0;
22/07/2019 08:27:02;116;0;151.30;16;-30.97;5.17;2.8;10.80;69716;4854.296;-13037.741;270;300;306.9;100;100.0;0;0.5;28.8;-1.0;
22/07/2019 08:27:22;116;0;148.02;16;-18.75;3.18;2.5;10.90;69740;4854.302;-13037.727;270;300;310.9;100;100.0;0;0.9;28.8;-1.0;
22/07/2019 08:27:42;116;0;140.19;16;-20.36;1.41;2.6;11.00;69738;4854.296;-13037.735;270;300;310.9;100;100.0;0;0.5;28.8;-1.0;
22/07/2019 08:28:02;116;0;134.78;16;-46.77;5.82;3.1;11.10;69752;4854.295;-13037.734;270;300;308.9;100;100.0;0;0.9;28.8;-1.0;
22/07/2019 08:28:22;116;0;170.04;16;-28.66;1.71;2.7;11.20;69766;4854.296;-13037.733;270;300;308.9;100;100.0;0;0.9;28.8;-1.0;
22/07/2019 08:28:42;116;0;155.31;16;-19.71;0.42;2.6;11.30;69788;4854.297;-13037.732;270;300;308.9;100;100.0;0;0.9;28.8;-1.0;
22/07/2019 08:29:02;116;0;146.87;16;-32.61;1.41;2.9;11.40;69803;4854.296;-13037.729;270;300;310.9;100;100.0;0;0.5;28.8;-1.0;
22/07/2019 08:29:22;116;0;153.77;16;-32.02;1.61;2.9;11.50;69813;4854.297;-13037.728;270;300;308.9;100;100.0;0;0.5;28.8;-1.0;
22/07/2019 08:29:42;116;0;158.94;16;-16.80;1.06;2.5;11.60;69826;4854.296;-13037.725;270;300;308.9;100;100.0;0;0.9;28.8;-1.0;
22/07/2019 08:30:22;116;0;122.25;16;-50.52;7.40;3.1;11.80;69839;4854.296;-13037.725;270;300;308.9;100;100.0;0;0.9;28.8;-1.0;
22/07/2019 08:30:42;116;0;145.72;16;-28.52;5.98;2.6;11.90;69847;4854.297;-13037.725;270;300;308.9;100;100.0;0;0.5;28.8;-1.0;
22/07/2019 08:31:02;116;0;151.94;16;-33.10;0.78;2.6;12.00;69855;4854.297;-13037.723;270;300;308.9;100;100.0;0;0.9;28.8;-1.0;
22/07/2019 08:31:22;116;0;149.53;16;-38.85;1.01;2.9;12.10;69867;4854.296;-13037.722;270;300;308.9;100;100.0;0;0.9;28.7;-1.0;
22/07/2019 08:31:42;116;0;148.16;16;-30.13;5.69;2.6;12.10;69873;4854.297;-13037.713;270;300;308.9;100;100.0;0;0.9;28.8;-1.0;
22/07/2019 08:33:18;116;0;141.79;16;-36.19;4.04;2.7;12.60;69919;4854.297;-13037.713;270;300;308.9;100;100.0;0;0.9;28.8;-1.0;
22/07/2019 08:33:38;116;0;154.76;16;-34.60;-1.47;2.8;12.70;69926;4854.296;-13037.712;270;300;308.9;100;100.0;0;0.5;28.8;-1.0;
22/07/2019 08:33:58;116;0;150.18;16;-26.94;4.96;2.6;12.80;69926;4854.290;-13037.693;270;300;308.9;100;100.0;0;0.9;28.8;-1.0;
22/07/2019 08:39:34;116;0;143.50;16;-39.90;2.90;2.9;14.00;70026;4854.290;-13037.693;270;300;308.9;100;100.0;0;0.9;28.8;-1.0;
22/07/2019 08:39:54;116;0;141.40;16;-34.66;3.12;2.7;14.10;70034;4854.290;-13037.692;270;300;308.9;100;100.0;0;0.5;28.6;-1.0;
22/07/2019 08:40:14;116;0;146.83;16;-12.00;4.56;2.4;14.20;70036;4854.289;-13037.688;270;300;310.9;100;99.9;0;0.9;28.8;-1.0;
22/07/2019 08:41:16;116;0;158.86;16;-14.19;3.91;2.5;14.40;70035;4854.289;-13037.687;270;300;310.9;100;100.0;0;0.9;28.8;-1.0;
22/07/2019 08:41:36;116;0;149.89;16;-29.81;0.90;2.7;14.40;70051;4854.288;-13037.686;270;300;310.9;100;100.0;0;0.9;28.8;-1.0;
22/07/2019 08:41:56;116;0;151.13;16;-34.64;1.82;2.7;14.50;70064;4854.287;-13037.681;270;300;306.9;100;100.0;0;0.9;28.8;-1.0;
22/07/2019 08:42:55;116;0;162.59;16;-41.01;5.46;2.9;14.60;70078;4854.287;-13037.680;270;300;308.9;100;100.0;0;0.5;28.8;-1.0;
22/07/2019 08:43:15;116;0;160.74;16;-33.70;5.38;2.6;14.70;70072;4854.288;-13037.679;270;300;306.9;100;100.0;0;0.5;28.8;-1.0;
22/07/2019 08:43:35;116;0;163.41;16;-16.00;5.97;2.6;14.70;70077;4854.287;-13037.678;270;300;308.9;100;100.0;0;0.9;28.7;-1.0;
22/07/2019 08:43:55;116;0;149.89;16;-33.27;6.74;2.7;14.80;70082;4854.286;-13037.676;270;300;308.9;100;100.0;0;0.9;28.8;-1.0;
22/07/2019 08:44:15;110;0;152.58;16;-40.09;-1.24;2.8;14.80;70092;4854.286;-13037.676;270;-500;190.1;100;100.0;0;0.5;28.7;-1.0;
22/07/2019 08:44:25;110;0;138.72;16;-34.13;9.31;2.7;14.90;70362;4854.286;-13037.676;270;-500;27.7;100;100.0;0;0.5;28.7;-1.0;
22/07/2019 08:44:35;110;0;139.57;16;-44.18;9.85;3.0;14.90;70566;4854.286;-13037.676;270;-500;-150.5;100;100.1;0;0.9;28.7;-1.0;
22/07/2019 08:44:45;110;0;142.49;16;-58.36;-1.41;3.8;14.90;70853;4854.286;-13037.676;270;-500;-356.4;91;90.9;0;0.5;28.7;-1.0;
22/07/2019 08:44:55;110;0;144.88;16;-57.53;6.44;5.3;14.90;71205;4854.286;-13037.676;270;-500;-499.0;79;78.7;0;0.5;28.7;-1.0;
22/07/2019 08:45:05;110;0;158.87;16;-47.97;3.86;8.0;15.00;71411;4854.286;-13037.676;270;-500;-499.0;70;70.0;0;0.5;28.7;-1.0;
22/07/2019 08:45:15;100;0;154.24;16;-38.09;4.05;11.7;15.00;71407;4854.286;-13037.676;270;-500;-501.0;70;70.0;0;0.5;28.8;-1.0;
22/07/2019 08:45:35;100;0;151.22;16;-28.71;3.52;18.5;15.00;71412;4854.286;-13037.676;270;-500;-501.0;70;69.9;0;0.9;28.8;0.0;
22/07/2019 08:45:55;100;0;135.67;16;-25.86;3.84;24.1;15.00;71329;4854.286;-13037.676;270;-500;-499.0;70;69.9;-45;-45.1;28.8;0.0;
22/07/2019 08:46:15;100;0;126.31;16;-27.88;-17.35;29.0;15.10;71274;4854.286;-13037.676;270;-500;-497.0;70;69.9;-45;-45.6;28.8;0.0;
22/07/2019 08:46:35;100;0;119.96;16;-28.94;-17.41;34.5;15.00;71208;4854.286;-13037.676;270;-500;-495.0;70;69.9;-45;-45.6;28.8;0.0;
22/07/2019 08:46:55;100;0;121.26;16;-26.12;-17.53;40.1;15.00;71131;4854.286;-13037.676;270;-500;-495.0;70;69.9;-45;-45.6;28.7;0.0;
22/07/2019 08:47:15;100;0;130.54;16;-25.01;-17.54;44.8;15.00;71036;4854.286;-13037.676;270;-500;-495.0;70;69.9;-38;-37.9;28.8;0.0;
22/07/2019 08:47:35;100;0;134.66;16;-25.18;-13.74;49.4;14.90;70955;4854.286;-13037.676;270;-500;-495.0;70;69.9;-36;-36.1;28.8;0.0;
22/07/2019 08:47:55;100;0;136.46;16;-24.62;-12.72;53.9;14.80;70882;4854.286;-13037.676;270;-500;-495.0;70;69.9;-36;-35.6;28.8;0.0;
22/07/2019 08:48:15;100;0;136.21;16;-25.18;-12.65;58.1;14.70;70814;4854.286;-13037.676;270;-500;-497.0;70;69.9;-37;-37.5;28.7;0.0;
22/07/2019 08:48:35;100;0;142.78;16;-24.34;-14.03;62.3;14.60;70754;4854.286;-13037.676;270;-500;-495.0;70;69.9;-34;-33.8;28.8;0.0;
22/07/2019 08:48:55;100;0;147.51;16;-24.92;-11.51;66.3;14.50;70697;4854.286;-13037.676;270;-500;-495.0;70;69.9;-32;-31.6;28.7;0.0;
22/07/2019 08:49:15;100;0;150.06;16;-24.18;-10.69;70.7;14.50;70657;4854.286;-13037.676;270;-500;-495.0;70;69.9;-32;-31.1;28.8;0.0;
22/07/2019 08:49:35;100;0;154.13;16;-24.37;-11.02;74.8;14.40;70597;4854.286;-13037.676;270;-500;-497.0;70;69.9;-31;-31.1;28.7;0.0;
22/07/2019 08:49:55;100;0;155.36;16;-23.95;-10.58;79.2;14.30;70559;4854.286;-13037.676;270;-500;-497.0;70;69.9;-32;-32.0;28.8;0.0;
22/07/2019 08:50:15;100;0;152.26;16;-23.95;-11.42;83.5;14.20;70510;4854.286;-13037.676;270;-500;-497.0;70;69.9;-35;-35.6;28.8;0.0;
22/07/2019 08:50:35;100;0;155.46;16;-23.37;-13.22;87.9;14.10;70493;4854.286;-13037.676;270;-500;-495.0;70;69.7;-33;-32.9;28.8;0.0;
22/07/2019 08:50:55;100;0;159.14;16;-22.67;-11.35;91.8;14.00;70456;4854.286;-13037.676;270;-500;-497.0;70;69.9;-31;-31.1;28.7;0.0;
22/07/2019 08:51:15;100;0;164.81;16;-23.07;-10.64;95.4;13.90;70431;4854.286;-13037.676;270;-500;-495.0;70;69.9;-29;-28.4;28.8;0.0;
22/07/2019 08:51:35;100;0;170.58;16;-22.63;-9.42;99.0;13.80;70409;4854.286;-13037.676;270;-500;-497.0;70;69.9;-27;-26.6;28.8;0.0;
22/07/2019 08:51:55;100;0;173.58;16;-22.14;-8.49;102.7;13.70;70401;4854.286;-13037.676;270;-500;-497.0;70;69.7;-28;-28.0;28.8;0.0;
22/07/2019 08:52:15;100;0;172.71;16;-21.52;-9.61;106.4;13.60;70389;4854.286;-13037.676;270;-500;-495.0;70;69.9;-30;-29.8;28.8;0.0;
22/07/2019 08:52:35;100;0;169.33;16;-21.81;-10.42;109.8;13.50;70370;4854.286;-13037.676;270;-500;-495.0;70;69.9;-32;-32.0;28.8;0.0;
22/07/2019 08:52:55;100;0;171.12;16;-21.90;-11.50;113.2;13.50;70369;4854.286;-13037.676;270;-500;-497.0;70;69.9;-30;-29.8;28.8;0.0;
22/07/2019 08:53:15;100;0;179.93;16;-21.19;-10.01;116.6;13.40;70350;4854.286;-13037.676;270;-500;-497.0;70;69.9;-26;-26.2;28.8;0.0;
22/07/2019 08:53:35;100;0;183.88;16;-20.86;-8.50;120.0;13.30;70343;4854.286;-13037.676;270;-500;-495.0;70;69.9;-25;-24.8;28.8;0.0;
22/07/2019 08:53:55;100;0;189.66;16;-20.42;-7.81;123.3;13.30;70337;4854.286;-13037.676;270;-500;-495.0;70;69.9;-23;-22.6;28.8;0.0;
22/07/2019 08:54:15;100;0;186.55;16;-20.65;-6.68;126.5;13.20;70332;4854.286;-13037.676;270;-500;-495.0;70;69.9;-27;-27.1;28.8;0.0;
22/07/2019 08:54:35;100;0;186.37;16;-20.33;-9.27;129.8;13.10;70320;4854.286;-13037.676;270;-500;-495.0;70;69.7;-28;-28.0;28.8;0.0;
22/07/2019 08:54:55;100;0;190.82;16;-20.04;-9.99;133.0;13.10;70311;4854.286;-13037.676;270;-500;-495.0;70;69.9;-25;-24.8;28.8;0.0;
22/07/2019 08:55:15;100;0;191.20;16;-20.46;-7.89;135.9;13.00;70300;4854.286;-13037.676;270;-500;-497.0;70;69.7;-26;-26.6;28.8;0.0;
22/07/2019 08:55:35;100;0;190.15;16;-20.47;-9.20;139.0;12.90;70301;4854.286;-13037.676;270;-500;-493.1;70;69.9;-27;-27.1;28.8;0.0;
22/07/2019 08:55:55;100;0;190.78;16;-20.17;-9.24;141.9;12.90;70291;4854.286;-13037.676;270;-500;-495.0;70;69.7;-27;-27.1;28.8;0.0;
22/07/2019 08:56:15;100;0;191.22;16;-20.27;-9.27;144.8;12.80;70289;4854.286;-13037.676;270;-500;-495.0;70;69.9;-26;-25.7;28.7;0.0;
22/07/2019 08:56:35;100;0;193.96;16;-20.05;-8.35;147.6;12.80;70270;4854.286;-13037.676;270;-500;-495.0;70;69.7;-26;-25.3;28.8;0.0;
22/07/2019 08:56:55;100;0;197.51;16;-19.91;-8.39;150.3;12.70;70280;4854.286;-13037.676;270;-500;-495.0;70;69.7;-24;-23.9;28.8;0.0;
22/07/2019 08:57:15;100;0;198.79;16;-19.99;-7.54;153.1;12.60;70272;4854.286;-13037.676;270;-500;-495.0;70;69.7;-24;-23.5;28.7;0.0;
22/07/2019 08:57:35;100;0;202.35;16;-19.86;-7.58;155.8;12.60;70261;4854.286;-13037.676;270;-500;-495.0;70;69.9;-23;-23.0;28.8;0.0;
22/07/2019 08:57:55;100;0;205.30;16;-19.83;-6.97;158.4;12.50;70250;4854.286;-13037.676;270;-500;-495.0;70;69.9;-22;-22.1;28.8;0.0;
22/07/2019 08:58:15;100;0;207.22;16;-19.77;-6.99;161.1;12.50;70247;4854.286;-13037.676;270;-500;-495.0;70;69.9;-22;-22.1;28.7;0.0;
22/07/2019 08:58:35;100;0;208.55;16;-19.57;-6.89;163.8;12.40;70237;4854.286;-13037.676;270;-500;-495.0;70;69.9;-22;-22.1;28.8;0.0;
22/07/2019 08:58:55;100;0;209.72;16;-19.61;-7.00;166.5;12.30;70233;4854.286;-13037.676;270;-500;-497.0;70;69.7;-22;-22.1;28.8;0.0;
22/07/2019 08:59:15;100;0;209.71;16;-19.46;-6.83;169.1;12.30;70220;4854.286;-13037.676;270;-500;-497.0;70;69.9;-23;-23.0;28.8;0.0;
22/07/2019 08:59:35;100;0;210.31;16;-19.50;-7.53;171.8;12.20;70222;4854.286;-13037.676;270;-500;-495.0;70;69.7;-22;-21.7;28.8;0.0;
22/07/2019 08:59:55;100;0;210.57;16;-19.48;-6.48;174.5;12.20;70212;4854.286;-13037.676;270;-500;-495.0;70;69.9;-23;-23.0;28.8;0.0;
22/07/2019 09:00:15;100;0;210.08;16;-19.41;-7.70;177.2;12.10;70212;4854.286;-13037.676;270;-500;-495.0;70;69.7;-23;-23.5;28.8;0.0;
22/07/2019 09:00:35;100;0;209.62;16;-19.52;-7.72;179.7;12.10;70197;4854.286;-13037.676;270;-500;-495.0;70;69.7;-24;-23.9;28.8;0.0;
22/07/2019 09:00:55;100;0;208.80;16;-19.28;-7.69;182.2;12.00;70200;4854.286;-13037.676;270;-500;-495.0;70;69.9;-24;-23.9;28.8;0.0;
22/07/2019 09:01:15;100;0;209.17;16;-19.51;-7.69;184.8;12.00;70203;4854.286;-13037.676;270;-500;-495.0;70;69.9;-23;-22.6;28.8;0.0;
22/07/2019 09:01:35;100;0;209.54;16;-19.27;-6.80;187.4;11.90;70187;4854.286;-13037.676;270;-500;-495.0;70;69.9;-23;-22.1;28.8;0.0;
22/07/2019 09:01:55;100;0;209.01;16;-19.28;-6.81;190.0;11.90;70178;4854.286;-13037.676;270;-500;-495.0;70;69.9;-23;-22.1;28.8;0.0;
22/07/2019 09:02:15;100;0;209.60;16;-19.45;-6.87;192.3;11.80;70172;4854.286;-13037.676;270;-500;-495.0;70;69.7;-23;-22.1;28.8;0.0;
22/07/2019 09:02:35;100;0;210.35;16;-19.59;-6.88;194.7;11.80;70172;4854.286;-13037.676;270;-500;-495.0;70;69.9;-23;-22.1;28.8;0.0;
22/07/2019 09:02:55;100;0;211.42;16;-19.42;-6.85;197.1;11.70;70161;4854.286;-13037.676;270;-500;-495.0;70;69.9;-22;-22.1;28.8;0.0;
22/07/2019 09:03:15;100;0;211.01;16;-19.42;-6.88;199.5;11.70;70155;4854.286;-13037.676;270;-500;-495.0;70;69.7;-23;-23.0;28.7;0.0;
22/07/2019 09:03:35;100;0;211.17;16;-19.36;-7.79;201.9;11.60;70150;4854.286;-13037.676;270;-500;-497.0;70;69.7;-23;-23.5;28.8;0.0;
22/07/2019 09:03:55;100;0;212.93;16;-19.03;-7.73;204.3;11.60;70148;4854.286;-13037.676;270;-500;-495.0;70;69.7;-22;-22.1;28.8;0.0;
22/07/2019 09:04:15;100;0;213.27;16;-19.27;-6.40;206.7;11.50;70144;4854.286;-13037.676;270;-500;-495.0;70;69.7;-22;-21.2;28.8;0.0;
22/07/2019 09:04:35;100;0;213.53;16;-19.16;-6.55;209.1;11.50;70128;4854.286;-13037.676;270;-500;-495.0;70;69.9;-22;-21.2;28.8;0.0;
22/07/2019 09:04:55;100;0;214.06;16;-19.17;-6.55;211.4;11.40;70120;4854.286;-13037.676;270;-500;-497.0;70;69.7;-22;-21.2;28.8;0.0;
22/07/2019 09:05:15;100;0;213.86;16;-19.20;-6.50;213.9;11.40;70128;4854.286;-13037.676;270;-500;-495.0;70;69.9;-23;-23.0;28.8;0.0;
22/07/2019 09:05:35;100;0;213.79;16;-19.12;-7.57;216.3;11.30;70103;4854.286;-13037.676;270;-500;-495.0;70;69.7;-23;-23.5;28.8;0.0;
22/07/2019 09:05:55;100;0;215.15;16;-19.03;-7.55;218.8;11.30;70113;4854.286;-13037.676;270;-500;-493.1;70;69.7;-21;-21.2;28.8;0.0;
22/07/2019 09:06:15;100;0;215.61;16;-19.12;-6.05;221.2;11.20;70103;4854.286;-13037.676;270;-500;-495.0;70;69.7;-22;-22.1;28.8;0.0;
22/07/2019 09:06:35;100;0;215.53;16;-19.17;-7.24;223.5;11.20;70108;4854.286;-13037.676;270;-500;-495.0;70;69.7;-22;-22.6;28.8;0.0;
22/07/2019 09:06:55;100;0;216.33;16;-19.22;-7.21;226.0;11.20;70087;4854.286;-13037.676;270;-500;-495.0;70;69.7;-21;-21.2;28.8;0.0;
22/07/2019 09:07:15;100;0;216.84;16;-19.20;-6.06;228.4;11.10;70092;4854.286;-13037.676;270;-500;-495.0;70;69.9;-22;-22.1;28.8;0.0;
22/07/2019 09:07:36;100;0;216.68;16;-19.20;-7.16;230.8;11.10;70083;4854.286;-13037.676;270;-500;-495.0;70;69.7;-22;-22.6;28.8;0.0;
22/07/2019 09:07:56;100;0;216.38;16;-19.06;-7.13;233.3;11.00;70082;4854.286;-13037.676;270;-500;-495.0;70;69.7;-22;-22.6;28.8;0.0;
22/07/2019 09:08:16;100;0;216.50;16;-18.91;-7.14;235.7;11.00;70077;4854.286;-13037.676;270;-500;-495.0;70;69.9;-22;-22.6;28.7;0.0;
22/07/2019 09:08:36;100;0;218.38;16;-18.93;-7.14;238.1;11.00;70074;4854.286;-13037.676;270;-500;-495.0;70;69.7;-21;-21.2;28.7;0.0;
22/07/2019 09:08:56;100;0;219.28;16;-19.06;-6.37;240.6;10.90;70070;4854.286;-13037.676;270;-500;-495.0;70;69.7;-21;-20.8;28.8;0.0;
22/07/2019 09:09:16;100;0;221.03;16;-18.90;-6.32;243.1;10.90;70066;4854.286;-13037.676;270;-500;-495.0;70;69.7;-20;-19.4;28.8;0.0;
22/07/2019 09:09:36;100;0;219.59;16;-18.96;-5.49;245.5;10.90;70054;4854.286;-13037.676;270;-500;-495.0;70;69.9;-21;-21.2;28.8;0.0;
22/07/2019 09:09:56;100;0;220.08;16;-18.89;-6.81;248.0;10.80;70052;4854.286;-13037.676;270;-500;-495.0;70;69.7;-21;-21.7;28.8;0.0;
22/07/2019 09:10:16;100;0;222.21;16;-18.94;-6.78;250.5;10.80;70047;4854.286;-13037.676;270;-500;-493.1;70;69.7;-20;-19.9;28.8;0.0;
22/07/2019 09:10:36;100;0;223.67;16;-18.85;-5.57;253.0;10.70;70056;4854.286;-13037.676;270;-500;-495.0;70;69.9;-20;-19.0;28.8;0.0;
22/07/2019 09:10:56;100;0;223.00;16;-18.89;-5.55;255.5;10.70;70053;4854.286;-13037.676;270;-500;-495.0;70;69.9;-21;-21.2;28.8;0.0;
22/07/2019 09:11:16;100;0;222.60;16;-18.92;-6.70;258.0;10.70;70041;4854.286;-13037.676;270;-500;-495.0;70;69.7;-21;-21.7;28.8;0.0;
22/07/2019 09:11:36;100;0;223.24;16;-18.94;-6.76;260.6;10.60;70041;4854.286;-13037.676;270;-500;-495.0;70;69.7;-20;-19.9;28.8;0.0;
22/07/2019 09:11:56;100;0;223.06;16;-18.95;-5.59;263.1;10.60;70024;4854.286;-13037.676;270;-500;-495.0;70;69.9;-20;-19.0;28.8;0.0;
22/07/2019 09:12:16;100;0;223.01;16;-18.88;-5.56;265.6;10.60;70026;4854.286;-13037.676;270;-500;-495.0;70;69.9;-20;-19.4;28.8;0.0;
22/07/2019 09:12:36;100;0;224.46;16;-18.79;-5.54;268.2;10.50;70014;4854.286;-13037.676;270;-500;-495.0;70;69.9;-20;-19.0;28.8;0.0;
22/07/2019 09:12:56;100;0;224.14;16;-18.71;-5.55;270.8;10.50;70019;4854.286;-13037.676;270;-500;-495.0;70;69.7;-20;-19.0;28.8;0.0;
22/07/2019 09:13:16;100;0;224.42;16;-18.74;-5.60;273.4;10.50;70010;4854.286;-13037.676;270;-500;-495.0;70;69.7;-20;-19.4;28.8;0.0;
22/07/2019 09:13:36;100;0;224.28;16;-18.66;-5.62;276.1;10.40;70004;4854.286;-13037.676;270;-500;-493.1;70;69.7;-20;-19.0;28.8;0.0;
22/07/2019 09:13:56;100;0;222.52;16;-18.62;-5.56;278.7;10.40;70006;4854.286;-13037.676;270;-500;-495.0;70;69.7;-21;-21.2;28.8;0.0;
22/07/2019 09:14:16;100;0;222.85;16;-18.76;-6.66;281.3;10.40;70001;4854.286;-13037.676;270;-500;-495.0;70;69.9;-21;-21.2;28.8;0.0;
22/07/2019 09:14:36;100;0;223.61;16;-18.79;-6.67;283.9;10.30;69999;4854.286;-13037.676;270;-500;-495.0;70;69.7;-20;-19.9;28.8;0.0;
22/07/2019 09:14:56;100;0;224.31;16;-18.66;-5.51;286.5;10.30;69993;4854.286;-13037.676;270;-500;-495.0;70;69.7;-20;-19.0;28.8;0.0;
22/07/2019 09:15:16;100;0;225.09;16;-18.72;-5.54;289.2;10.30;69989;4854.286;-13037.676;270;-500;-495.0;70;69.9;-19;-19.0;28.8;0.0;
22/07/2019 09:15:36;100;0;225.01;16;-18.70;-5.53;291.8;10.20;69975;4854.286;-13037.676;270;-500;-495.0;70;69.7;-20;-19.9;28.8;0.0;
22/07/2019 09:15:56;100;0;225.23;16;-18.64;-6.02;294.4;10.20;69977;4854.286;-13037.676;270;-500;-493.1;70;69.7;-20;-20.3;28.8;0.0;
22/07/2019 09:16:16;100;0;226.49;16;-18.60;-6.04;297.1;10.20;69981;4854.286;-13037.676;270;-500;-495.0;70;69.7;-19;-19.0;28.8;0.0;
22/07/2019 09:16:36;100;0;227.53;16;-18.55;-5.26;299.8;10.10;69973;4854.286;-13037.676;270;-500;-495.0;70;69.7;-19;-18.5;28.8;0.0;
22/07/2019 09:16:56;100;0;228.80;16;-18.44;-5.22;302.5;10.10;69972;4854.286;-13037.676;270;-500;-495.0;70;69.7;-19;-18.1;28.7;0.0;
22/07/2019 09:17:16;100;0;229.71;16;-18.50;-5.26;305.1;10.10;69973;4854.286;-13037.676;270;-500;-495.0;70;69.7;-19;-18.5;28.8;0.0;
22/07/2019 09:17:36;100;0;229.01;16;-18.46;-5.21;307.9;10.10;69968;4854.286;-13037.676;270;-500;-495.0;70;69.7;-19;-18.5;28.8;0.0;
22/07/2019 09:17:56;100;0;228.46;16;-18.57;-5.20;310.6;10.00;69970;4854.286;-13037.676;270;-500;-495.0;70;69.9;-20;-20.3;28.8;0.0;
22/07/2019 09:18:16;100;0;228.47;16;-18.59;-6.30;313.3;10.00;69962;4854.286;-13037.676;270;-500;-495.0;70;69.9;-20;-20.3;28.8;0.0;
22/07/2019 09:18:36;100;0;228.42;16;-18.50;-6.23;316.0;10.00;69957;4854.286;-13037.676;270;-500;-493.1;70;69.7;-20;-20.3;28.8;0.0;
22/07/2019 09:18:56;100;0;229.65;16;-18.43;-6.27;318.7;10.00;69954;4854.286;-13037.676;270;-500;-495.0;70;69.7;-19;-19.0;28.7;0.0;
22/07/2019 09:19:16;100;0;229.32;16;-18.51;-5.16;321.5;9.90;69953;4854.286;-13037.676;270;-500;-495.0;70;69.7;-19;-18.1;28.8;0.0;
22/07/2019 09:19:36;100;0;229.01;16;-18.31;-5.11;324.2;9.90;69950;4854.286;-13037.676;270;-500;-493.1;70;69.7;-19;-18.1;28.8;0.0;
22/07/2019 09:19:56;100;0;227.93;16;-18.39;-5.13;326.9;9.90;69945;4854.286;-13037.676;270;-500;-495.0;70;69.7;-20;-20.3;28.8;0.0;
22/07/2019 09:20:16;100;0;228.10;16;-18.44;-6.21;329.5;9.80;69940;4854.286;-13037.676;270;-500;-493.1;70;69.7;-19;-18.5;28.7;0.0;
22/07/2019 09:20:36;100;0;228.61;16;-18.30;-5.09;332.3;9.80;69940;4854.286;-13037.676;270;-500;-495.0;70;69.9;-19;-18.1;28.8;0.0;
22/07/2019 09:20:56;100;0;227.03;16;-18.37;-5.05;334.8;9.80;69935;4854.286;-13037.676;270;-500;-493.1;70;69.7;-20;-19.9;28.8;0.0;
22/07/2019 09:21:16;100;0;225.61;16;-18.39;-6.17;337.5;9.80;69926;4854.286;-13037.676;270;-500;-495.0;70;69.7;-21;-21.2;28.8;0.0;
22/07/2019 09:21:36;100;0;225.29;16;-18.50;-6.73;340.2;9.70;69933;4854.286;-13037.676;270;-500;-495.0;70;69.7;-21;-21.2;28.8;0.0;
22/07/2019 09:21:56;100;0;225.98;16;-18.37;-6.71;342.9;9.70;69924;4854.286;-13037.676;270;-500;-495.0;70;69.7;-20;-19.9;28.8;0.0;
22/07/2019 09:22:16;100;0;226.84;16;-18.25;-5.52;345.7;9.70;69911;4854.286;-13037.676;270;-500;-493.1;70;69.9;-20;-19.0;28.8;0.0;
22/07/2019 09:22:36;100;0;226.92;16;-18.18;-5.54;348.3;9.70;69918;4854.286;-13037.676;270;-500;-495.0;70;69.7;-20;-19.0;28.7;0.0;
22/07/2019 09:22:56;100;0;226.11;16;-18.15;-5.52;350.9;9.60;69920;4854.286;-13037.676;270;-500;-493.1;70;69.7;-20;-19.0;28.8;0.0;
22/07/2019 09:23:16;100;0;223.73;16;-18.30;-5.42;353.6;9.60;69917;4854.286;-13037.676;270;-500;-495.0;70;69.9;-22;-22.1;28.8;0.0;
22/07/2019 09:23:36;100;0;224.21;16;-18.30;-7.14;356.2;9.60;69917;4854.286;-13037.676;270;-500;-495.0;70;69.7;-20;-19.4;28.7;0.0;
22/07/2019 09:23:56;100;0;224.38;16;-18.16;-5.45;358.9;9.60;69914;4854.286;-13037.676;270;-500;-493.1;70;69.7;-20;-19.0;28.8;0.0;
22/07/2019 09:24:16;100;0;223.87;16;-18.27;-5.44;361.5;9.60;69913;4854.286;-13037.676;270;-500;-495.0;70;69.9;-21;-21.2;28.7;0.0;
22/07/2019 09:24:36;100;0;222.72;16;-18.22;-6.76;364.1;9.50;69908;4854.286;-13037.676;270;-500;-495.0;70;69.7;-21;-21.7;28.8;0.0;
22/07/2019 09:24:56;100;0;222.27;16;-18.25;-6.75;366.8;9.50;69899;4854.286;-13037.676;270;-500;-495.0;70;69.9;-21;-21.7;28.8;0.0;
22/07/2019 09:25:16;100;0;223.63;16;-18.31;-6.85;369.4;9.50;69897;4854.286;-13037.676;270;-500;-495.0;70;69.7;-20;-19.9;28.7;0.0;
22/07/2019 09:25:36;100;0;223.18;16;-18.14;-5.54;371.9;9.40;69894;4854.286;-13037.676;270;-500;-495.0;70;69.7;-20;-19.0;28.8;0.0;
22/07/2019 09:25:56;100;0;221.95;16;-18.00;-5.71;374.6;9.50;69891;4854.286;-13037.676;270;-500;-495.0;70;69.7;-22;-22.1;28.8;0.0;
22/07/2019 09:26:16;100;0;223.48;16;-18.07;-7.23;377.1;9.40;69900;4854.286;-13037.676;270;-500;-495.0;70;69.9;-20;-19.9;28.8;0.0;
22/07/2019 09:26:36;100;0;222.70;16;-18.09;-5.47;379.7;9.40;69891;4854.286;-13037.676;270;-500;-493.1;70;69.7;-21;-21.2;28.8;0.0;
22/07/2019 09:26:56;100;0;223.44;16;-18.11;-6.89;382.3;9.40;69891;4854.286;-13037.676;270;-500;-495.0;70;69.7;-20;-19.9;28.8;0.0;
22/07/2019 09:27:16;100;0;223.05;16;-18.07;-5.68;384.8;9.40;69882;4854.286;-13037.676;270;-500;-495.0;70;69.7;-20;-19.4;28.8;0.0;
22/07/2019 09:27:36;100;0;222.24;16;-18.01;-5.65;387.5;9.30;69880;4854.286;-13037.676;270;-500;-493.1;70;69.9;-21;-21.2;28.8;0.0;
22/07/2019 09:27:56;100;0;222.44;16;-18.03;-6.78;390.0;9.30;69882;4854.286;-13037.676;270;-500;-493.1;70;69.9;-21;-21.2;28.8;0.0;
22/07/2019 09:28:16;100;0;223.15;16;-17.96;-6.79;392.6;9.30;69872;4854.286;-13037.676;270;-500;-495.0;70;69.7;-20;-19.9;28.8;0.0;
22/07/2019 09:28:36;100;0;222.85;16;-17.99;-5.60;395.2;9.30;69878;4854.286;-13037.676;270;-500;-493.1;70;69.9;-21;-21.2;28.8;0.0;
22/07/2019 09:28:56;100;0;223.02;16;-18.06;-7.02;397.7;9.20;69872;4854.286;-13037.676;270;-500;-493.1;70;69.7;-20;-19.9;28.8;0.0;
22/07/2019 09:29:16;100;0;225.54;16;-18.19;-5.50;400.3;9.20;69873;4854.286;-13037.676;270;-500;-493.1;70;69.9;-19;-19.0;28.8;0.0;
22/07/2019 09:29:36;100;0;224.47;16;-18.05;-5.51;402.8;9.20;69871;4854.286;-13037.676;270;-500;-495.0;70;69.7;-20;-19.9;28.7;0.0;
22/07/2019 09:29:56;100;0;224.91;16;-18.04;-5.99;405.2;9.20;69857;4854.286;-13037.676;270;-500;-495.0;70;69.7;-20;-19.9;28.8;0.0;
22/07/2019 09:30:16;100;0;226.45;16;-17.87;-6.13;407.8;9.20;69861;4854.286;-13037.676;270;-500;-493.1;70;69.7;-19;-19.0;28.8;0.0;
22/07/2019 09:30:36;100;0;226.08;16;-17.81;-5.23;410.4;9.10;69844;4854.286;-13037.676;270;-500;-493.1;70;69.7;-20;-19.9;28.8;0.0;
22/07/2019 09:30:56;100;0;226.20;16;-17.86;-6.29;412.9;9.10;69860;4854.286;-13037.676;270;-500;-493.1;70;69.7;-20;-20.3;28.8;0.0;
22/07/2019 09:31:16;100;0;226.38;16;-17.84;-6.30;415.6;9.10;69854;4854.286;-13037.676;270;-500;-493.1;70;69.7;-20;-20.3;28.8;0.0;
22/07/2019 09:31:36;100;0;226.40;16;-17.75;-6.28;418.0;9.10;69847;4854.286;-13037.676;270;-500;-495.0;70;69.7;-20;-20.3;28.8;0.0;
22/07/2019 09:31:56;100;0;226.53;16;-17.79;-6.22;420.6;9.10;69836;4854.286;-13037.676;270;-500;-493.1;70;69.7;-20;-20.3;28.8;0.0;
22/07/2019 09:32:16;100;0;226.89;16;-17.82;-6.28;423.0;9.10;69847;4854.286;-13037.676;270;-500;-493.1;70;69.9;-20;-20.3;28.8;0.0;
22/07/2019 09:32:36;100;0;227.23;16;-17.74;-6.29;425.6;9.00;69842;4854.286;-13037.676;270;-500;-495.0;70;69.7;-19;-19.0;28.8;0.0;
22/07/2019 09:32:56;100;0;227.11;16;-17.71;-5.12;428.1;9.00;69847;4854.286;-13037.676;270;-500;-495.0;70;69.7;-20;-19.9;28.8;0.0;
22/07/2019 09:33:16;100;0;226.77;16;-17.79;-6.16;430.5;9.00;69837;4854.286;-13037.676;270;-500;-495.0;70;69.9;-20;-20.3;28.8;0.0;
22/07/2019 09:33:36;100;0;228.25;16;-17.73;-6.23;433.0;9.00;69834;4854.286;-13037.676;270;-500;-493.1;70;69.9;-19;-19.0;28.8;0.0;
22/07/2019 09:33:56;100;0;228.52;16;-17.82;-5.37;435.6;8.90;69822;4854.286;-13037.676;270;-500;-493.1;70;69.9;-19;-18.5;28.8;0.0;
22/07/2019 09:34:16;100;0;227.43;16;-17.67;-5.38;438.1;8.90;69817;4854.286;-13037.676;270;-500;-495.0;70;69.7;-20;-19.9;28.8;0.0;
22/07/2019 09:34:36;100;0;228.06;16;-17.75;-6.23;440.6;8.90;69813;4854.286;-13037.676;270;-500;-493.1;70;69.7;-19;-19.0;28.8;0.0;
22/07/2019 09:34:56;100;0;228.83;16;-17.56;-5.35;443.1;8.90;69811;4854.286;-13037.676;270;-500;-493.1;70;69.7;-19;-18.5;28.8;0.0;
22/07/2019 09:35:16;100;0;228.49;16;-17.65;-5.35;445.4;8.90;69814;4854.286;-13037.676;270;-500;-493.1;70;69.7;-19;-18.5;28.8;0.0;
22/07/2019 09:35:36;100;0;228.57;16;-17.73;-5.35;447.9;8.90;69808;4854.286;-13037.676;270;-500;-493.1;70;69.9;-19;-18.5;28.8;0.0;
22/07/2019 09:35:56;100;0;228.39;16;-17.70;-5.36;450.3;8.80;69783;4854.286;-13037.676;270;-500;-495.0;70;69.9;-19;-18.5;28.8;0.0;
22/07/2019 09:36:16;100;0;227.95;16;-17.62;-5.34;452.6;8.80;69795;4854.286;-13037.676;270;-500;-493.1;70;69.7;-20;-20.3;28.7;0.0;
22/07/2019 09:36:36;100;0;229.46;16;-17.69;-6.44;455.0;8.80;69792;4854.286;-13037.676;270;-500;-495.0;70;69.7;-19;-19.0;28.8;0.0;
22/07/2019 09:36:56;100;0;230.50;16;-17.60;-5.25;457.5;8.80;69786;4854.286;-13037.676;270;-500;-493.1;70;69.9;-18;-18.1;28.8;0.0;
22/07/2019 09:37:16;100;0;229.49;16;-17.65;-5.23;459.9;8.70;69782;4854.286;-13037.676;270;-500;-493.1;70;69.7;-19;-19.0;28.8;0.0;
22/07/2019 09:37:36;100;0;228.30;16;-17.60;-5.68;462.2;8.70;69787;4854.286;-13037.676;270;-500;-493.1;70;69.9;-20;-20.3;28.8;0.0;
22/07/2019 09:37:56;100;0;227.38;16;-17.65;-6.29;464.6;8.70;69781;4854.286;-13037.676;270;-500;-493.1;70;69.7;-20;-20.3;28.8;0.0;
22/07/2019 09:38:16;100;0;226.61;16;-17.57;-6.27;466.9;8.70;69773;4854.286;-13037.676;270;-500;-493.1;70;69.7;-21;-21.2;28.8;0.0;
22/07/2019 09:38:36;100;0;225.99;16;-17.44;-6.76;469.3;8.70;69770;4854.286;-13037.676;270;-500;-493.1;70;69.7;-21;-21.7;28.8;0.0;
22/07/2019 09:38:56;100;0;227.07;16;-17.51;-6.80;471.7;8.70;69772;4854.286;-13037.676;270;-500;-493.1;70;69.7;-19;-18.5;28.8;0.0;
22/07/2019 09:39:16;100;0;227.81;16;-17.41;-5.17;474.0;8.70;69772;4854.286;-13037.676;270;-500;-493.1;70;69.7;-20;-19.9;28.8;0.0;
22/07/2019 09:39:36;100;0;226.76;16;-17.61;-6.16;476.3;8.60;69765;4854.286;-13037.676;270;-500;-493.1;70;69.7;-20;-20.3;28.8;0.0;
22/07/2019 09:39:56;100;0;225.46;16;-17.42;-6.17;478.7;8.60;69758;4854.286;-13037.676;270;-500;-493.1;70;69.9;-21;-21.2;28.8;0.0;
22/07/2019 09:40:16;100;0;225.64;16;-17.52;-6.97;480.9;8.60;69757;4854.286;-13037.676;270;-500;-493.1;70;69.7;-20;-19.9;28.8;0.0;
22/07/2019 09:40:36;100;0;226.03;16;-17.31;-5.51;483.4;8.60;69752;4854.286;-13037.676;270;-500;-493.1;70;69.7;-20;-19.0;28.8;0.0;
22/07/2019 09:40:56;100;0;225.42;16;-17.30;-5.48;485.6;8.50;69759;4854.286;-13037.676;270;-500;-493.1;70;69.9;-20;-19.0;28.8;0.0;
22/07/2019 09:41:16;100;0;224.06;16;-17.32;-5.47;487.9;8.50;69755;4854.286;-13037.676;270;-500;-493.1;70;69.7;-21;-21.7;28.8;0.0;
22/07/2019 09:41:37;100;0;222.45;16;-17.38;-6.94;490.2;8.50;69745;4854.286;-13037.676;270;-500;-493.1;70;69.7;-22;-22.1;28.7;0.0;
22/07/2019 09:41:57;100;0;222.23;16;-17.33;-7.23;492.5;8.50;69755;4854.286;-13037.676;270;-500;-493.1;70;69.7;-21;-21.2;28.8;0.0;
22/07/2019 09:42:17;100;0;223.48;16;-17.20;-6.34;494.8;8.50;69755;4854.286;-13037.676;270;-500;-493.1;70;69.7;-20;-19.4;28.8;0.0;
22/07/2019 09:42:37;100;0;224.23;16;-17.08;-5.49;497.0;8.50;69747;4854.286;-13037.676;270;-500;-493.1;70;69.7;-20;-18.5;28.8;0.0;
22/07/2019 09:42:57;100;0;223.73;16;-17.17;-5.55;499.2;8.40;69736;4854.286;-13037.676;270;-500;-491.1;70;69.7;-21;-21.2;28.8;0.0;
22/07/2019 09:43:17;100;0;224.92;16;-17.12;-6.88;501.4;8.40;69739;4854.286;-13037.676;270;-500;-493.1;70;69.9;-20;-19.9;28.8;0.0;
22/07/2019 09:43:37;100;0;225.83;16;-17.18;-5.66;503.6;8.40;69744;4854.286;-13037.676;270;-500;-493.1;70;69.9;-20;-19.0;28.8;0.0;
22/07/2019 09:43:57;100;0;226.75;16;-17.24;-5.77;505.6;8.40;69730;4854.286;-13037.676;270;-500;-493.1;70;69.9;-19;-19.0;28.7;0.0;
22/07/2019 09:44:17;100;0;227.86;16;-17.26;-5.70;507.8;8.40;69734;4854.286;-13037.676;270;-500;-493.1;70;69.7;-19;-19.0;28.8;0.0;
22/07/2019 09:44:37;100;0;228.30;16;-17.06;-5.71;509.9;8.40;69735;4854.286;-13037.676;270;-500;-493.1;70;69.7;-19;-19.0;28.8;0.0;
22/07/2019 09:44:57;100;0;231.62;16;-16.53;-5.67;512.1;8.30;69721;4854.286;-13037.676;270;-500;-493.1;70;69.7;-17;-16.7;28.8;0.0;
22/07/2019 09:45:17;100;0;232.03;16;-17.23;-4.29;514.1;8.30;69721;4854.286;-13037.676;270;-500;-493.1;70;69.7;-18;-18.1;28.8;0.0;
22/07/2019 09:45:37;100;0;232.50;16;-17.25;-5.29;516.1;8.30;69720;4854.286;-13037.676;270;-500;-493.1;70;69.7;-18;-18.5;28.8;0.0;
22/07/2019 09:45:57;100;0;232.14;16;-17.01;-5.39;518.1;8.30;69712;4854.286;-13037.676;270;-500;-491.1;70;69.7;-18;-18.5;28.8;0.0;
22/07/2019 09:46:17;100;0;232.29;16;-17.07;-5.37;520.2;8.30;69709;4854.286;-13037.676;270;-500;-493.1;70;69.7;-19;-19.0;28.8;0.0;
22/07/2019 09:46:37;100;0;232.70;16;-16.98;-5.90;522.2;8.20;69701;4854.286;-13037.676;270;-500;-493.1;70;69.7;-19;-19.4;28.8;0.0;
22/07/2019 09:46:57;100;0;233.10;16;-16.94;-5.90;524.1;8.20;69707;4854.286;-13037.676;270;-500;-493.1;70;69.7;-18;-17.6;28.7;0.0;
22/07/2019 09:47:17;100;0;230.56;16;-16.90;-4.57;526.1;8.20;69699;4854.286;-13037.676;270;-500;-493.1;70;69.7;-20;-20.3;28.8;0.0;
22/07/2019 09:47:37;100;0;230.45;16;-17.07;-6.25;528.0;8.20;69702;4854.286;-13037.676;270;-500;-493.1;70;69.7;-20;-20.3;28.8;0.0;
22/07/2019 09:47:57;100;0;230.43;16;-17.02;-6.30;529.9;8.20;69706;4854.286;-13037.676;270;-500;-493.1;70;69.7;-19;-19.0;28.8;0.0;
22/07/2019 09:48:17;100;0;229.24;16;-17.11;-5.15;531.8;8.20;69689;4854.286;-13037.676;270;-500;-493.1;70;69.7;-20;-19.9;28.8;0.0;
22/07/2019 09:48:37;100;0;229.26;16;-16.87;-6.31;533.7;8.10;69690;4854.286;-13037.676;270;-500;-493.1;70;69.7;-20;-20.3;28.8;0.0;
22/07/2019 09:48:57;100;0;227.31;16;-17.00;-6.27;535.6;8.10;69686;4854.286;-13037.676;270;-500;-493.1;70;69.7;-21;-21.2;28.8;0.0;
22/07/2019 09:49:17;100;0;229.04;16;-17.07;-6.86;537.5;8.10;69692;4854.286;-13037.676;270;-500;-493.1;70;69.7;-19;-19.0;28.8;0.0;
22/07/2019 09:49:37;100;0;229.44;16;-16.79;-5.31;539.3;8.10;69684;4854.286;-13037.676;270;-500;-493.1;70;69.9;-19;-18.5;28.8;0.0;
22/07/2019 09:49:57;100;0;229.69;16;-16.78;-5.42;541.2;8.10;69680;4854.286;-13037.676;270;-500;-493.1;70;69.7;-19;-18.5;28.8;0.0;
22/07/2019 09:50:17;100;0;230.38;16;-16.79;-5.42;543.0;8.10;69680;4854.286;-13037.676;270;-500;-493.1;70;69.7;-19;-18.5;28.8;0.0;
22/07/2019 09:50:37;100;0;231.14;16;-16.81;-5.41;544.7;8.10;69671;4854.286;-13037.676;270;-500;-493.1;70;69.7;-18;-17.6;28.8;0.0;
22/07/2019 09:50:57;100;0;231.84;16;-16.81;-4.77;546.4;8.00;69669;4854.286;-13037.676;270;-500;-493.1;70;69.7;-19;-19.0;28.7;0.0;
22/07/2019 09:51:17;100;0;231.01;16;-16.90;-5.77;548.2;8.00;69671;4854.286;-13037.676;270;-500;-493.1;70;69.9;-19;-19.0;28.8;0.0;
22/07/2019 09:51:37;100;0;230.15;16;-16.88;-5.79;550.0;8.00;69669;4854.286;-13037.676;270;-500;-493.1;70;69.7;-19;-19.4;28.8;0.0;
22/07/2019 09:51:57;100;0;230.56;16;-16.81;-5.83;551.8;8.00;69654;4854.286;-13037.676;270;-500;-493.1;70;69.7;-19;-19.4;28.8;0.0;
22/07/2019 09:52:17;100;0;230.46;16;-16.81;-5.81;553.5;8.00;69661;4854.286;-13037.676;270;-500;-493.1;70;69.7;-19;-19.4;28.8;0.0;
22/07/2019 09:52:37;100;0;229.94;16;-16.75;-5.79;555.3;8.00;69653;4854.286;-13037.676;270;-500;-493.1;70;69.7;-20;-19.9;28.8;0.0;
22/07/2019 09:52:57;100;0;229.40;16;-16.83;-6.29;557.0;7.90;69655;4854.286;-13037.676;270;-500;-491.1;70;69.7;-20;-20.3;28.8;0.0;
22/07/2019 09:53:17;100;0;230.54;16;-16.91;-6.31;558.8;7.90;69653;4854.286;-13037.676;270;-500;-493.1;70;69.7;-19;-19.0;28.8;0.0;
22/07/2019 09:53:37;100;0;229.17;16;-16.76;-5.14;560.6;7.90;69655;4854.286;-13037.676;270;-500;-493.1;70;69.7;-20;-19.9;28.7;0.0;
22/07/2019 09:53:57;100;0;228.98;16;-16.67;-6.22;562.4;7.90;69655;4854.286;-13037.676;270;-500;-491.1;70;69.7;-20;-20.3;28.8;0.0;
22/07/2019 09:54:17;100;0;229.53;16;-16.74;-6.32;564.1;7.90;69633;4854.286;-13037.676;270;-500;-493.1;70;69.7;-19;-19.0;28.8;0.0;
22/07/2019 09:54:37;100;0;230.33;16;-16.73;-5.44;565.8;7.90;69645;4854.286;-13037.676;270;-500;-493.1;70;69.7;-19;-18.5;28.8;0.0;
22/07/2019 09:54:57;100;0;230.54;16;-16.70;-5.46;567.6;7.80;69636;4854.286;-13037.676;270;-500;-491.1;70;69.7;-19;-18.5;28.8;0.0;
22/07/2019 09:55:17;100;0;230.27;16;-16.58;-5.42;569.4;7.80;69642;4854.286;-13037.676;270;-500;-493.1;70;69.9;-19;-18.5;28.8;0.0;
22/07/2019 09:55:37;100;0;229.89;16;-16.69;-5.40;571.1;7.80;69648;4854.286;-13037.676;270;-500;-491.1;70;69.7;-20;-19.9;28.8;0.0;
22/07/2019 09:55:57;100;0;229.75;16;-16.60;-6.27;572.8;7.80;69636;4854.286;-13037.676;270;-500;-493.1;70;69.7;-19;-19.0;28.8;0.0;
22/07/2019 09:56:17;100;0;229.24;16;-16.57;-5.40;574.6;7.80;69644;4854.286;-13037.676;270;-500;-493.1;70;69.9;-19;-18.5;28.8;0.0;
22/07/2019 09:56:37;100;0;229.39;16;-16.64;-5.43;576.4;7.80;69637;4854.286;-13037.676;270;-500;-493.1;70;69.7;-19;-18.5;28.8;0.0;
22/07/2019 09:56:57;100;0;230.34;16;-16.42;-5.41;578.2;7.80;69633;4854.286;-13037.676;270;-500;-493.1;70;69.9;-19;-18.5;28.8;0.0;
22/07/2019 09:57:17;100;0;230.83;16;-16.69;-5.46;580.0;7.70;69632;4854.286;-13037.676;270;-500;-491.1;70;69.7;-19;-18.5;28.8;0.0;
22/07/2019 09:57:37;100;0;230.66;16;-16.86;-5.55;581.7;7.70;69632;4854.286;-13037.676;270;-500;-491.1;70;69.7;-19;-18.5;28.8;0.0;
22/07/2019 09:57:57;100;0;230.80;16;-16.64;-5.47;583.5;7.70;69631;4854.286;-13037.676;270;-500;-493.1;70;69.7;-19;-18.5;28.8;0.0;
22/07/2019 09:58:17;100;0;230.56;16;-16.41;-5.42;585.3;7.70;69637;4854.286;-13037.676;270;-500;-491.1;70;69.7;-19;-18.5;28.8;0.0;
22/07/2019 09:58:37;100;0;230.09;16;-16.54;-5.42;587.0;7.70;69637;4854.286;-13037.676;270;-500;-491.1;70;69.9;-19;-18.5;28.7;0.0;
22/07/2019 09:58:57;100;0;228.17;16;-16.47;-5.42;588.9;7.70;69633;4854.286;-13037.676;270;-500;-493.1;70;69.7;-20;-20.3;28.8;0.0;
22/07/2019 09:59:17;100;0;227.72;16;-16.44;-6.42;590.6;7.70;69628;4854.286;-13037.676;270;-500;-491.1;70;69.9;-20;-20.8;28.8;0.0;
22/07/2019 09:59:37;100;0;227.23;16;-16.38;-6.39;592.6;7.70;69628;4854.286;-13037.676;270;-500;-491.1;70;69.7;-20;-20.8;28.8;0.0;
22/07/2019 09:59:57;100;0;227.84;16;-16.36;-6.47;594.4;7.60;69630;4854.286;-13037.676;270;-500;-491.1;70;69.7;-20;-20.8;28.7;0.0;
22/07/2019 10:00:17;100;0;228.23;16;-16.40;-6.49;596.3;7.60;69625;4854.286;-13037.676;270;-500;-491.1;70;69.7;-19;-19.0;28.8;0.0;
22/07/2019 10:00:37;100;0;228.03;16;-16.45;-5.13;598.2;7.60;69624;4854.286;-13037.676;270;-500;-491.1;70;69.9;-19;-18.1;28.8;0.0;
22/07/2019 10:00:57;100;0;227.41;16;-16.47;-5.23;600.0;7.60;69619;4854.286;-13037.676;270;-500;-491.1;70;69.7;-20;-19.9;28.8;0.0;
22/07/2019 10:01:17;100;0;227.13;16;-16.48;-6.27;601.8;7.60;69617;4854.286;-13037.676;270;-500;-493.1;70;69.7;-20;-20.3;28.8;0.0;
22/07/2019 10:01:37;100;0;227.44;16;-16.54;-6.31;603.8;7.60;69620;4854.286;-13037.676;270;-500;-491.1;70;69.9;-20;-20.3;28.8;0.0;
22/07/2019 10:01:57;100;0;227.71;16;-16.50;-6.33;605.7;7.60;69611;4854.286;-13037.676;270;-500;-491.1;70;69.7;-20;-20.3;28.8;0.0;
22/07/2019 10:02:17;100;0;228.18;16;-16.46;-6.34;607.7;7.50;69612;4854.286;-13037.676;270;-500;-491.1;70;69.7;-19;-19.0;28.7;0.0;
22/07/2019 10:02:37;100;0;227.85;16;-16.25;-5.48;609.6;7.50;69612;4854.286;-13037.676;270;-500;-491.1;70;69.7;-20;-19.9;28.8;0.0;
22/07/2019 10:02:57;100;0;227.71;16;-16.15;-6.24;611.6;7.50;69599;4854.286;-13037.676;270;-500;-491.1;70;69.7;-20;-20.3;28.8;0.0;
22/07/2019 10:03:17;100;0;228.58;16;-16.19;-6.34;613.6;7.50;69611;4854.286;-13037.676;270;-500;-491.1;70;69.9;-19;-19.0;28.8;0.0;
22/07/2019 10:03:37;100;0;229.22;16;-16.19;-5.42;615.5;7.50;69603;4854.286;-13037.676;270;-500;-491.1;70;69.7;-19;-18.5;28.8;0.0;
22/07/2019 10:03:57;100;0;229.28;16;-16.21;-5.50;617.4;7.50;69603;4854.286;-13037.676;270;-500;-489.1;70;69.9;-19;-18.5;28.8;0.0;
22/07/2019 10:04:17;100;0;228.25;16;-16.22;-5.42;619.5;7.50;69597;4854.286;-13037.676;270;-500;-491.1;70;69.7;-20;-20.3;28.8;0.0;
22/07/2019 10:04:37;100;0;227.92;16;-16.20;-6.53;621.4;7.50;69597;4854.286;-13037.676;270;-500;-491.1;70;69.7;-20;-20.8;28.7;0.0;
22/07/2019 10:04:57;100;0;227.85;16;-16.42;-6.47;623.4;7.50;69608;4854.286;-13037.676;270;-500;-491.1;70;69.7;-20;-20.8;28.8;0.0;
22/07/2019 10:05:17;100;0;227.78;16;-16.22;-6.46;625.4;7.40;69599;4854.286;-13037.676;270;-500;-491.1;70;69.9;-20;-20.8;28.8;0.0;
22/07/2019 10:05:37;100;0;227.29;16;-16.33;-6.49;627.4;7.40;69598;4854.286;-13037.676;270;-500;-491.1;70;69.7;-20;-20.3;28.8;0.0;
22/07/2019 10:05:57;100;0;226.61;16;-16.22;-6.47;629.4;7.40;69600;4854.286;-13037.676;270;-500;-491.1;70;69.7;-20;-20.3;28.8;0.0;
22/07/2019 10:06:17;100;0;225.94;16;-16.20;-6.48;631.5;7.40;69601;4854.286;-13037.676;270;-500;-491.1;70;69.7;-21;-21.2;28.7;0.0;
22/07/2019 10:06:37;100;0;227.38;16;-16.15;-7.02;633.5;7.40;69592;4854.286;-13037.676;270;-500;-491.1;70;69.7;-19;-19.0;28.8;0.0;
22/07/2019 10:06:57;100;0;227.84;16;-16.13;-5.33;635.5;7.40;69602;4854.286;-13037.676;270;-500;-491.1;70;69.7;-19;-18.1;28.7;0.0;
22/07/2019 10:07:17;100;0;226.11;16;-16.03;-5.26;637.6;7.40;69600;4854.286;-13037.676;270;-500;-491.1;70;69.7;-20;-19.9;28.8;0.0;
22/07/2019 10:07:37;100;0;225.38;16;-16.07;-6.30;639.6;7.40;69587;4854.286;-13037.676;270;-500;-491.1;70;69.7;-21;-21.2;28.8;0.0;
22/07/2019 10:07:57;100;0;226.25;16;-16.15;-6.87;641.6;7.30;69591;4854.286;-13037.676;270;-500;-491.1;70;69.7;-20;-19.9;28.8;0.0;
22/07/2019 10:08:17;100;0;226.66;16;-16.02;-5.71;643.7;7.30;69595;4854.286;-13037.676;270;-500;-491.1;70;69.7;-20;-19.0;28.8;0.0;
22/07/2019 10:08:37;100;0;228.03;16;-16.05;-5.80;645.7;7.30;69590;4854.286;-13037.676;270;-500;-491.1;70;69.9;-19;-19.0;28.8;0.0;
22/07/2019 10:08:57;100;0;228.36;16;-16.11;-5.72;647.9;7.30;69584;4854.286;-13037.676;270;-500;-491.1;70;69.7;-19;-19.0;28.8;0.0;
22/07/2019 10:09:17;100;0;227.03;16;-16.05;-5.67;649.9;7.30;69582;4854.286;-13037.676;270;-500;-489.1;70;69.9;-20;-19.9;28.8;0.0;
22/07/2019 10:09:37;100;0;227.58;16;-16.01;-6.53;652.0;7.30;69580;4854.286;-13037.676;270;-500;-491.1;70;69.7;-20;-20.3;28.8;0.0;
22/07/2019 10:09:57;100;0;227.02;16;-15.94;-6.41;654.0;7.30;69583;4854.286;-13037.676;270;-500;-491.1;70;69.7;-20;-20.3;28.8;0.0;
22/07/2019 10:10:17;100;0;226.71;16;-16.00;-6.41;656.0;7.30;69587;4854.286;-13037.676;270;-500;-491.1;70;69.7;-20;-20.3;28.8;0.0;
22/07/2019 10:10:37;100;0;227.56;16;-15.95;-6.46;658.0;7.30;69576;4854.286;-13037.676;270;-500;-491.1;70;69.7;-20;-20.3;28.8;0.0;
22/07/2019 10:10:57;100;0;228.19;16;-15.89;-6.49;660.0;7.20;69578;4854.286;-13037.676;270;-500;-491.1;70;69.7;-19;-19.0;28.8;0.0;
22/07/2019 10:11:17;100;0;226.89;16;-15.70;-5.26;662.1;7.20;69578;4854.286;-13037.676;270;-500;-491.1;70;69.9;-20;-19.9;28.7;0.0;
22/07/2019 10:11:37;100;0;226.31;16;-15.78;-6.29;664.1;7.20;69582;4854.286;-13037.676;270;-500;-491.1;70;69.9;-20;-20.3;28.8;0.0;
22/07/2019 10:11:57;100;0;225.67;16;-15.89;-6.34;666.1;7.20;69580;4854.286;-13037.676;270;-500;-491.1;70;69.7;-21;-21.7;28.7;0.0;
22/07/2019 10:12:17;100;0;226.09;16;-16.02;-7.21;668.0;7.20;69572;4854.286;-13037.676;270;-500;-491.1;70;69.9;-20;-19.9;28.7;0.0;
22/07/2019 10:12:37;100;0;225.80;16;-15.85;-5.69;670.0;7.20;69573;4854.286;-13037.676;270;-500;-489.1;70;69.9;-20;-19.0;28.8;0.0;
22/07/2019 10:12:57;100;0;224.79;16;-15.79;-5.69;672.0;7.20;69566;4854.286;-13037.676;270;-500;-491.1;70;69.7;-21;-21.2;28.8;0.0;
22/07/2019 10:13:17;100;0;225.38;16;-15.96;-7.09;673.9;7.20;69571;4854.286;-13037.676;270;-500;-491.1;70;69.7;-20;-19.4;28.8;0.0;
22/07/2019 10:13:37;100;0;225.97;16;-15.82;-5.63;675.9;7.20;69569;4854.286;-13037.676;270;-500;-491.1;70;69.7;-20;-18.5;28.8;0.0;
22/07/2019 10:13:57;100;0;225.80;16;-15.92;-5.66;677.8;7.20;69570;4854.286;-13037.676;270;-500;-491.1;70;69.9;-20;-19.0;28.8;0.0;
22/07/2019 10:14:17;100;0;225.32;16;-15.86;-5.65;679.8;7.10;69566;4854.286;-13037.676;270;-500;-491.1;70;69.7;-20;-18.5;28.8;0.0;
22/07/2019 10:14:37;100;0;224.42;16;-15.80;-5.62;681.8;7.10;69553;4854.286;-13037.676;270;-500;-491.1;70;69.7;-21;-21.2;28.8;0.0;
22/07/2019 10:14:57;100;0;225.11;16;-15.86;-7.01;683.7;7.10;69564;4854.286;-13037.676;270;-500;-491.1;70;69.7;-20;-19.9;28.8;0.0;
22/07/2019 10:15:17;100;0;225.09;16;-15.78;-5.80;685.5;7.10;69564;4854.286;-13037.676;270;-500;-491.1;70;69.7;-20;-19.0;28.8;0.0;
22/07/2019 10:15:37;100;0;224.41;16;-15.73;-5.82;687.5;7.10;69552;4854.286;-13037.676;270;-500;-491.1;70;69.7;-21;-21.7;28.7;0.0;
22/07/2019 10:15:58;100;0;224.33;16;-15.89;-7.18;689.4;7.10;69560;4854.286;-13037.676;270;-500;-491.1;70;69.7;-20;-19.9;28.8;0.0;
22/07/2019 10:16:18;100;0;224.17;16;-15.78;-5.76;691.2;7.10;69550;4854.286;-13037.676;270;-500;-491.1;70;69.7;-20;-19.0;28.8;0.0;
22/07/2019 10:16:38;100;0;223.91;16;-15.77;-5.75;693.2;7.10;69554;4854.286;-13037.676;270;-500;-491.1;70;69.7;-21;-21.7;28.7;0.0;
22/07/2019 10:16:58;100;0;224.16;16;-15.73;-7.08;695.1;7.10;69549;4854.286;-13037.676;270;-500;-491.1;70;69.7;-20;-19.9;28.8;0.0;
22/07/2019 10:17:18;100;0;223.78;16;-15.71;-5.81;697.0;7.10;69551;4854.286;-13037.676;270;-500;-491.1;70;69.7;-21;-21.2;28.8;0.0;
22/07/2019 10:17:38;100;0;223.11;16;-15.71;-6.99;698.9;7.00;69553;4854.286;-13037.676;270;-500;-493.1;70;69.7;-21;-21.7;28.8;0.0;
22/07/2019 10:17:58;118;0;223.45;16;-15.56;-7.01;700.9;7.00;69553;4854.286;-13037.676;270;150;-475.2;57;56.8;0;0.5;28.8;0.0;
22/07/2019 10:18:08;118;0;123.28;16;1.97;3.57;701.7;7.00;69463;4854.286;-13037.676;270;150;-314.9;57;57.1;0;0.9;27.5;0.0;
22/07/2019 10:18:18;118;0;118.62;16;16.37;3.39;701.5;7.00;69260;4854.286;-13037.676;270;150;-162.4;57;57.1;0;0.9;27.6;-1.0;
22/07/2019 10:18:28;118;0;118.59;16;19.91;3.37;700.9;7.00;68998;4854.286;-13037.676;270;150;-5.9;57;57.1;0;0.9;27.5;-1.0;
22/07/2019 10:18:38;118;0;119.83;16;20.03;3.50;700.1;7.00;68749;4854.286;-13037.676;270;150;146.5;57;57.1;0;0.5;27.4;-1.0;
22/07/2019 10:18:48;118;0;118.70;16;22.29;3.58;698.8;7.00;68505;4854.286;-13037.676;270;150;158.4;57;57.1;0;0.9;27.3;-1.0;
22/07/2019 10:18:58;118;0;216.43;16;24.75;3.44;697.0;7.00;68499;4854.286;-13037.676;270;150;158.4;57;57.1;0;0.9;28.7;-1.0;
22/07/2019 10:19:08;117;0;216.18;16;25.73;3.34;694.8;7.00;68516;4854.286;-13037.676;270;150;158.4;57;57.1;0;0.9;28.7;-1.0;
22/07/2019 10:19:28;117;0;212.86;16;26.71;3.37;689.8;7.10;68517;4854.286;-13037.676;270;150;160.4;57;57.1;27;27.1;28.7;-1.0;
22/07/2019 10:19:48;117;0;222.44;16;25.96;16.40;684.0;7.10;68502;4854.286;-13037.676;270;150;160.4;57;56.9;19;19.0;28.7;-1.0;
22/07/2019 10:20:08;117;0;223.90;16;26.29;11.55;678.8;7.10;68505;4854.286;-13037.676;270;150;160.4;57;57.1;19;18.5;28.8;-1.0;
22/07/2019 10:20:28;117;0;225.55;16;26.71;11.54;673.5;7.10;68503;4854.286;-13037.676;270;150;160.4;57;56.9;19;18.5;28.8;-1.0;
22/07/2019 10:20:48;117;0;228.84;16;26.49;11.51;668.0;7.10;68506;4854.286;-13037.676;270;150;158.4;57;56.9;18;18.1;28.7;-1.0;
22/07/2019 10:21:08;117;0;233.39;16;26.18;11.18;662.7;7.00;68499;4854.286;-13037.676;270;150;160.4;57;56.9;16;15.3;28.8;-1.0;
22/07/2019 10:21:28;117;0;237.41;16;26.06;9.75;657.5;7.00;68499;4854.286;-13037.676;270;150;160.4;57;57.1;15;14.9;28.7;-1.0;
22/07/2019 10:21:48;117;0;239.17;16;26.15;9.83;652.3;7.00;68494;4854.286;-13037.676;270;150;160.4;57;56.9;15;14.9;28.7;-1.0;
22/07/2019 10:22:08;117;0;241.74;16;26.34;9.83;647.2;7.00;68494;4854.286;-13037.676;270;150;160.4;57;56.9;15;14.9;28.7;-1.0;
22/07/2019 10:22:28;117;0;242.06;16;26.58;9.74;641.9;7.00;68491;4854.286;-13037.676;270;150;160.4;57;56.9;15;14.9;28.8;-1.0;
22/07/2019 10:22:48;117;0;243.46;16;26.38;9.86;636.6;7.00;68495;4854.286;-13037.676;270;150;160.4;57;56.9;15;14.9;28.8;-1.0;
22/07/2019 10:23:08;117;0;246.35;16;26.19;9.80;631.5;7.00;68492;4854.286;-13037.676;270;150;160.4;57;56.9;14;14.0;28.8;-1.0;
22/07/2019 10:23:28;117;0;248.46;16;26.18;8.86;626.2;7.00;68491;4854.286;-13037.676;270;150;162.4;57;56.9;14;13.1;28.8;-1.0;
22/07/2019 10:23:48;117;0;251.19;16;26.15;8.94;621.1;7.00;68488;4854.286;-13037.676;270;150;160.4;57;56.9;13;13.1;28.8;-1.0;
22/07/2019 10:24:08;117;0;252.34;16;26.41;8.87;615.8;6.90;68489;4854.286;-13037.676;270;150;160.4;57;56.9;13;13.1;28.7;-1.0;
22/07/2019 10:24:28;117;0;253.18;16;26.07;8.82;610.6;6.90;68487;4854.286;-13037.676;270;150;160.4;57;56.9;13;13.1;28.8;-1.0;
22/07/2019 10:24:48;117;0;253.05;16;26.21;8.99;605.4;6.90;68489;4854.286;-13037.676;270;150;160.4;57;56.9;13;13.1;28.8;-1.0;
22/07/2019 10:25:08;117;0;253.22;16;26.24;9.00;600.1;6.90;68489;4854.286;-13037.676;270;150;160.4;57;56.9;13;13.1;28.8;-1.0;
22/07/2019 10:25:28;117;0;255.47;16;25.90;8.85;594.8;6.90;68474;4854.286;-13037.676;270;150;162.4;57;56.9;13;13.1;28.8;-1.0;
22/07/2019 10:25:48;117;0;255.90;16;25.92;8.84;589.6;6.90;68489;4854.286;-13037.676;270;150;160.4;57;56.9;13;13.1;28.7;-1.0;
22/07/2019 10:26:08;117;0;258.18;16;25.73;8.87;584.6;6.90;68480;4854.286;-13037.676;270;150;158.4;57;57.1;12;11.7;28.8;-1.0;
22/07/2019 10:26:28;117;0;258.38;16;25.79;8.05;579.4;6.90;68484;4854.286;-13037.676;270;150;160.4;57;56.9;13;13.1;28.7;-1.0;
22/07/2019 10:26:48;117;0;258.70;16;25.86;9.30;574.3;6.90;68473;4854.286;-13037.676;270;150;160.4;57;57.1;13;13.5;28.8;-1.0;
22/07/2019 10:27:08;117;0;259.63;16;25.86;9.27;569.1;6.90;68477;4854.286;-13037.676;270;150;158.4;57;56.9;12;12.2;28.8;-1.0;
22/07/2019 10:27:28;117;0;259.69;16;25.70;8.05;564.0;6.90;68477;4854.286;-13037.676;270;150;160.4;57;56.9;12;11.3;28.8;-1.0;
22/07/2019 10:27:48;117;0;260.07;16;25.70;8.02;558.9;6.90;68484;4854.286;-13037.676;270;150;160.4;57;56.9;12;11.3;28.8;-1.0;
22/07/2019 10:28:08;117;0;260.73;16;25.66;8.06;553.7;6.90;68464;4854.286;-13037.676;270;150;160.4;57;57.1;12;11.3;28.8;-1.0;
22/07/2019 10:28:28;117;0;262.21;16;25.49;8.03;548.6;6.90;68462;4854.286;-13037.676;270;150;160.4;57;56.9;10;9.9;28.8;-1.0;
22/07/2019 10:28:48;117;0;262.08;16;25.56;7.26;543.5;6.90;68470;4854.286;-13037.676;270;150;160.4;57;56.9;10;9.5;28.8;-1.0;
22/07/2019 10:29:08;117;0;262.68;16;25.53;7.24;538.4;6.90;68473;4854.286;-13037.676;270;150;162.4;57;57.1;10;9.5;28.8;-1.0;
22/07/2019 10:29:28;117;0;260.42;16;25.60;7.29;533.2;6.90;68470;4854.286;-13037.676;270;150;160.4;57;56.9;11;11.3;28.8;-1.0;
22/07/2019 10:29:48;117;0;262.19;16;25.32;8.41;528.2;6.80;68471;4854.286;-13037.676;270;150;160.4;57;56.9;10;9.9;28.7;-1.0;
22/07/2019 10:30:08;117;0;263.61;16;25.11;7.21;523.3;6.80;68468;4854.286;-13037.676;270;150;160.4;57;56.9;9;9.0;28.8;-1.0;
22/07/2019 10:30:28;117;0;264.73;16;25.18;6.47;518.3;6.90;68479;4854.286;-13037.676;270;150;160.4;57;56.9;8;8.1;28.8;-1.0;
22/07/2019 10:30:48;117;0;263.64;16;25.36;6.63;513.3;6.90;68482;4854.286;-13037.676;270;150;160.4;57;56.9;9;9.5;28.7;-1.0;
22/07/2019 10:31:08;117;0;261.15;16;25.42;7.42;508.2;6.90;68479;4854.286;-13037.676;270;150;160.4;57;56.9;10;9.9;28.8;-1.0;
22/07/2019 10:31:28;117;0;258.36;16;25.57;7.83;503.2;6.80;68482;4854.286;-13037.676;270;150;160.4;57;56.9;11;10.8;28.8;-1.0;
22/07/2019 10:31:48;117;0;257.12;16;25.41;7.90;498.1;6.90;68493;4854.286;-13037.676;270;150;160.4;57;56.9;10;9.9;28.7;-1.0;
22/07/2019 10:32:08;117;0;255.71;16;25.32;7.27;493.2;6.80;68496;4854.286;-13037.676;270;150;160.4;57;56.9;11;10.8;28.8;-1.0;
22/07/2019 10:32:28;117;0;254.81;16;25.15;8.39;488.3;6.90;68501;4854.286;-13037.676;270;150;160.4;57;57.1;11;11.7;28.7;-1.0;
22/07/2019 10:32:48;117;0;256.18;16;24.78;8.31;483.5;6.90;68490;4854.286;-13037.676;270;150;160.4;57;57.1;11;11.7;28.8;-1.0;
22/07/2019 10:33:08;117;0;258.04;16;24.61;8.40;478.8;6.90;68484;4854.286;-13037.676;270;150;160.4;57;57.1;8;8.1;28.8;-1.0;
22/07/2019 10:33:28;117;0;259.52;16;24.62;6.36;474.2;6.90;68498;4854.286;-13037.676;270;150;160.4;57;57.1;8;7.7;28.8;-1.0;
22/07/2019 10:33:48;117;0;262.11;16;24.47;6.37;469.4;6.90;68490;4854.286;-13037.676;270;150;160.4;57;56.9;6;5.4;28.8;-1.0;
22/07/2019 10:34:08;117;0;262.72;16;24.77;5.20;464.8;6.80;68494;4854.286;-13037.676;270;150;160.4;57;56.9;6;5.4;28.8;-1.0;
22/07/2019 10:34:28;117;0;260.82;16;25.04;5.31;459.9;6.90;68493;4854.286;-13037.676;270;150;160.4;57;56.9;8;8.1;28.8;-1.0;
22/07/2019 10:34:48;117;0;259.44;16;24.79;7.10;455.1;6.90;68487;4854.286;-13037.676;270;150;162.4;57;56.9;8;8.6;28.8;-1.0;
22/07/2019 10:35:08;117;0;262.75;16;24.35;7.07;450.3;6.90;68493;4854.286;-13037.676;270;150;160.4;57;56.9;6;5.9;28.8;-1.0;
22/07/2019 10:35:28;117;0;263.32;16;24.50;5.35;445.6;6.90;68498;4854.286;-13037.676;270;150;162.4;57;56.9;5;5.0;28.8;-1.0;
22/07/2019 10:35:48;117;0;259.62;16;24.82;4.89;440.8;6.90;68498;4854.286;-13037.676;270;150;160.4;57;57.1;8;8.1;28.7;-1.0;
22/07/2019 10:36:08;117;0;257.68;16;24.79;7.13;436.1;6.90;68494;4854.286;-13037.676;270;150;160.4;57;56.9;8;8.6;28.8;-1.0;
22/07/2019 10:36:28;117;0;257.82;16;24.49;7.08;431.2;6.90;68497;4854.286;-13037.676;270;150;160.4;57;56.9;7;7.2;28.7;-1.0;
22/07/2019 10:36:48;117;0;256.29;16;24.55;5.98;426.6;6.90;68500;4854.286;-13037.676;270;150;160.4;57;56.9;7;6.8;28.8;-1.0;
22/07/2019 10:37:08;117;0;254.93;16;24.39;5.94;422.0;6.90;68503;4854.286;-13037.676;270;150;160.4;57;56.9;7;6.8;28.8;-1.0;
22/07/2019 10:37:28;117;0;254.40;16;24.45;5.87;417.4;6.90;68506;4854.286;-13037.676;270;150;160.4;57;56.9;7;6.8;28.8;-1.0;
22/07/2019 10:37:48;117;0;253.53;16;24.33;5.93;412.8;6.90;68509;4854.286;-13037.676;270;150;160.4;57;56.9;7;6.8;28.8;-1.0;
22/07/2019 10:38:08;117;0;251.57;16;24.26;5.99;408.3;6.90;68521;4854.286;-13037.676;270;150;162.4;57;56.9;7;6.8;28.8;-1.0;
22/07/2019 10:38:28;117;0;250.44;16;24.28;5.94;403.9;6.90;68517;4854.286;-13037.676;270;150;160.4;57;56.9;9;9.0;28.8;-1.0;
22/07/2019 10:38:48;117;0;250.74;16;24.24;7.38;399.4;6.90;68528;4854.286;-13037.676;270;150;160.4;57;56.9;8;7.7;28.7;-1.0;
22/07/2019 10:39:08;117;0;249.84;16;24.25;6.23;394.9;6.90;68536;4854.286;-13037.676;270;150;160.4;57;56.9;9;9.0;28.7;-1.0;
22/07/2019 10:39:28;117;0;248.92;16;24.21;7.51;390.5;6.90;68536;4854.286;-13037.676;270;150;160.4;57;57.1;9;9.5;28.8;-1.0;
22/07/2019 10:39:48;117;0;249.58;16;24.17;7.41;385.9;6.90;68539;4854.286;-13037.676;270;150;160.4;57;56.9;9;9.5;28.8;-1.0;
22/07/2019 10:40:08;117;0;249.69;16;24.11;7.46;381.5;7.00;68544;4854.286;-13037.676;270;150;160.4;57;57.1;9;9.5;28.7;-1.0;
22/07/2019 10:40:28;117;0;250.89;16;23.80;7.48;377.1;6.90;68534;4854.286;-13037.676;270;150;162.4;57;57.1;8;7.7;28.8;-1.0;
22/07/2019 10:40:48;117;0;252.62;16;23.84;6.33;372.7;6.90;68534;4854.286;-13037.676;270;150;162.4;57;56.9;8;7.2;28.7;-1.0;
22/07/2019 10:41:08;117;0;253.81;16;23.77;6.34;368.3;7.00;68545;4854.286;-13037.676;270;150;162.4;57;57.1;8;7.7;28.8;-1.0;
22/07/2019 10:41:28;117;0;254.76;16;23.80;6.27;363.9;7.00;68545;4854.286;-13037.676;270;150;162.4;57;56.9;8;7.2;28.8;-1.0;
22/07/2019 10:41:48;117;0;254.74;16;23.81;6.36;359.5;7.00;68553;4854.286;-13037.676;270;150;162.4;57;56.9;8;7.2;28.8;-1.0;
22/07/2019 10:42:08;117;0;254.50;16;23.69;6.30;355.2;7.00;68558;4854.286;-13037.676;270;150;160.4;57;57.1;8;7.2;28.8;-1.0;
22/07/2019 10:42:28;117;0;253.29;16;23.75;6.34;350.9;7.00;68553;4854.286;-13037.676;270;150;160.4;57;56.9;8;7.2;28.8;-1.0;
22/07/2019 10:42:48;117;0;255.15;16;23.49;6.34;346.5;7.00;68550;4854.286;-13037.676;270;150;160.4;57;56.9;8;7.2;28.8;-1.0;
22/07/2019 10:43:08;117;0;254.69;16;23.59;6.42;342.2;7.00;68553;4854.286;-13037.676;270;150;160.4;57;56.9;8;7.2;28.8;-1.0;
22/07/2019 10:43:28;117;0;254.39;16;23.60;6.30;338.0;7.00;68564;4854.286;-13037.676;270;150;162.4;57;57.1;8;7.2;28.7;-1.0;
22/07/2019 10:43:48;117;0;255.84;16;23.65;6.42;333.7;7.00;68566;4854.286;-13037.676;270;150;162.4;57;56.9;8;7.2;28.7;-1.0;
22/07/2019 10:44:08;117;0;255.95;16;23.55;6.34;329.3;7.10;68571;4854.286;-13037.676;270;150;162.4;57;56.9;8;7.2;28.8;-1.0;
22/07/2019 10:44:28;117;0;254.29;16;23.54;6.36;325.0;7.10;68571;4854.286;-13037.676;270;150;160.4;57;56.9;8;7.2;28.7;-1.0;
22/07/2019 10:44:48;117;0;253.03;16;23.45;6.41;320.7;7.10;68576;4854.286;-13037.676;270;150;162.4;57;57.1;8;7.2;28.7;-1.0;
22/07/2019 10:45:08;117;0;253.89;16;23.43;6.34;316.4;7.10;68563;4854.286;-13037.676;270;150;160.4;57;56.9;8;7.2;28.8;-1.0;
22/07/2019 10:45:28;117;0;252.75;16;23.48;6.39;312.2;7.10;68577;4854.286;-13037.676;270;150;162.4;57;56.9;8;7.7;28.8;-1.0;
22/07/2019 10:45:48;117;0;251.56;16;23.56;6.42;307.8;7.10;68587;4854.286;-13037.676;270;150;160.4;57;57.1;8;7.2;28.8;-1.0;
22/07/2019 10:46:08;117;0;250.14;16;23.45;6.37;303.5;7.10;68582;4854.286;-13037.676;270;150;162.4;57;56.9;10;10.4;28.8;-1.0;
22/07/2019 10:46:28;117;0;248.94;16;23.24;8.07;299.2;7.10;68594;4854.286;-13037.676;270;150;160.4;57;57.1;11;10.8;28.8;-1.0;
22/07/2019 10:46:48;117;0;249.83;16;23.10;8.04;294.9;7.20;68595;4854.286;-13037.676;270;150;162.4;57;56.9;10;9.5;28.8;-1.0;
22/07/2019 10:47:08;117;0;250.14;16;22.89;7.31;290.7;7.20;68598;4854.286;-13037.676;270;150;162.4;57;56.9;9;9.0;28.8;-1.0;
22/07/2019 10:47:29;117;0;252.53;16;22.65;7.34;286.7;7.20;68597;4854.286;-13037.676;270;150;162.4;57;56.9;8;7.7;28.8;-1.0;
22/07/2019 10:47:49;117;0;253.34;16;22.60;6.40;282.6;7.20;68603;4854.286;-13037.676;270;150;160.4;57;56.9;8;7.2;28.8;-1.0;
22/07/2019 10:48:09;117;0;252.48;16;22.96;6.39;278.6;7.20;68602;4854.286;-13037.676;270;150;162.4;57;56.9;8;7.2;28.8;-1.0;
22/07/2019 10:48:29;117;0;252.47;16;22.93;6.36;274.3;7.20;68606;4854.286;-13037.676;270;150;160.4;57;56.9;8;7.2;28.7;-1.0;
22/07/2019 10:48:49;117;0;253.99;16;22.98;6.37;270.0;7.20;68608;4854.286;-13037.676;270;150;162.4;57;57.1;8;7.2;28.7;-1.0;
22/07/2019 10:49:09;117;0;253.17;16;22.97;6.38;265.7;7.20;68613;4854.286;-13037.676;270;150;160.4;57;56.9;8;7.2;28.8;-1.0;
22/07/2019 10:49:29;117;0;252.00;16;22.84;6.38;261.4;7.20;68617;4854.286;-13037.676;270;150;160.4;57;56.9;8;7.2;28.8;-1.0;
22/07/2019 10:49:49;117;0;251.64;16;22.71;6.45;257.3;7.20;68615;4854.286;-13037.676;270;150;160.4;57;56.9;8;7.2;28.8;-1.0;
22/07/2019 10:50:09;117;0;253.83;16;22.37;6.42;253.1;7.30;68632;4854.286;-13037.676;270;150;160.4;57;57.1;8;7.2;28.8;-1.0;
22/07/2019 10:50:29;117;0;255.03;16;22.28;6.39;249.0;7.30;68629;4854.286;-13037.676;270;150;162.4;57;57.1;8;7.2;28.8;-1.0;
22/07/2019 10:50:49;117;0;255.51;16;22.44;6.44;245.0;7.30;68627;4854.286;-13037.676;270;150;160.4;57;57.1;8;7.2;28.8;-1.0;
22/07/2019 10:51:09;117;0;254.84;16;22.70;6.39;240.9;7.30;68634;4854.286;-13037.676;270;150;162.4;57;56.9;8;7.2;28.8;-1.0;
22/07/2019 10:51:29;117;0;256.50;16;22.46;6.37;236.5;7.30;68642;4854.286;-13037.676;270;150;162.4;57;56.9;8;7.7;28.8;-1.0;
22/07/2019 10:51:49;117;0;257.75;16;22.30;6.47;232.5;7.30;68647;4854.286;-13037.676;270;150;162.4;57;57.1;8;7.2;28.8;-1.0;
22/07/2019 10:52:09;117;0;258.93;16;22.23;6.40;228.3;7.40;68642;4854.286;-13037.676;270;150;162.4;57;57.1;7;7.2;28.8;-1.0;
22/07/2019 10:52:29;117;0;258.95;16;22.36;6.46;224.3;7.40;68644;4854.286;-13037.676;270;150;162.4;57;56.9;7;7.2;28.8;-1.0;
22/07/2019 10:52:49;117;0;260.02;16;22.30;6.48;220.2;7.40;68655;4854.286;-13037.676;270;150;160.4;57;56.9;6;5.9;28.8;-1.0;
22/07/2019 10:53:09;117;0;259.25;16;22.39;5.31;216.2;7.40;68651;4854.286;-13037.676;270;150;162.4;57;56.9;7;7.2;28.8;-1.0;
22/07/2019 10:53:29;117;0;259.56;16;22.14;6.83;212.1;7.40;68656;4854.286;-13037.676;270;150;160.4;57;56.9;7;7.7;28.7;-1.0;
22/07/2019 10:53:49;117;0;258.74;16;22.14;6.75;208.2;7.40;68658;4854.286;-13037.676;270;150;162.4;57;56.9;7;7.7;28.7;-1.0;
22/07/2019 10:54:09;117;0;261.70;16;21.89;6.71;204.3;7.40;68664;4854.286;-13037.676;270;150;162.4;57;56.9;5;5.0;28.8;-1.0;
22/07/2019 10:54:29;117;0;260.66;16;22.10;5.08;200.4;7.40;68656;4854.286;-13037.676;270;150;162.4;57;57.1;6;5.9;28.7;-1.0;
22/07/2019 10:54:49;117;0;260.91;16;22.06;5.82;196.5;7.50;68661;4854.286;-13037.676;270;150;162.4;57;56.9;6;5.9;28.8;-1.0;
22/07/2019 10:55:09;117;0;260.07;16;22.02;5.88;192.6;7.50;68661;4854.286;-13037.676;270;150;160.4;57;56.9;5;5.0;28.8;-1.0;
22/07/2019 10:55:29;117;0;258.11;16;22.09;5.13;188.6;7.50;68667;4854.286;-13037.676;270;150;162.4;57;56.9;6;5.9;28.7;-1.0;
22/07/2019 10:55:49;117;0;260.50;16;21.76;6.29;184.8;7.50;68683;4854.286;-13037.676;270;150;160.4;57;56.9;5;5.0;28.7;-1.0;
22/07/2019 10:56:09;117;0;261.77;16;21.91;5.06;180.8;7.50;68687;4854.286;-13037.676;270;150;162.4;57;56.9;4;4.1;28.8;-1.0;
22/07/2019 10:56:29;117;0;262.12;16;21.89;4.56;176.8;7.50;68684;4854.286;-13037.676;270;150;162.4;57;57.1;3;2.7;28.7;-1.0;
22/07/2019 10:56:49;117;0;261.51;16;21.48;3.98;173.1;7.50;68691;4854.286;-13037.676;270;150;162.4;57;56.9;4;4.1;28.8;-1.0;
22/07/2019 10:57:09;117;0;261.96;16;21.20;5.25;169.4;7.60;68695;4854.286;-13037.676;270;150;160.4;57;57.1;4;4.5;28.8;-1.0;
22/07/2019 10:57:29;117;0;259.81;16;21.54;5.24;165.5;7.60;68711;4854.286;-13037.676;270;150;162.4;57;57.1;5;5.0;28.8;-1.0;
22/07/2019 10:57:49;117;0;258.74;16;21.26;5.80;161.8;7.60;68718;4854.286;-13037.676;270;150;162.4;57;56.9;5;5.9;28.7;-1.0;
22/07/2019 10:58:09;117;0;257.46;16;21.38;5.80;158.1;7.60;68714;4854.286;-13037.676;270;150;162.4;57;56.9;5;5.9;28.8;-1.0;
22/07/2019 10:58:29;117;0;255.79;16;21.42;5.79;154.2;7.60;68709;4854.286;-13037.676;270;150;162.4;57;57.1;6;5.9;28.8;-1.0;
22/07/2019 10:58:49;117;0;254.26;16;21.36;5.78;150.5;7.70;68710;4854.286;-13037.676;270;150;160.4;57;56.9;6;5.9;28.8;-1.0;
22/07/2019 10:59:09;117;0;253.91;16;21.39;5.76;146.7;7.70;68720;4854.286;-13037.676;270;150;162.4;57;57.1;6;5.9;28.7;-1.0;
22/07/2019 10:59:29;117;0;253.54;16;20.90;5.79;142.9;7.70;68719;4854.286;-13037.676;270;150;162.4;57;56.9;6;5.9;28.7;-1.0;
22/07/2019 10:59:49;117;0;256.50;16;20.68;5.82;139.3;7.70;68728;4854.286;-13037.676;270;150;162.4;57;56.9;6;5.9;28.8;-1.0;
22/07/2019 11:00:09;117;0;258.63;16;20.33;5.72;135.8;7.70;68734;4854.286;-13037.676;270;150;162.4;57;56.9;3;2.7;28.7;-1.0;
22/07/2019 11:00:29;117;0;252.52;16;20.23;4.02;132.4;7.70;68738;4854.286;-13037.676;270;150;162.4;57;57.1;3;2.3;28.7;-1.0;
22/07/2019 11:00:49;117;0;251.89;16;19.85;4.10;129.1;7.80;68735;4854.286;-13037.676;270;150;162.4;57;57.1;3;2.7;28.7;-1.0;
22/07/2019 11:01:09;117;0;249.88;16;19.63;3.98;125.8;7.80;68736;4854.286;-13037.676;270;150;162.4;57;57.1;7;7.2;28.9;-1.0;
22/07/2019 11:01:29;117;0;249.12;16;19.75;6.88;122.6;7.80;68733;4854.286;-13037.676;270;150;160.4;57;56.9;6;5.9;28.8;-1.0;
22/07/2019 11:01:49;117;0;248.74;16;19.38;5.69;119.3;7.80;68735;4854.286;-13037.676;270;150;162.4;57;56.9;7;7.7;28.7;-1.0;
22/07/2019 11:02:09;117;0;253.23;16;17.85;7.02;116.3;7.80;68734;4854.286;-13037.676;270;150;160.4;57;56.9;7;8.1;28.7;-1.0;
22/07/2019 11:02:29;117;0;251.83;16;17.74;6.87;113.5;7.80;68738;4854.286;-13037.676;270;150;162.4;57;57.1;7;8.1;28.8;-1.0;
22/07/2019 11:02:49;117;0;256.35;16;17.29;7.02;110.6;7.80;68735;4854.286;-13037.676;270;150;162.4;57;56.9;7;7.7;28.8;-1.0;
22/07/2019 11:03:09;117;0;261.32;16;16.80;6.97;107.8;7.90;68734;4854.286;-13037.676;270;150;162.4;57;56.9;1;0.9;28.7;-1.0;
22/07/2019 11:03:29;117;0;255.27;16;16.90;2.93;104.9;7.90;68727;4854.286;-13037.676;270;150;162.4;57;56.9;5;5.0;28.7;-1.0;
22/07/2019 11:03:49;117;0;254.48;16;16.25;5.89;102.1;7.90;68725;4854.286;-13037.676;270;150;160.4;57;56.9;5;5.9;28.8;-1.0;
22/07/2019 11:04:09;117;0;257.39;16;15.63;5.98;99.5;7.90;68724;4854.286;-13037.676;270;150;162.4;57;57.1;3;3.2;28.7;-1.0;
22/07/2019 11:04:29;117;0;258.90;16;15.47;4.18;97.0;7.90;68728;4854.286;-13037.676;270;150;162.4;57;56.9;3;2.3;28.8;-1.0;
22/07/2019 11:04:49;117;0;257.44;16;15.14;4.23;94.6;7.90;68728;4854.286;-13037.676;270;150;162.4;57;56.9;4;4.1;28.8;-1.0;
22/07/2019 11:05:09;117;0;257.13;16;14.77;5.38;92.3;7.90;68732;4854.286;-13037.676;270;150;162.4;57;57.1;4;5.0;28.8;-1.0;
22/07/2019 11:05:29;117;0;252.13;16;14.57;5.33;90.3;7.90;68740;4854.286;-13037.676;270;150;162.4;57;57.1;4;5.0;28.8;-1.0;
22/07/2019 11:05:49;117;0;249.22;16;14.37;5.41;88.3;8.00;68749;4854.286;-13037.676;270;150;162.4;57;56.9;7;7.7;28.8;-1.0;
22/07/2019 11:06:09;117;0;248.35;16;14.30;7.08;86.4;8.00;68750;4854.286;-13037.676;270;150;162.4;57;57.1;7;8.1;28.8;-1.0;
22/07/2019 11:06:29;117;0;248.75;16;14.12;7.17;84.4;8.00;68765;4854.286;-13037.676;270;150;162.4;57;56.9;6;5.9;28.8;-1.0;
