Timestamp;NavState;SecurityLevel;Heading;Declination;Pitch;Roll;Depth;Temperature;Pa;Lat;Lon;DesiredH;BallastCmd;BallastPos;LinCmd;LinPos;AngCmd;AngPos;Voltage;Altitude;
22/07/2019 19:32:59;117;0;142.16;16;7.98;0.71;8.9;10.10;69844;4853.770;-13035.712;140;150;162.4;57;57.1;-11;-10.8;28.7;-1.0;
22/07/2019 19:33:09;115;0;138.80;16;8.22;-3.43;8.0;10.10;69847;4853.770;-13035.712;140;300;174.3;100;99.9;0;0.5;28.7;-1.0;
22/07/2019 19:33:19;115;0;121.92;16;-32.78;2.79;7.6;10.20;69785;4853.770;-13035.712;140;300;306.9;100;100.0;0;0.9;28.3;-1.0;
22/07/2019 19:33:29;115;0;116.58;16;-69.55;-8.14;7.7;10.20;69642;4853.770;-13035.712;140;300;308.9;100;100.0;0;0.5;28.7;-1.0;
22/07/2019 19:33:39;115;0;114.44;16;-52.25;4.04;5.6;10.30;69661;4853.770;-13035.712;140;300;308.9;100;100.0;0;0.9;28.7;-1.0;
22/07/2019 19:33:49;116;0;144.54;16;-33.77;-1.26;2.6;10.40;69664;4853.770;-13035.712;140;300;312.9;100;99.9;0;0.9;28.7;-1.0;
22/07/2019 19:34:10;116;0;185.94;16;-17.11;-0.14;2.7;10.50;69689;4853.770;-13035.712;140;300;310.9;100;99.9;0;0.9;28.7;-1.0;
22/07/2019 19:34:30;116;0;195.93;16;-27.53;10.11;2.9;10.60;69709;4853.770;-13035.712;140;300;312.9;100;99.9;0;0.9;28.7;-1.0;
22/07/2019 19:34:50;116;0;217.57;16;-8.20;2.16;2.7;10.70;69716;4853.770;-13035.712;140;300;312.9;100;99.9;0;0.9;28.7;-1.0;
22/07/2019 19:35:10;116;0;203.06;16;-8.21;5.60;2.6;10.80;69732;4853.770;-13035.712;140;300;312.9;100;99.9;0;0.9;28.7;-1.0;
22/07/2019 19:35:30;116;0;229.22;16;-5.02;5.54;2.6;10.90;69751;4853.770;-13035.712;145;300;312.9;100;99.7;0;0.9;28.6;-1.0;
22/07/2019 19:35:50;116;0;213.26;16;-28.80;3.27;2.9;11.00;69764;4853.770;-13035.712;145;300;310.9;100;99.9;0;0.9;28.7;-1.0;
22/07/2019 19:36:09;116;0;224.69;16;-32.32;2.50;3.0;11.20;69800;4852.807;-13031.829;145;300;312.9;100;99.9;0;0.9;28.7;-1.0;
22/07/2019 19:37:54;116;0;194.01;16;-10.95;-2.56;2.7;11.70;69853;4852.807;-13031.829;145;300;312.9;100;99.9;0;0.9;28.7;-1.0;
22/07/2019 19:38:14;116;0;226.27;16;-24.24;-1.67;2.8;11.80;69850;4852.806;-13031.823;145;300;312.9;100;99.9;0;0.9;28.7;-1.0;
22/07/2019 19:38:34;116;0;217.77;16;-45.53;2.96;3.1;11.90;69871;4852.779;-13031.735;145;300;308.9;100;100.0;0;0.9;28.7;-1.0;
22/07/2019 19:44:11;116;0;203.30;16;-38.55;2.86;3.0;13.50;69995;4852.779;-13031.735;145;300;310.9;100;99.9;0;0.9;28.7;-1.0;
22/07/2019 19:44:31;116;0;226.75;16;-33.34;-1.62;2.8;13.60;70003;4852.779;-13031.729;145;300;308.9;100;100.0;0;0.9;28.7;-1.0;
22/07/2019 19:44:51;116;0;253.65;16;-27.98;9.76;3.1;13.70;70017;4852.774;-13031.716;145;300;308.9;100;100.0;0;0.9;28.7;-1.0;
22/07/2019 19:45:17;116;0;257.53;16;-26.39;-0.84;2.9;13.70;70015;4852.775;-13031.715;145;300;310.9;100;99.9;0;0.9;28.7;-1.0;
22/07/2019 19:45:37;116;0;198.27;16;-14.81;0.73;2.6;13.80;70018;4852.774;-13031.709;145;300;310.9;100;99.9;0;0.9;28.7;-1.0;
22/07/2019 19:45:57;116;0;190.09;16;-33.93;2.22;2.9;13.90;70020;4852.772;-13031.707;145;300;310.9;100;99.9;0;0.9;28.7;-1.0;
22/07/2019 19:46:17;116;0;207.07;16;-38.72;-2.47;2.9;13.90;70029;4852.768;-13031.701;145;300;308.9;100;99.9;0;0.9;28.7;-1.0;
22/07/2019 19:46:37;110;0;187.25;16;-8.20;-4.77;2.6;14.00;70033;4852.768;-13031.701;145;-500;217.8;100;99.9;0;0.9;28.7;-1.0;
22/07/2019 19:46:47;110;0;189.47;16;-21.75;2.75;2.8;14.00;70258;4852.768;-13031.701;145;-500;59.4;100;99.9;0;0.9;28.5;-1.0;
22/07/2019 19:46:57;110;0;178.37;16;-35.92;4.22;3.1;14.10;70472;4852.768;-13031.701;145;-500;-118.8;100;100.0;0;0.9;28.6;-1.0;
22/07/2019 19:47:07;110;0;174.86;16;-57.31;1.18;4.0;14.10;70766;4852.768;-13031.701;145;-500;-322.8;92;91.8;0;0.9;28.6;-1.0;
22/07/2019 19:47:17;110;0;172.95;16;-53.83;1.16;5.4;14.10;71104;4852.768;-13031.701;145;-500;-499.0;79;78.8;0;0.9;28.6;-1.0;
22/07/2019 19:47:27;110;0;186.61;16;-49.36;1.78;7.9;14.20;71375;4852.768;-13031.701;145;-500;-499.0;71;70.9;0;0.9;28.7;-1.0;
22/07/2019 19:47:37;100;0;176.39;16;-39.56;2.95;11.6;14.20;71362;4852.768;-13031.701;145;-500;-499.0;70;70.0;0;0.9;28.7;-1.0;
22/07/2019 19:47:57;100;0;174.66;16;-30.10;3.37;18.4;14.30;71373;4852.768;-13031.701;145;-500;-497.0;70;69.9;21;21.2;28.7;0.0;
22/07/2019 19:48:17;100;0;182.93;16;-25.84;13.63;24.5;14.30;71315;4852.768;-13031.701;145;-500;-497.0;70;69.9;23;23.0;28.7;0.0;
22/07/2019 19:48:37;100;0;168.11;16;-23.14;14.20;29.0;14.30;71164;4852.768;-13031.701;145;-500;-499.0;70;69.9;11;10.8;28.7;0.0;
22/07/2019 19:48:57;100;0;155.17;16;-23.34;7.61;33.1;14.30;71062;4852.768;-13031.701;145;-500;-495.0;70;69.9;5;5.0;28.7;0.0;
22/07/2019 19:49:17;100;0;142.28;16;-23.75;4.94;37.2;14.20;70977;4852.768;-13031.701;145;-500;-497.0;70;69.9;0;0.0;28.7;0.0;
22/07/2019 19:49:37;100;0;128.21;16;-24.19;2.98;41.4;14.10;70910;4852.768;-13031.701;145;-500;-497.0;70;69.9;0;-0.5;28.7;0.0;
22/07/2019 19:49:57;100;0;117.62;16;-24.14;2.79;45.4;14.00;70839;4852.768;-13031.701;145;-500;-495.0;70;69.7;-5;-5.0;28.7;0.0;
22/07/2019 19:50:17;100;0;108.76;16;-24.47;0.74;49.6;14.00;70788;4852.768;-13031.701;145;-500;-497.0;70;69.9;-6;-5.9;28.7;0.0;
22/07/2019 19:50:37;100;0;98.38;16;-24.50;0.16;53.9;13.90;70726;4852.768;-13031.701;145;-500;-495.0;70;69.7;-9;-9.0;28.7;0.0;
22/07/2019 19:50:57;100;0;93.38;16;-24.37;-1.16;58.1;13.80;70676;4852.768;-13031.701;145;-500;-497.0;70;69.7;-9;-9.0;28.7;0.0;
22/07/2019 19:51:17;100;0;91.30;16;-24.27;-1.17;62.4;13.80;70626;4852.768;-13031.701;145;-500;-497.0;70;69.7;-7;-7.2;28.7;0.0;
22/07/2019 19:51:37;100;0;81.33;16;-23.84;0.22;66.6;13.70;70593;4852.768;-13031.701;145;-500;-495.0;70;69.7;-13;-13.1;28.7;0.0;
22/07/2019 19:51:57;100;0;81.90;16;-23.73;-2.90;70.6;13.60;70544;4852.768;-13031.701;145;-500;-497.0;70;69.7;-12;-12.2;28.7;0.0;
22/07/2019 19:52:17;100;0;70.90;16;-23.66;-2.05;74.7;13.50;70492;4852.768;-13031.701;145;-500;-497.0;70;69.9;-20;-19.9;28.7;0.0;
22/07/2019 19:52:37;100;0;72.41;16;-22.77;-5.75;78.7;13.40;70452;4852.768;-13031.701;145;-500;-495.0;70;69.7;-18;-17.6;28.7;0.0;
22/07/2019 19:52:57;100;0;70.78;16;-22.56;-4.37;82.4;13.40;70419;4852.768;-13031.701;145;-500;-495.0;70;69.7;-21;-21.2;28.7;0.0;
22/07/2019 19:53:17;100;0;74.48;16;-22.64;-6.62;86.0;13.30;70394;4852.768;-13031.701;145;-500;-495.0;70;69.7;-19;-19.0;28.7;0.0;
22/07/2019 19:53:37;100;0;76.66;16;-22.51;-4.95;89.5;13.20;70389;4852.768;-13031.701;145;-500;-495.0;70;69.7;-21;-21.2;28.7;0.0;
22/07/2019 19:53:57;100;0;75.95;16;-22.34;-6.40;93.2;13.20;70372;4852.768;-13031.701;145;-500;-497.0;70;69.7;-24;-23.9;28.7;0.0;
22/07/2019 19:54:17;100;0;81.19;16;-20.98;-7.80;96.9;13.10;70353;4852.768;-13031.701;145;-500;-495.0;70;69.7;-22;-22.1;28.7;0.0;
22/07/2019 19:54:37;100;0;83.31;16;-21.50;-6.38;100.1;13.00;70339;4852.768;-13031.701;145;-500;-495.0;70;69.7;-22;-21.2;28.7;0.0;
22/07/2019 19:54:57;100;0;87.80;16;-21.75;-6.48;103.3;12.90;70318;4852.768;-13031.701;145;-500;-495.0;70;69.7;-20;-19.9;28.7;0.0;
22/07/2019 19:55:17;100;0;85.98;16;-21.28;-5.54;106.3;12.90;70316;4852.768;-13031.701;145;-500;-495.0;70;69.7;-23;-23.0;28.7;0.0;
22/07/2019 19:55:37;100;0;87.90;16;-21.53;-7.63;109.3;12.80;70312;4852.768;-13031.701;145;-500;-495.0;70;69.7;-22;-22.1;28.7;0.0;
22/07/2019 19:55:57;100;0;92.52;16;-20.78;-6.91;112.3;12.70;70295;4852.768;-13031.701;145;-500;-497.0;70;69.7;-19;-19.0;28.7;0.0;
22/07/2019 19:56:17;100;0;94.82;16;-20.32;-4.99;115.3;12.70;70290;4852.768;-13031.701;145;-500;-495.0;70;69.7;-19;-18.5;28.7;0.0;
22/07/2019 19:56:37;100;0;95.35;16;-20.18;-4.96;118.3;12.60;70287;4852.768;-13031.701;145;-500;-495.0;70;69.7;-20;-19.9;28.7;0.0;
22/07/2019 19:56:57;100;0;95.25;16;-20.68;-6.13;121.0;12.60;70279;4852.768;-13031.701;145;-500;-495.0;70;69.7;-20;-20.3;28.7;0.0;
22/07/2019 19:57:17;100;0;95.41;16;-20.50;-6.00;123.8;12.50;70269;4852.768;-13031.701;145;-500;-495.0;70;69.7;-21;-21.2;28.7;0.0;
22/07/2019 19:57:37;100;0;95.94;16;-20.63;-6.70;126.5;12.50;70269;4852.768;-13031.701;145;-500;-495.0;70;69.7;-21;-21.7;28.7;0.0;
22/07/2019 19:57:57;100;0;97.78;16;-20.46;-6.74;129.3;12.40;70259;4852.768;-13031.701;145;-500;-497.0;70;69.7;-20;-19.9;28.7;0.0;
22/07/2019 19:58:17;100;0;95.39;16;-20.45;-5.29;131.9;12.40;70258;4852.768;-13031.701;145;-500;-495.0;70;69.7;-21;-21.2;28.6;0.0;
22/07/2019 19:58:37;100;0;91.33;16;-20.27;-6.63;134.8;12.30;70246;4852.768;-13031.701;145;-500;-495.0;70;69.7;-23;-23.0;28.7;0.0;
22/07/2019 19:58:57;100;0;90.12;16;-20.07;-7.49;137.6;12.20;70248;4852.768;-13031.701;145;-500;-495.0;70;69.9;-23;-23.0;28.7;0.0;
22/07/2019 19:59:17;100;0;88.68;16;-20.14;-7.47;140.4;12.20;70245;4852.768;-13031.701;145;-500;-495.0;70;69.7;-24;-23.9;28.7;0.0;
22/07/2019 19:59:37;100;0;88.77;16;-19.95;-8.03;143.2;12.20;70237;4852.768;-13031.701;145;-500;-495.0;70;69.7;-23;-23.0;28.7;0.0;
22/07/2019 19:59:57;100;0;89.83;16;-19.69;-7.00;146.1;12.10;70230;4852.768;-13031.701;145;-500;-495.0;70;69.7;-22;-22.1;28.7;0.0;
22/07/2019 20:00:17;100;0;91.85;16;-19.57;-6.84;149.0;12.10;70232;4852.768;-13031.701;145;-500;-495.0;70;69.7;-21;-21.2;28.7;0.0;
22/07/2019 20:00:37;100;0;95.67;16;-19.61;-6.15;151.7;12.00;70214;4852.768;-13031.701;145;-500;-495.0;70;69.7;-19;-19.0;28.7;0.0;
22/07/2019 20:00:57;100;0;95.50;16;-19.50;-5.06;154.5;11.90;70216;4852.768;-13031.701;145;-500;-495.0;70;69.7;-20;-19.9;28.7;0.0;
22/07/2019 20:01:17;100;0;96.52;16;-19.51;-6.13;157.2;11.90;70201;4852.768;-13031.701;145;-500;-495.0;70;69.7;-20;-20.3;28.7;0.0;
22/07/2019 20:01:37;100;0;98.96;16;-19.47;-6.23;159.9;11.80;70196;4852.768;-13031.701;145;-500;-495.0;70;69.7;-19;-18.5;28.7;0.0;
22/07/2019 20:01:57;100;0;101.10;16;-19.41;-5.02;162.6;11.80;70191;4852.768;-13031.701;145;-500;-495.0;70;69.7;-18;-18.1;28.7;0.0;
22/07/2019 20:02:17;100;0;103.25;16;-19.30;-4.94;165.2;11.70;70190;4852.768;-13031.701;145;-500;-495.0;70;69.7;-18;-18.1;28.7;0.0;
22/07/2019 20:02:37;100;0;102.88;16;-19.47;-5.03;167.8;11.70;70182;4852.768;-13031.701;145;-500;-495.0;70;69.7;-19;-19.4;28.7;0.0;
22/07/2019 20:02:57;100;0;103.83;16;-19.30;-5.81;170.5;11.60;70189;4852.768;-13031.701;145;-500;-495.0;70;69.7;-19;-19.9;28.7;0.0;
22/07/2019 20:03:17;100;0;103.47;16;-19.28;-5.79;173.1;11.60;70178;4852.768;-13031.701;145;-500;-495.0;70;69.7;-19;-19.9;28.7;0.0;
22/07/2019 20:03:37;100;0;102.66;16;-19.34;-5.76;175.8;11.60;70159;4852.768;-13031.701;145;-500;-493.1;70;69.7;-20;-19.9;28.7;0.0;
22/07/2019 20:03:57;100;0;101.88;16;-19.41;-5.85;178.4;11.50;70166;4852.768;-13031.701;145;-500;-495.0;70;69.7;-20;-19.9;28.7;0.0;
22/07/2019 20:04:17;100;0;100.99;16;-19.32;-5.79;181.1;11.40;70149;4852.768;-13031.701;145;-500;-495.0;70;69.7;-21;-21.2;28.7;0.0;
22/07/2019 20:04:37;100;0;101.01;16;-19.18;-6.86;184.0;11.40;70143;4852.768;-13031.701;145;-500;-495.0;70;69.7;-20;-19.4;28.7;0.0;
22/07/2019 20:04:57;100;0;101.50;16;-19.17;-5.41;186.7;11.40;70141;4852.768;-13031.701;145;-500;-493.1;70;69.7;-20;-19.0;28.7;0.0;
22/07/2019 20:05:17;100;0;100.14;16;-19.19;-5.37;189.5;11.30;70141;4852.768;-13031.701;145;-500;-495.0;70;69.7;-20;-18.5;28.7;0.0;
22/07/2019 20:05:37;100;0;99.78;16;-19.16;-5.38;192.2;11.30;70132;4852.768;-13031.701;145;-500;-495.0;70;69.6;-21;-21.2;28.7;0.0;
22/07/2019 20:05:57;100;0;101.45;16;-19.27;-6.81;195.0;11.30;70126;4852.768;-13031.701;145;-500;-495.0;70;69.7;-19;-19.0;28.7;0.0;
22/07/2019 20:06:17;100;0;102.10;16;-19.19;-5.09;197.9;11.20;70127;4852.768;-13031.701;145;-500;-495.0;70;69.7;-19;-18.1;28.7;0.0;
22/07/2019 20:06:37;100;0;102.98;16;-19.09;-5.07;200.6;11.20;70118;4852.768;-13031.701;145;-500;-495.0;70;69.7;-19;-18.1;28.7;0.0;
22/07/2019 20:06:57;100;0;102.41;16;-19.12;-5.03;203.4;11.10;70108;4852.768;-13031.701;145;-500;-495.0;70;69.7;-20;-19.9;28.7;0.0;
22/07/2019 20:07:17;100;0;101.11;16;-19.07;-6.10;206.2;11.10;70111;4852.768;-13031.701;145;-500;-495.0;70;69.7;-20;-20.3;28.7;0.0;
22/07/2019 20:07:37;100;0;101.40;16;-19.02;-6.15;208.9;11.00;70097;4852.768;-13031.701;145;-500;-493.1;70;69.7;-20;-20.3;28.7;0.0;
22/07/2019 20:07:57;100;0;101.25;16;-19.05;-6.12;211.7;11.00;70099;4852.768;-13031.701;145;-500;-495.0;70;69.7;-20;-20.3;28.7;0.0;
22/07/2019 20:08:17;100;0;99.61;16;-19.02;-6.17;214.5;11.00;70090;4852.768;-13031.701;145;-500;-493.1;70;69.7;-21;-21.2;28.7;0.0;
22/07/2019 20:08:37;100;0;100.06;16;-18.90;-6.68;217.4;10.90;70090;4852.768;-13031.701;145;-500;-495.0;70;69.7;-20;-19.9;28.7;0.0;
22/07/2019 20:08:57;100;0;99.07;16;-18.88;-5.48;220.1;10.90;70077;4852.768;-13031.701;145;-500;-493.1;70;69.7;-21;-21.2;28.7;0.0;
22/07/2019 20:09:17;100;0;97.90;16;-19.13;-6.66;222.8;10.80;70085;4852.768;-13031.701;145;-500;-495.0;70;69.7;-22;-22.1;28.7;0.0;
22/07/2019 20:09:38;100;0;97.43;16;-18.95;-7.07;225.5;10.80;70076;4852.768;-13031.701;145;-500;-495.0;70;69.7;-21;-21.2;28.7;0.0;
22/07/2019 20:09:58;100;0;96.22;16;-19.01;-6.33;228.2;10.80;70073;4852.768;-13031.701;145;-500;-495.0;70;69.7;-22;-22.1;28.7;0.0;
22/07/2019 20:10:18;100;0;96.95;16;-19.10;-7.19;230.8;10.70;70063;4852.768;-13031.701;145;-500;-495.0;70;69.7;-21;-21.2;28.7;0.0;
22/07/2019 20:10:38;100;0;96.26;16;-18.97;-6.03;233.6;10.70;70069;4852.768;-13031.701;145;-500;-493.1;70;69.7;-21;-20.3;28.7;0.0;
22/07/2019 20:10:58;100;0;96.39;16;-18.98;-6.07;236.2;10.70;70063;4852.768;-13031.701;145;-500;-495.0;70;69.7;-21;-20.3;28.6;0.0;
22/07/2019 20:11:18;100;0;95.81;16;-18.89;-6.06;238.9;10.60;70063;4852.768;-13031.701;145;-500;-495.0;70;69.7;-22;-22.1;28.7;0.0;
22/07/2019 20:11:38;100;0;97.95;16;-18.91;-7.17;241.5;10.60;70054;4852.768;-13031.701;145;-500;-495.0;70;69.7;-20;-19.9;28.7;0.0;
22/07/2019 20:11:58;100;0;98.48;16;-18.96;-5.43;244.2;10.60;70064;4852.768;-13031.701;145;-500;-495.0;70;69.7;-20;-19.0;28.7;0.0;
22/07/2019 20:12:18;100;0;99.08;16;-18.90;-5.43;246.8;10.50;70051;4852.768;-13031.701;145;-500;-495.0;70;69.9;-20;-19.0;28.7;0.0;
22/07/2019 20:12:38;100;0;98.96;16;-18.96;-5.43;249.4;10.50;70052;4852.768;-13031.701;145;-500;-495.0;70;69.7;-21;-21.2;28.7;0.0;
22/07/2019 20:12:58;100;0;100.43;16;-18.96;-6.83;252.1;10.50;70048;4852.768;-13031.701;145;-500;-495.0;70;69.7;-19;-19.0;28.7;0.0;
22/07/2019 20:13:18;100;0;100.11;16;-18.91;-5.06;254.8;10.40;70038;4852.768;-13031.701;145;-500;-493.1;70;69.7;-20;-19.9;28.7;0.0;
22/07/2019 20:13:38;100;0;99.63;16;-18.81;-6.11;257.5;10.40;70037;4852.768;-13031.701;145;-500;-495.0;70;69.7;-20;-20.3;28.7;0.0;
22/07/2019 20:13:58;100;0;99.12;16;-18.68;-6.15;260.2;10.40;70028;4852.768;-13031.701;145;-500;-495.0;70;69.7;-20;-20.3;28.7;0.0;
22/07/2019 20:14:18;100;0;99.17;16;-18.75;-6.19;262.9;10.30;70032;4852.768;-13031.701;145;-500;-495.0;70;69.7;-20;-20.3;28.7;0.0;
22/07/2019 20:14:38;100;0;99.23;16;-18.73;-6.10;265.5;10.30;70021;4852.768;-13031.701;145;-500;-495.0;70;69.7;-20;-20.3;28.7;0.0;
22/07/2019 20:14:58;100;0;99.10;16;-18.63;-6.17;268.2;10.30;70027;4852.768;-13031.701;145;-500;-495.0;70;69.7;-20;-20.3;28.7;0.0;
22/07/2019 20:15:18;100;0;99.18;16;-18.58;-6.10;270.8;10.30;70023;4852.768;-13031.701;145;-500;-493.1;70;69.7;-20;-20.3;28.7;0.0;
22/07/2019 20:15:38;100;0;99.41;16;-18.63;-6.09;273.5;10.20;70011;4852.768;-13031.701;145;-500;-495.0;70;69.7;-20;-20.3;28.7;0.0;
22/07/2019 20:15:58;100;0;99.43;16;-18.59;-6.16;276.2;10.20;70006;4852.768;-13031.701;145;-500;-495.0;70;69.7;-20;-20.3;28.7;0.0;
22/07/2019 20:16:18;100;0;99.86;16;-18.55;-6.15;278.7;10.20;70003;4852.768;-13031.701;145;-500;-495.0;70;69.7;-20;-20.3;28.7;0.0;
22/07/2019 20:16:38;100;0;100.19;16;-18.64;-6.14;281.3;10.10;70013;4852.768;-13031.701;145;-500;-495.0;70;69.7;-20;-20.3;28.7;0.0;
22/07/2019 20:16:58;100;0;100.17;16;-18.68;-6.21;283.8;10.10;70003;4852.768;-13031.701;145;-500;-493.1;70;69.7;-20;-20.3;28.7;0.0;
22/07/2019 20:17:18;100;0;99.76;16;-18.57;-6.17;286.4;10.10;70005;4852.768;-13031.701;145;-500;-493.1;70;69.7;-21;-21.2;28.7;0.0;
22/07/2019 20:17:38;100;0;101.24;16;-18.54;-6.66;289.1;10.00;69993;4852.768;-13031.701;145;-500;-495.0;70;69.7;-19;-19.0;28.7;0.0;
22/07/2019 20:17:58;100;0;101.27;16;-18.59;-5.25;291.6;10.00;69997;4852.768;-13031.701;145;-500;-495.0;70;69.7;-20;-20.3;28.7;0.0;
22/07/2019 20:18:18;100;0;101.47;16;-18.67;-6.36;294.1;10.00;69991;4852.768;-13031.701;145;-500;-495.0;70;69.7;-20;-20.3;28.7;0.0;
22/07/2019 20:18:38;100;0;101.73;16;-18.50;-6.35;296.6;10.00;70000;4852.768;-13031.701;145;-500;-495.0;70;69.7;-20;-20.8;28.7;0.0;
22/07/2019 20:18:58;100;0;102.06;16;-18.52;-6.33;299.1;9.90;69991;4852.768;-13031.701;145;-500;-495.0;70;69.7;-19;-19.0;28.7;0.0;
22/07/2019 20:19:18;100;0;101.53;16;-18.46;-5.16;301.5;9.90;69990;4852.768;-13031.701;145;-500;-495.0;70;69.7;-20;-20.3;28.7;0.0;
22/07/2019 20:19:38;100;0;100.47;16;-18.45;-6.22;304.1;9.90;69980;4852.768;-13031.701;145;-500;-495.0;70;69.7;-21;-21.2;28.7;0.0;
22/07/2019 20:19:58;100;0;101.15;16;-18.48;-6.78;306.5;9.90;69975;4852.768;-13031.701;145;-500;-495.0;70;69.7;-20;-19.9;28.7;0.0;
22/07/2019 20:20:18;100;0;101.37;16;-18.47;-5.57;308.9;9.90;69978;4852.768;-13031.701;145;-500;-497.0;70;69.7;-20;-19.4;28.7;0.0;
22/07/2019 20:20:38;100;0;100.94;16;-18.49;-5.69;311.4;9.80;69977;4852.768;-13031.701;145;-500;-495.0;70;69.7;-20;-19.0;28.7;0.0;
22/07/2019 20:20:58;100;0;101.13;16;-18.42;-5.65;313.9;9.80;69968;4852.768;-13031.701;145;-500;-495.0;70;69.7;-20;-19.4;28.7;0.0;
22/07/2019 20:21:18;100;0;100.40;16;-18.50;-5.64;316.3;9.80;69966;4852.768;-13031.701;145;-500;-495.0;70;69.7;-20;-19.4;28.7;0.0;
22/07/2019 20:21:38;100;0;101.42;16;-18.36;-5.68;318.7;9.80;69960;4852.768;-13031.701;145;-500;-495.0;70;69.7;-20;-19.0;28.7;0.0;
22/07/2019 20:21:58;100;0;101.86;16;-18.33;-5.65;321.2;9.70;69961;4852.768;-13031.701;145;-500;-495.0;70;69.7;-20;-19.4;28.7;0.0;
22/07/2019 20:22:18;100;0;102.01;16;-18.31;-5.66;323.6;9.70;69957;4852.768;-13031.701;145;-500;-495.0;70;69.7;-19;-19.0;28.7;0.0;
22/07/2019 20:22:38;100;0;101.22;16;-18.26;-5.62;326.0;9.70;69955;4852.768;-13031.701;145;-500;-495.0;70;69.7;-20;-19.9;28.7;0.0;
22/07/2019 20:22:58;100;0;100.88;16;-18.26;-6.20;328.5;9.70;69955;4852.768;-13031.701;145;-500;-495.0;70;69.7;-21;-21.2;28.7;0.0;
22/07/2019 20:23:18;100;0;101.22;16;-18.23;-6.73;330.9;9.60;69950;4852.768;-13031.701;145;-500;-493.1;70;69.7;-20;-19.9;28.7;0.0;
22/07/2019 20:23:38;100;0;100.82;16;-18.24;-5.59;333.3;9.60;69947;4852.768;-13031.701;145;-500;-495.0;70;69.7;-20;-19.0;28.7;0.0;
22/07/2019 20:23:58;100;0;99.58;16;-18.29;-5.57;335.6;9.60;69950;4852.768;-13031.701;145;-500;-495.0;70;69.7;-21;-21.2;28.7;0.0;
22/07/2019 20:24:18;100;0;99.67;16;-18.41;-6.72;338.1;9.60;69936;4852.768;-13031.701;145;-500;-495.0;70;69.7;-21;-21.2;28.7;0.0;
22/07/2019 20:24:38;100;0;100.80;16;-18.36;-6.68;340.4;9.60;69945;4852.768;-13031.701;145;-500;-495.0;70;69.7;-20;-19.9;28.7;0.0;
22/07/2019 20:24:58;100;0;100.55;16;-18.17;-5.44;342.8;9.50;69933;4852.768;-13031.701;145;-500;-493.1;70;69.7;-20;-19.0;28.7;0.0;
22/07/2019 20:25:18;100;0;101.66;16;-18.43;-5.50;345.2;9.50;69932;4852.768;-13031.701;145;-500;-495.0;70;69.7;-19;-19.0;28.7;0.0;
22/07/2019 20:25:38;100;0;101.56;16;-18.11;-5.39;347.7;9.50;69925;4852.768;-13031.701;145;-500;-495.0;70;69.7;-20;-19.9;28.7;0.0;
22/07/2019 20:25:58;100;0;101.90;16;-18.09;-5.98;350.1;9.50;69939;4852.768;-13031.701;145;-500;-493.1;70;69.7;-20;-19.9;28.7;0.0;
22/07/2019 20:26:18;100;0;102.12;16;-18.05;-6.02;352.5;9.40;69929;4852.768;-13031.701;145;-500;-495.0;70;69.7;-19;-18.5;28.7;0.0;
22/07/2019 20:26:38;100;0;101.67;16;-18.03;-5.21;355.0;9.40;69925;4852.768;-13031.701;145;-500;-493.1;70;69.7;-20;-20.3;28.7;0.0;
22/07/2019 20:26:58;100;0;102.91;16;-18.01;-6.27;357.3;9.40;69927;4852.768;-13031.701;145;-500;-493.1;70;69.7;-19;-19.0;28.7;0.0;
22/07/2019 20:27:18;100;0;104.50;16;-17.99;-5.19;359.8;9.40;69919;4852.768;-13031.701;145;-500;-493.1;70;69.7;-18;-18.1;28.7;0.0;
22/07/2019 20:27:38;100;0;105.30;16;-17.98;-5.07;362.3;9.40;69913;4852.768;-13031.701;145;-500;-493.1;70;69.9;-18;-18.1;28.7;0.0;
22/07/2019 20:27:58;100;0;105.70;16;-17.80;-4.90;364.6;9.30;69911;4852.768;-13031.701;145;-500;-493.1;70;69.7;-19;-19.0;28.7;0.0;
22/07/2019 20:28:18;100;0;105.91;16;-17.98;-5.61;367.0;9.30;69924;4852.768;-13031.701;145;-500;-493.1;70;69.7;-19;-19.0;28.7;0.0;
22/07/2019 20:28:38;100;0;105.60;16;-18.04;-5.61;369.4;9.30;69907;4852.768;-13031.701;145;-500;-493.1;70;69.9;-19;-19.4;28.7;0.0;
22/07/2019 20:28:58;100;0;105.79;16;-18.01;-5.65;371.8;9.30;69906;4852.768;-13031.701;145;-500;-493.1;70;69.7;-19;-19.0;28.7;0.0;
22/07/2019 20:29:18;100;0;104.67;16;-18.02;-5.61;374.2;9.30;69910;4852.768;-13031.701;145;-500;-491.1;70;69.7;-20;-19.9;28.7;0.0;
22/07/2019 20:29:38;100;0;104.46;16;-18.16;-6.17;376.5;9.20;69903;4852.768;-13031.701;145;-500;-493.1;70;69.9;-19;-19.0;28.7;0.0;
22/07/2019 20:29:58;100;0;103.34;16;-17.88;-5.28;379.0;9.20;69901;4852.768;-13031.701;145;-500;-493.1;70;69.7;-20;-19.9;28.7;0.0;
22/07/2019 20:30:18;100;0;102.67;16;-17.97;-6.19;381.4;9.20;69900;4852.768;-13031.701;145;-500;-493.1;70;69.7;-20;-20.3;28.7;0.0;
22/07/2019 20:30:38;100;0;103.13;16;-17.92;-6.22;383.8;9.20;69897;4852.768;-13031.701;145;-500;-493.1;70;69.9;-19;-18.5;28.7;0.0;
22/07/2019 20:30:58;100;0;103.79;16;-17.80;-5.07;386.1;9.20;69897;4852.768;-13031.701;145;-500;-493.1;70;69.7;-19;-18.1;28.7;0.0;
22/07/2019 20:31:18;100;0;103.13;16;-17.83;-5.09;388.6;9.10;69891;4852.768;-13031.701;145;-500;-495.0;70;69.7;-19;-18.1;28.6;0.0;
22/07/2019 20:31:38;100;0;102.65;16;-17.84;-5.13;390.9;9.10;69891;4852.768;-13031.701;145;-500;-493.1;70;69.7;-20;-19.9;28.7;0.0;
22/07/2019 20:31:58;100;0;103.68;16;-17.83;-6.06;393.3;9.10;69884;4852.768;-13031.701;145;-500;-493.1;70;69.6;-19;-19.0;28.7;0.0;
22/07/2019 20:32:18;100;0;103.83;16;-17.76;-5.30;395.7;9.10;69880;4852.768;-13031.701;145;-500;-493.1;70;69.7;-19;-18.5;28.7;0.0;
22/07/2019 20:32:38;100;0;103.85;16;-17.75;-5.25;398.1;9.10;69884;4852.768;-13031.701;145;-500;-493.1;70;69.7;-19;-18.1;28.7;0.0;
22/07/2019 20:32:58;100;0;103.71;16;-17.72;-5.24;400.5;9.10;69877;4852.768;-13031.701;145;-500;-491.1;70;69.7;-19;-18.5;28.7;0.0;
22/07/2019 20:33:18;100;0;103.30;16;-17.73;-5.18;402.8;9.10;69880;4852.768;-13031.701;145;-500;-493.1;70;69.7;-19;-18.1;28.7;0.0;
22/07/2019 20:33:38;100;0;102.10;16;-17.78;-5.15;405.2;9.00;69875;4852.768;-13031.701;145;-500;-493.1;70;69.7;-20;-20.3;28.7;0.0;
22/07/2019 20:33:58;100;0;102.62;16;-17.82;-6.25;407.5;9.00;69871;4852.768;-13031.701;145;-500;-493.1;70;69.7;-20;-20.8;28.7;0.0;
22/07/2019 20:34:18;100;0;102.49;16;-17.79;-6.29;409.9;9.00;69883;4852.768;-13031.701;145;-500;-493.1;70;69.7;-20;-20.3;28.7;0.0;
22/07/2019 20:34:38;100;0;103.09;16;-17.75;-6.35;412.3;9.00;69871;4852.768;-13031.701;145;-500;-493.1;70;69.7;-19;-19.0;28.7;0.0;
22/07/2019 20:34:58;100;0;102.60;16;-17.78;-5.12;414.6;9.00;69868;4852.768;-13031.701;145;-500;-493.1;70;69.7;-20;-19.9;28.7;0.0;
22/07/2019 20:35:18;100;0;102.41;16;-17.56;-6.26;417.0;9.00;69869;4852.768;-13031.701;145;-500;-493.1;70;69.7;-20;-20.3;28.6;0.0;
22/07/2019 20:35:38;100;0;103.28;16;-17.70;-6.23;419.4;8.90;69853;4852.768;-13031.701;145;-500;-493.1;70;69.7;-19;-18.5;28.7;0.0;
22/07/2019 20:35:58;100;0;103.53;16;-17.61;-5.07;421.7;8.90;69856;4852.768;-13031.701;145;-500;-493.1;70;69.7;-19;-18.1;28.7;0.0;
22/07/2019 20:36:18;100;0;103.41;16;-17.59;-5.10;424.0;8.90;69852;4852.768;-13031.701;145;-500;-493.1;70;69.7;-19;-18.1;28.7;0.0;
22/07/2019 20:36:38;100;0;102.72;16;-17.56;-5.07;426.3;8.90;69853;4852.768;-13031.701;145;-500;-493.1;70;69.7;-20;-19.9;28.7;0.0;
22/07/2019 20:36:58;100;0;103.76;16;-17.66;-6.25;428.7;8.90;69840;4852.768;-13031.701;145;-500;-493.1;70;69.7;-19;-19.0;28.7;0.0;
22/07/2019 20:37:18;100;0;103.36;16;-17.64;-5.31;431.0;8.80;69835;4852.768;-13031.701;145;-500;-493.1;70;69.7;-19;-18.5;28.7;0.0;
22/07/2019 20:37:38;100;0;102.69;16;-17.65;-5.28;433.3;8.80;69828;4852.768;-13031.701;145;-500;-493.1;70;69.7;-20;-19.9;28.7;0.0;
22/07/2019 20:37:58;100;0;104.07;16;-17.73;-6.23;435.5;8.80;69829;4852.768;-13031.701;145;-500;-491.1;70;69.7;-19;-19.0;28.7;0.0;
22/07/2019 20:38:18;100;0;103.67;16;-17.62;-5.26;437.8;8.80;69837;4852.768;-13031.701;145;-500;-493.1;70;69.7;-20;-20.3;28.7;0.0;
22/07/2019 20:38:38;100;0;103.64;16;-17.58;-6.33;440.0;8.80;69834;4852.768;-13031.701;145;-500;-493.1;70;69.7;-20;-20.3;28.7;0.0;
22/07/2019 20:38:58;100;0;104.64;16;-17.56;-6.34;442.4;8.70;69826;4852.768;-13031.701;145;-500;-493.1;70;69.7;-19;-19.0;28.7;0.0;
22/07/2019 20:39:18;100;0;104.27;16;-17.44;-5.11;444.6;8.70;69817;4852.768;-13031.701;145;-500;-493.1;70;69.7;-19;-18.1;28.7;0.0;
22/07/2019 20:39:38;100;0;103.55;16;-17.40;-5.15;446.8;8.70;69818;4852.768;-13031.701;145;-500;-493.1;70;69.7;-20;-19.9;28.7;0.0;
22/07/2019 20:39:58;100;0;103.91;16;-17.46;-6.30;449.2;8.70;69815;4852.768;-13031.701;145;-500;-493.1;70;69.7;-20;-20.3;28.7;0.0;
22/07/2019 20:40:18;100;0;104.55;16;-17.42;-6.24;451.5;8.70;69815;4852.768;-13031.701;145;-500;-493.1;70;69.7;-19;-19.0;28.7;0.0;
22/07/2019 20:40:38;100;0;104.58;16;-17.37;-5.17;453.8;8.70;69813;4852.768;-13031.701;145;-500;-491.1;70;69.7;-19;-18.1;28.7;0.0;
22/07/2019 20:40:58;100;0;102.93;16;-17.31;-5.19;456.0;8.60;69809;4852.768;-13031.701;145;-500;-493.1;70;69.7;-20;-19.9;28.7;0.0;
22/07/2019 20:41:18;100;0;102.89;16;-17.49;-6.25;458.4;8.60;69804;4852.768;-13031.701;145;-500;-493.1;70;69.7;-20;-20.3;28.7;0.0;
22/07/2019 20:41:38;100;0;103.22;16;-17.44;-6.24;460.6;8.60;69799;4852.768;-13031.701;145;-500;-493.1;70;69.7;-19;-19.0;28.7;0.0;
22/07/2019 20:41:58;100;0;103.07;16;-17.40;-5.24;462.9;8.60;69809;4852.768;-13031.701;145;-500;-493.1;70;69.7;-19;-18.1;28.7;0.0;
22/07/2019 20:42:18;100;0;103.87;16;-17.37;-5.24;465.3;8.60;69802;4852.768;-13031.701;145;-500;-493.1;70;69.7;-19;-18.1;28.7;0.0;
22/07/2019 20:42:38;100;0;104.33;16;-17.40;-5.25;467.5;8.60;69792;4852.768;-13031.701;145;-500;-493.1;70;69.7;-19;-18.1;28.7;0.0;
22/07/2019 20:42:58;100;0;104.24;16;-17.39;-5.23;469.9;8.50;69792;4852.768;-13031.701;145;-500;-493.1;70;69.7;-19;-18.1;28.7;0.0;
22/07/2019 20:43:18;100;0;103.86;16;-17.33;-5.23;472.2;8.50;69790;4852.768;-13031.701;145;-500;-493.1;70;69.7;-20;-20.3;28.6;0.0;
22/07/2019 20:43:38;100;0;103.13;16;-17.39;-6.26;474.5;8.50;69784;4852.768;-13031.701;145;-500;-493.1;70;69.7;-20;-20.3;28.7;0.0;
22/07/2019 20:43:58;100;0;102.61;16;-17.35;-6.20;476.9;8.50;69785;4852.768;-13031.701;145;-500;-493.1;70;69.7;-20;-20.3;28.7;0.0;
22/07/2019 20:44:19;100;0;101.89;16;-17.23;-6.29;479.2;8.50;69788;4852.768;-13031.701;145;-500;-493.1;70;69.7;-21;-21.2;28.7;0.0;
22/07/2019 20:44:39;100;0;100.91;16;-17.21;-6.75;481.6;8.50;69775;4852.768;-13031.701;145;-500;-493.1;70;69.7;-21;-21.7;28.7;0.0;
22/07/2019 20:44:59;100;0;101.13;16;-17.13;-6.82;484.0;8.40;69780;4852.768;-13031.701;145;-500;-493.1;70;69.7;-20;-19.9;28.7;0.0;
22/07/2019 20:45:19;100;0;100.22;16;-17.13;-5.61;486.4;8.40;69770;4852.768;-13031.701;145;-500;-493.1;70;69.7;-20;-19.0;28.7;0.0;
22/07/2019 20:45:39;100;0;100.35;16;-17.26;-5.61;488.7;8.40;69774;4852.768;-13031.701;145;-500;-493.1;70;69.7;-20;-19.0;28.7;0.0;
22/07/2019 20:45:59;100;0;100.23;16;-16.93;-5.68;491.2;8.40;69775;4852.768;-13031.701;145;-500;-493.1;70;69.7;-20;-19.0;28.7;0.0;
22/07/2019 20:46:19;100;0;101.40;16;-17.28;-5.77;493.5;8.40;69775;4852.768;-13031.701;145;-500;-493.1;70;69.7;-20;-19.4;28.7;0.0;
22/07/2019 20:46:39;100;0;101.14;16;-16.99;-5.63;496.0;8.40;69777;4852.768;-13031.701;145;-500;-493.1;70;69.7;-20;-19.0;28.7;0.0;
22/07/2019 20:46:59;100;0;101.79;16;-17.13;-5.70;498.3;8.40;69764;4852.768;-13031.701;145;-500;-493.1;70;69.7;-20;-19.0;28.7;0.0;
22/07/2019 20:47:19;100;0;102.27;16;-17.16;-5.66;500.7;8.30;69768;4852.768;-13031.701;145;-500;-493.1;70;69.7;-19;-19.0;28.7;0.0;
22/07/2019 20:47:39;100;0;102.90;16;-17.06;-5.47;503.1;8.30;69766;4852.768;-13031.701;145;-500;-493.1;70;69.7;-19;-18.5;28.7;0.0;
22/07/2019 20:47:59;100;0;103.62;16;-17.06;-5.49;505.5;8.30;69766;4852.768;-13031.701;145;-500;-493.1;70;69.7;-19;-18.5;28.7;0.0;
22/07/2019 20:48:19;100;0;104.14;16;-17.14;-5.47;507.8;8.30;69765;4852.768;-13031.701;145;-500;-493.1;70;69.7;-19;-18.5;28.7;0.0;
22/07/2019 20:48:39;100;0;103.67;16;-17.09;-5.43;510.1;8.30;69754;4852.768;-13031.701;145;-500;-493.1;70;69.7;-20;-19.9;28.7;0.0;
22/07/2019 20:48:59;100;0;103.58;16;-17.14;-6.28;512.5;8.30;69748;4852.768;-13031.701;145;-500;-493.1;70;69.7;-20;-20.3;28.7;0.0;
22/07/2019 20:49:19;100;0;103.01;16;-17.11;-6.26;514.8;8.30;69756;4852.768;-13031.701;145;-500;-491.1;70;69.7;-20;-20.3;28.7;0.0;
22/07/2019 20:49:39;100;0;102.57;16;-17.09;-6.21;517.1;8.20;69758;4852.768;-13031.701;145;-500;-491.1;70;69.7;-20;-20.3;28.7;0.0;
22/07/2019 20:49:59;100;0;101.86;16;-16.98;-6.22;519.5;8.20;69747;4852.768;-13031.701;145;-500;-491.1;70;69.7;-20;-20.3;28.7;0.0;
22/07/2019 20:50:19;100;0;101.52;16;-17.03;-6.24;521.8;8.20;69742;4852.768;-13031.701;145;-500;-493.1;70;69.9;-20;-20.3;28.7;0.0;
22/07/2019 20:50:39;100;0;101.08;16;-17.01;-6.22;524.1;8.20;69747;4852.768;-13031.701;145;-500;-493.1;70;69.7;-20;-20.3;28.7;0.0;
22/07/2019 20:50:59;100;0;100.41;16;-16.97;-6.24;526.4;8.20;69748;4852.768;-13031.701;145;-500;-493.1;70;69.7;-21;-21.7;28.6;0.0;
22/07/2019 20:51:19;100;0;100.90;16;-16.99;-7.02;528.6;8.20;69738;4852.768;-13031.701;145;-500;-493.1;70;69.7;-20;-19.9;28.7;0.0;
22/07/2019 20:51:39;100;0;100.71;16;-16.79;-5.50;531.0;8.10;69734;4852.768;-13031.701;145;-500;-493.1;70;69.7;-20;-19.0;28.7;0.0;
22/07/2019 20:51:59;100;0;101.40;16;-16.75;-5.57;533.2;8.10;69730;4852.768;-13031.701;145;-500;-493.1;70;69.7;-20;-19.0;28.7;0.0;
22/07/2019 20:52:19;100;0;101.97;16;-16.83;-5.56;535.4;8.10;69741;4852.768;-13031.701;145;-500;-491.1;70;69.7;-20;-19.0;28.7;0.0;
22/07/2019 20:52:39;100;0;102.83;16;-16.87;-5.60;537.7;8.10;69731;4852.768;-13031.701;145;-500;-491.1;70;69.7;-19;-19.0;28.7;0.0;
22/07/2019 20:52:59;100;0;101.97;16;-16.79;-5.53;539.9;8.10;69718;4852.768;-13031.701;145;-500;-493.1;70;69.7;-20;-20.3;28.7;0.0;
22/07/2019 20:53:19;100;0;101.93;16;-16.87;-6.45;542.2;8.10;69719;4852.768;-13031.701;145;-500;-491.1;70;69.7;-20;-20.8;28.7;0.0;
22/07/2019 20:53:39;100;0;102.55;16;-16.84;-6.45;544.3;8.10;69719;4852.768;-13031.701;145;-500;-491.1;70;69.7;-19;-19.0;28.7;0.0;
22/07/2019 20:53:59;100;0;101.35;16;-16.81;-5.19;546.5;8.00;69709;4852.768;-13031.701;145;-500;-493.1;70;69.7;-20;-19.9;28.7;0.0;
22/07/2019 20:54:19;100;0;101.32;16;-16.78;-6.30;548.6;8.00;69713;4852.768;-13031.701;145;-500;-493.1;70;69.7;-20;-20.3;28.7;0.0;
22/07/2019 20:54:39;100;0;101.04;16;-16.68;-6.27;550.8;8.00;69714;4852.768;-13031.701;145;-500;-493.1;70;69.7;-20;-20.3;28.7;0.0;
22/07/2019 20:54:59;100;0;101.47;16;-16.70;-6.30;552.9;8.00;69715;4852.768;-13031.701;145;-500;-491.1;70;69.7;-20;-20.3;28.7;0.0;
22/07/2019 20:55:19;100;0;100.20;16;-16.62;-6.23;555.0;8.00;69706;4852.768;-13031.701;145;-500;-493.1;70;69.7;-20;-20.3;28.7;0.0;
22/07/2019 20:55:39;100;0;101.21;16;-16.72;-6.32;557.1;8.00;69712;4852.768;-13031.701;145;-500;-491.1;70;69.7;-20;-20.3;28.7;0.0;
22/07/2019 20:55:59;100;0;101.59;16;-16.48;-6.20;559.1;8.00;69700;4852.768;-13031.701;145;-500;-493.1;70;69.7;-20;-20.3;28.7;0.0;
22/07/2019 20:56:19;100;0;102.26;16;-16.53;-6.29;561.1;7.90;69706;4852.768;-13031.701;145;-500;-491.1;70;69.7;-19;-19.0;28.7;0.0;
22/07/2019 20:56:39;100;0;103.59;16;-16.64;-5.53;563.2;7.90;69699;4852.768;-13031.701;145;-500;-493.1;70;69.7;-19;-18.5;28.7;0.0;
22/07/2019 20:56:59;100;0;104.36;16;-16.52;-5.63;565.2;7.90;69704;4852.768;-13031.701;145;-500;-491.1;70;69.7;-19;-18.5;28.7;0.0;
22/07/2019 20:57:19;100;0;104.67;16;-16.59;-5.55;567.3;7.90;69703;4852.768;-13031.701;145;-500;-491.1;70;69.7;-19;-18.5;28.7;0.0;
22/07/2019 20:57:39;100;0;104.76;16;-16.33;-5.55;569.3;7.90;69696;4852.768;-13031.701;145;-500;-491.1;70;69.7;-19;-18.5;28.7;0.0;
22/07/2019 20:57:59;100;0;104.71;16;-16.24;-5.41;571.4;7.90;69690;4852.768;-13031.701;145;-500;-491.1;70;69.7;-19;-18.5;28.7;0.0;
22/07/2019 20:58:19;100;0;105.36;16;-16.39;-5.52;573.4;7.80;69689;4852.768;-13031.701;145;-500;-491.1;70;69.7;-19;-18.5;28.7;0.0;
22/07/2019 20:58:39;100;0;105.72;16;-16.53;-5.48;575.4;7.80;69683;4852.768;-13031.701;145;-500;-491.1;70;69.7;-19;-18.5;28.7;0.0;
22/07/2019 20:58:59;100;0;105.70;16;-16.38;-5.46;577.5;7.80;69687;4852.768;-13031.701;145;-500;-491.1;70;69.7;-19;-18.5;28.7;0.0;
22/07/2019 20:59:19;100;0;106.82;16;-16.46;-5.53;579.4;7.80;69691;4852.768;-13031.701;145;-500;-491.1;70;69.7;-18;-18.1;28.7;0.0;
22/07/2019 20:59:39;100;0;106.87;16;-16.47;-4.86;581.4;7.80;69682;4852.768;-13031.701;145;-500;-491.1;70;69.7;-19;-19.0;28.7;0.0;
22/07/2019 20:59:59;100;0;106.86;16;-16.51;-5.90;583.4;7.80;69677;4852.768;-13031.701;145;-500;-491.1;70;69.7;-19;-19.4;28.6;0.0;
22/07/2019 21:00:19;100;0;106.44;16;-16.54;-5.97;585.4;7.80;69684;4852.768;-13031.701;145;-500;-491.1;70;69.7;-19;-19.4;28.7;0.0;
22/07/2019 21:00:39;100;0;106.32;16;-16.49;-5.92;587.2;7.80;69683;4852.768;-13031.701;145;-500;-491.1;70;69.7;-19;-19.4;28.7;0.0;
22/07/2019 21:00:59;100;0;105.46;16;-16.58;-5.90;589.3;7.70;69670;4852.768;-13031.701;145;-500;-491.1;70;69.7;-19;-19.4;28.7;0.0;
22/07/2019 21:01:19;100;0;104.77;16;-16.50;-5.96;591.2;7.70;69670;4852.768;-13031.701;145;-500;-491.1;70;69.7;-20;-19.9;28.7;0.0;
22/07/2019 21:01:39;100;0;104.22;16;-16.53;-6.26;593.2;7.70;69674;4852.768;-13031.701;145;-500;-493.1;70;69.7;-20;-20.3;28.7;0.0;
22/07/2019 21:01:59;100;0;103.28;16;-16.46;-6.25;595.2;7.70;69672;4852.768;-13031.701;145;-500;-491.1;70;69.7;-20;-20.3;28.7;0.0;
22/07/2019 21:02:19;100;0;103.09;16;-16.56;-6.31;597.2;7.70;69673;4852.768;-13031.701;145;-500;-491.1;70;69.7;-20;-20.3;28.7;0.0;
22/07/2019 21:02:39;100;0;103.71;16;-16.38;-6.29;599.1;7.70;69665;4852.768;-13031.701;145;-500;-491.1;70;69.7;-20;-20.3;28.7;0.0;
22/07/2019 21:02:59;100;0;103.65;16;-16.32;-6.30;601.1;7.70;69656;4852.768;-13031.701;145;-500;-491.1;70;69.7;-20;-20.3;28.7;0.0;
22/07/2019 21:03:19;100;0;104.10;16;-16.27;-6.30;603.0;7.70;69662;4852.768;-13031.701;145;-500;-493.1;70;69.7;-19;-19.0;28.7;0.0;
22/07/2019 21:03:39;100;0;103.35;16;-16.25;-5.38;605.0;7.60;69665;4852.768;-13031.701;145;-500;-491.1;70;69.7;-20;-20.3;28.7;0.0;
22/07/2019 21:03:59;100;0;102.43;16;-16.33;-6.37;606.9;7.60;69650;4852.768;-13031.701;145;-500;-491.1;70;69.7;-20;-20.3;28.7;0.0;
22/07/2019 21:04:19;100;0;101.82;16;-16.27;-6.36;608.8;7.60;69651;4852.768;-13031.701;145;-500;-491.1;70;69.7;-21;-21.2;28.7;0.0;
22/07/2019 21:04:39;100;0;102.25;16;-16.30;-6.98;610.8;7.60;69657;4852.768;-13031.701;145;-500;-491.1;70;69.7;-20;-19.9;28.7;0.0;
22/07/2019 21:04:59;100;0;102.40;16;-16.29;-5.77;612.8;7.60;69644;4852.768;-13031.701;145;-500;-491.1;70;69.7;-20;-19.0;28.7;0.0;
22/07/2019 21:05:19;100;0;103.10;16;-16.46;-5.83;614.8;7.60;69650;4852.768;-13031.701;145;-500;-491.1;70;69.7;-19;-19.0;28.7;0.0;
22/07/2019 21:05:39;100;0;103.42;16;-16.23;-5.73;616.7;7.60;69639;4852.768;-13031.701;145;-500;-491.1;70;69.7;-19;-19.0;28.7;0.0;
22/07/2019 21:05:59;100;0;104.02;16;-16.12;-5.68;618.6;7.60;69644;4852.768;-13031.701;145;-500;-489.1;70;69.7;-19;-19.4;28.7;0.0;
22/07/2019 21:06:19;100;0;105.44;16;-16.17;-5.73;620.6;7.50;69639;4852.768;-13031.701;145;-500;-491.1;70;69.7;-18;-18.1;28.7;0.0;
22/07/2019 21:06:39;100;0;105.64;16;-16.13;-5.04;622.6;7.50;69651;4852.768;-13031.701;145;-500;-491.1;70;69.7;-19;-19.4;28.6;0.0;
22/07/2019 21:06:59;100;0;105.68;16;-16.07;-6.08;624.5;7.50;69638;4852.768;-13031.701;145;-500;-491.1;70;69.7;-19;-19.9;28.7;0.0;
22/07/2019 21:07:19;100;0;105.54;16;-16.09;-6.05;626.5;7.50;69631;4852.768;-13031.701;145;-500;-491.1;70;69.7;-19;-19.9;28.7;0.0;
22/07/2019 21:07:39;100;0;106.31;16;-16.21;-6.03;628.4;7.50;69642;4852.768;-13031.701;145;-500;-491.1;70;69.7;-18;-18.1;28.7;0.0;
22/07/2019 21:07:59;100;0;105.18;16;-15.97;-4.74;630.4;7.50;69645;4852.768;-13031.701;145;-500;-491.1;70;69.7;-19;-19.0;28.8;0.0;
22/07/2019 21:08:19;100;0;103.52;16;-16.05;-5.86;632.3;7.50;69633;4852.768;-13031.701;145;-500;-491.1;70;69.7;-20;-19.9;28.6;0.0;
22/07/2019 21:08:39;100;0;101.78;16;-16.02;-5.84;634.3;7.50;69639;4852.768;-13031.701;145;-500;-491.1;70;69.7;-21;-21.2;28.7;0.0;
22/07/2019 21:08:59;100;0;100.97;16;-16.24;-6.85;636.3;7.40;69624;4852.768;-13031.701;145;-500;-491.1;70;69.7;-21;-21.7;28.7;0.0;
22/07/2019 21:09:19;100;0;100.94;16;-16.15;-6.92;638.2;7.40;69638;4852.768;-13031.701;145;-500;-491.1;70;69.7;-21;-21.7;28.7;0.0;
22/07/2019 21:09:39;100;0;100.71;16;-16.13;-6.89;640.2;7.40;69624;4852.768;-13031.701;145;-500;-489.1;70;69.7;-20;-19.9;28.7;0.0;
22/07/2019 21:09:59;100;0;100.53;16;-16.02;-5.70;642.1;7.40;69631;4852.768;-13031.701;145;-500;-491.1;70;69.7;-20;-19.0;28.7;0.0;
22/07/2019 21:10:19;100;0;100.26;16;-15.93;-5.72;644.1;7.40;69624;4852.768;-13031.701;145;-500;-491.1;70;69.7;-20;-19.0;28.7;0.0;
22/07/2019 21:10:39;100;0;100.10;16;-16.03;-5.78;646.0;7.40;69626;4852.768;-13031.701;145;-500;-491.1;70;69.7;-20;-19.0;28.7;0.0;
22/07/2019 21:10:59;100;0;99.07;16;-16.08;-5.68;647.9;7.40;69620;4852.768;-13031.701;145;-500;-491.1;70;69.7;-21;-21.7;28.7;0.0;
22/07/2019 21:11:19;100;0;99.52;16;-16.02;-7.13;649.8;7.40;69630;4852.768;-13031.701;145;-500;-491.1;70;69.7;-20;-19.9;28.7;0.0;
22/07/2019 21:11:39;100;0;99.80;16;-15.93;-5.65;651.7;7.40;69615;4852.768;-13031.701;145;-500;-491.1;70;69.7;-20;-19.0;28.7;0.0;
22/07/2019 21:11:59;100;0;99.61;16;-15.90;-5.66;653.6;7.40;69622;4852.768;-13031.701;145;-500;-491.1;70;69.7;-20;-19.0;28.7;0.0;
22/07/2019 21:12:19;100;0;99.68;16;-15.98;-5.70;655.5;7.30;69625;4852.768;-13031.701;145;-500;-491.1;70;69.7;-20;-19.0;28.7;0.0;
22/07/2019 21:12:39;100;0;98.87;16;-15.96;-5.66;657.5;7.30;69610;4852.768;-13031.701;145;-500;-491.1;70;69.7;-21;-21.2;28.7;0.0;
22/07/2019 21:12:59;100;0;99.89;16;-15.78;-7.02;659.5;7.30;69607;4852.768;-13031.701;145;-500;-491.1;70;69.7;-20;-19.4;28.7;0.0;
22/07/2019 21:13:19;100;0;100.45;16;-15.85;-5.60;661.4;7.30;69620;4852.768;-13031.701;145;-500;-489.1;70;69.7;-20;-18.5;28.7;0.0;
22/07/2019 21:13:39;100;0;101.80;16;-15.82;-5.60;663.4;7.30;69617;4852.768;-13031.701;145;-500;-491.1;70;69.7;-19;-19.0;28.7;0.0;
22/07/2019 21:13:59;100;0;101.80;16;-15.84;-5.56;665.4;7.30;69612;4852.768;-13031.701;145;-500;-491.1;70;69.7;-20;-19.9;28.7;0.0;
22/07/2019 21:14:19;100;0;101.81;16;-15.89;-6.40;667.3;7.30;69610;4852.768;-13031.701;145;-500;-489.1;70;69.7;-20;-20.3;28.7;0.0;
22/07/2019 21:14:39;100;0;101.44;16;-15.94;-6.41;669.4;7.30;69608;4852.768;-13031.701;145;-500;-491.1;70;69.7;-20;-20.3;28.7;0.0;
22/07/2019 21:14:59;100;0;101.37;16;-15.89;-6.39;671.3;7.30;69616;4852.768;-13031.701;145;-500;-491.1;70;69.7;-20;-20.3;28.7;0.0;
22/07/2019 21:15:19;100;0;101.22;16;-15.97;-6.41;673.2;7.20;69608;4852.768;-13031.701;145;-500;-491.1;70;69.7;-20;-20.8;28.7;0.0;
22/07/2019 21:15:39;100;0;101.26;16;-15.84;-6.46;675.2;7.20;69609;4852.768;-13031.701;145;-500;-491.1;70;69.7;-20;-20.8;28.7;0.0;
22/07/2019 21:15:59;100;0;101.32;16;-15.91;-6.44;677.2;7.20;69598;4852.768;-13031.701;145;-500;-491.1;70;69.7;-20;-20.3;28.7;0.0;
22/07/2019 21:16:19;100;0;101.49;16;-15.78;-6.39;679.2;7.20;69594;4852.768;-13031.701;145;-500;-491.1;70;69.7;-20;-20.3;28.7;0.0;
22/07/2019 21:16:39;100;0;101.56;16;-15.70;-6.39;681.1;7.20;69599;4852.768;-13031.701;145;-500;-491.1;70;69.7;-20;-20.3;28.7;0.0;
22/07/2019 21:16:59;100;0;101.39;16;-15.81;-6.40;683.0;7.20;69600;4852.768;-13031.701;145;-500;-491.1;70;69.7;-20;-20.3;28.7;0.0;
22/07/2019 21:17:19;100;0;101.84;16;-15.84;-6.40;684.9;7.20;69604;4852.768;-13031.701;145;-500;-491.1;70;69.7;-20;-20.3;28.7;0.0;
22/07/2019 21:17:39;100;0;102.17;16;-15.79;-6.40;686.9;7.20;69604;4852.768;-13031.701;145;-500;-491.1;70;69.7;-19;-19.0;28.7;0.0;
22/07/2019 21:18:00;100;0;101.89;16;-15.71;-5.30;688.8;7.20;69595;4852.768;-13031.701;145;-500;-491.1;70;69.7;-20;-19.9;28.7;0.0;
22/07/2019 21:18:20;100;0;102.43;16;-15.79;-6.35;690.7;7.20;69592;4852.768;-13031.701;145;-500;-491.1;70;69.7;-19;-19.0;28.7;0.0;
22/07/2019 21:18:40;100;0;100.42;16;-15.61;-5.54;692.7;7.10;69606;4852.768;-13031.701;145;-500;-491.1;70;69.7;-21;-21.7;28.7;0.0;
22/07/2019 21:19:00;100;0;100.52;16;-15.67;-7.05;694.7;7.10;69599;4852.768;-13031.701;145;-500;-491.1;70;69.7;-20;-19.9;28.7;0.0;
22/07/2019 21:19:20;100;0;100.26;16;-15.55;-5.67;696.6;7.10;69599;4852.768;-13031.701;145;-500;-491.1;70;69.7;-20;-19.0;28.7;0.0;
22/07/2019 21:19:40;100;0;99.26;16;-15.55;-5.63;698.6;7.10;69591;4852.768;-13031.701;145;-500;-489.1;70;69.7;-21;-21.7;28.7;0.0;
22/07/2019 21:20:00;118;0;98.99;16;-15.66;-7.06;700.4;7.10;69595;4852.768;-13031.701;145;150;-489.1;57;56.8;0;0.5;28.7;0.0;
22/07/2019 21:20:10;118;0;94.78;16;-0.91;3.24;701.3;7.10;69538;4852.768;-13031.701;145;150;-332.7;57;57.1;0;0.5;27.3;0.0;
22/07/2019 21:20:20;118;0;90.76;16;14.90;3.30;701.2;7.10;69324;4852.768;-13031.701;145;150;-180.2;57;57.1;0;0.5;27.4;-1.0;
22/07/2019 21:20:30;118;0;88.95;16;19.75;3.27;700.6;7.10;69071;4852.768;-13031.701;145;150;-23.8;57;57.1;0;0.5;27.3;-1.0;
22/07/2019 21:20:40;118;0;89.27;16;19.71;3.41;699.8;7.10;68827;4852.768;-13031.701;145;150;130.7;57;57.1;0;0.5;27.2;-1.0;
22/07/2019 21:20:50;118;0;88.98;16;21.84;3.40;698.6;7.10;68580;4852.768;-13031.701;145;150;156.4;57;56.9;0;0.5;27.4;-1.0;
22/07/2019 21:21:00;118;0;109.20;16;24.27;3.36;696.7;7.10;68553;4852.768;-13031.701;145;150;158.4;57;56.9;0;0.5;28.6;-1.0;
22/07/2019 21:21:10;117;0;109.19;16;25.29;3.26;694.5;7.10;68575;4852.768;-13031.701;145;150;158.4;57;57.1;0;0.5;28.6;-1.0;
22/07/2019 21:21:30;117;0;107.14;16;26.02;3.19;689.7;7.10;68554;4852.768;-13031.701;145;150;156.4;57;57.1;16;15.8;28.6;-1.0;
22/07/2019 21:21:50;117;0;109.55;16;25.96;10.60;684.1;7.10;68546;4852.768;-13031.701;145;150;158.4;57;56.9;16;16.2;28.7;-1.0;
22/07/2019 21:22:10;117;0;113.11;16;26.01;10.71;679.0;7.10;68540;4852.768;-13031.701;145;150;158.4;57;56.9;15;14.9;28.6;-1.0;
22/07/2019 21:22:30;117;0;115.72;16;26.24;9.63;673.8;7.10;68543;4852.768;-13031.701;145;150;158.4;57;57.1;15;14.4;28.7;-1.0;
22/07/2019 21:22:50;117;0;117.01;16;26.36;9.45;668.5;7.10;68549;4852.768;-13031.701;145;150;158.4;57;56.9;15;14.0;28.7;-1.0;
22/07/2019 21:23:10;117;0;117.55;16;26.27;9.52;663.1;7.10;68552;4852.768;-13031.701;145;150;156.4;57;56.9;16;16.2;28.7;-1.0;
22/07/2019 21:23:30;117;0;119.80;16;26.00;10.83;657.8;7.10;68536;4852.768;-13031.701;145;150;158.4;57;56.9;15;14.4;28.7;-1.0;
22/07/2019 21:23:50;117;0;120.74;16;26.10;9.48;652.6;7.10;68534;4852.768;-13031.701;145;150;158.4;57;57.1;15;14.4;28.7;-1.0;
22/07/2019 21:24:10;117;0;122.83;16;26.15;9.47;647.2;7.10;68543;4852.768;-13031.701;145;150;158.4;57;57.1;14;14.0;28.7;-1.0;
22/07/2019 21:24:30;117;0;125.89;16;25.89;9.52;642.0;7.10;68541;4852.768;-13031.701;145;150;156.4;57;57.1;13;13.1;28.7;-1.0;
22/07/2019 21:24:50;117;0;129.08;16;25.87;8.64;636.8;7.10;68536;4852.768;-13031.701;145;150;158.4;57;56.9;13;12.2;28.7;-1.0;
22/07/2019 21:25:10;117;0;131.67;16;25.74;8.61;631.7;7.10;68537;4852.768;-13031.701;145;150;158.4;57;57.1;13;12.2;28.7;-1.0;
22/07/2019 21:25:30;117;0;131.98;16;25.81;8.58;626.5;7.00;68541;4852.768;-13031.701;145;150;158.4;57;57.1;13;12.6;28.7;-1.0;
22/07/2019 21:25:50;117;0;131.42;16;25.83;8.57;621.4;7.00;68535;4852.768;-13031.701;145;150;158.4;57;56.9;13;12.6;28.7;-1.0;
22/07/2019 21:26:10;117;0;131.84;16;25.74;8.62;616.3;7.00;68532;4852.768;-13031.701;145;150;158.4;57;56.9;13;12.2;28.7;-1.0;
22/07/2019 21:26:30;117;0;132.04;16;25.71;8.60;611.3;7.00;68536;4852.768;-13031.701;145;150;158.4;57;56.9;13;12.6;28.7;-1.0;
22/07/2019 21:26:50;117;0;133.62;16;25.68;8.62;606.3;7.00;68525;4852.768;-13031.701;145;150;158.4;57;57.1;12;12.2;28.7;-1.0;
22/07/2019 21:27:10;117;0;134.89;16;25.60;8.66;601.1;7.00;68530;4852.768;-13031.701;145;150;158.4;57;56.9;12;12.6;28.7;-1.0;
22/07/2019 21:27:30;117;0;136.28;16;25.65;8.69;596.1;7.00;68531;4852.768;-13031.701;145;150;158.4;57;57.1;11;10.8;28.7;-1.0;
22/07/2019 21:27:50;117;0;137.43;16;25.60;7.41;591.0;7.00;68540;4852.768;-13031.701;145;150;158.4;57;56.9;11;9.9;28.7;-1.0;
22/07/2019 21:28:10;117;0;137.50;16;25.76;7.40;585.8;7.00;68531;4852.768;-13031.701;145;150;156.4;57;56.9;11;9.9;28.7;-1.0;
22/07/2019 21:28:30;117;0;137.33;16;25.75;7.35;580.7;7.00;68534;4852.768;-13031.701;145;150;158.4;57;57.1;11;9.9;28.6;-1.0;
22/07/2019 21:28:50;117;0;135.19;16;25.92;7.59;575.6;7.00;68526;4852.768;-13031.701;145;150;158.4;57;56.9;12;12.2;28.7;-1.0;
22/07/2019 21:29:10;117;0;134.34;16;25.60;8.81;570.5;7.00;68535;4852.768;-13031.701;145;150;158.4;57;57.1;12;12.6;28.7;-1.0;
22/07/2019 21:29:30;117;0;134.22;16;25.40;8.86;565.6;7.00;68533;4852.768;-13031.701;145;150;158.4;57;56.9;11;10.4;28.7;-1.0;
22/07/2019 21:29:50;117;0;133.38;16;25.32;7.82;560.8;7.00;68530;4852.768;-13031.701;145;150;160.4;57;56.9;11;9.9;28.7;-1.0;
22/07/2019 21:30:10;117;0;133.02;16;25.14;7.48;555.8;7.00;68527;4852.768;-13031.701;145;150;158.4;57;57.1;11;9.9;28.7;-1.0;
22/07/2019 21:30:30;117;0;132.83;16;25.37;7.49;551.0;6.90;68542;4852.768;-13031.701;145;150;158.4;57;56.9;11;9.9;28.7;-1.0;
22/07/2019 21:30:50;117;0;132.38;16;25.35;7.52;545.9;7.00;68538;4852.768;-13031.701;145;150;158.4;57;57.1;11;9.9;28.7;-1.0;
22/07/2019 21:31:10;117;0;132.14;16;25.42;7.50;540.9;7.00;68544;4852.768;-13031.701;145;150;158.4;57;56.9;11;9.9;28.7;-1.0;
22/07/2019 21:31:30;117;0;131.09;16;25.32;7.58;536.0;6.90;68531;4852.768;-13031.701;145;150;158.4;57;56.9;11;9.9;28.7;-1.0;
22/07/2019 21:31:50;117;0;131.00;16;25.09;7.49;531.1;7.00;68533;4852.768;-13031.701;145;150;158.4;57;56.9;11;10.4;28.7;-1.0;
22/07/2019 21:32:10;117;0;131.09;16;25.00;7.54;526.2;7.00;68544;4852.768;-13031.701;145;150;158.4;57;56.9;11;9.9;28.6;-1.0;
22/07/2019 21:32:30;117;0;132.96;16;24.86;7.58;521.3;7.00;68538;4852.768;-13031.701;145;150;160.4;57;56.9;10;9.9;28.7;-1.0;
22/07/2019 21:32:50;117;0;134.64;16;24.91;7.55;516.4;7.00;68547;4852.768;-13031.701;145;150;158.4;57;56.9;9;9.0;28.7;-1.0;
22/07/2019 21:33:10;117;0;134.78;16;24.92;6.74;511.4;7.00;68538;4852.768;-13031.701;145;150;158.4;57;56.9;9;8.6;28.6;-1.0;
22/07/2019 21:33:30;117;0;133.37;16;25.13;6.69;506.5;6.90;68548;4852.768;-13031.701;145;150;158.4;57;56.9;10;9.9;28.7;-1.0;
22/07/2019 21:33:50;117;0;131.64;16;25.11;7.93;501.5;7.00;68547;4852.768;-13031.701;145;150;158.4;57;56.9;11;10.8;28.7;-1.0;
22/07/2019 21:34:10;117;0;130.15;16;25.00;7.93;496.6;7.00;68550;4852.768;-13031.701;145;150;158.4;57;57.1;11;10.8;28.7;-1.0;
22/07/2019 21:34:30;117;0;129.25;16;24.75;7.95;491.8;6.90;68539;4852.768;-13031.701;145;150;158.4;57;57.1;11;10.8;28.7;-1.0;
22/07/2019 21:34:50;117;0;131.37;16;24.40;7.96;487.0;7.00;68547;4852.768;-13031.701;145;150;158.4;57;56.9;11;10.8;28.7;-1.0;
22/07/2019 21:35:10;117;0;133.92;16;24.24;7.95;482.3;7.00;68552;4852.768;-13031.701;145;150;158.4;57;57.1;8;7.7;28.7;-1.0;
22/07/2019 21:35:30;117;0;134.27;16;24.37;6.22;477.5;7.00;68557;4852.768;-13031.701;145;150;158.4;57;56.9;8;7.2;28.7;-1.0;
22/07/2019 21:35:50;117;0;129.95;16;24.94;6.20;472.8;7.00;68552;4852.768;-13031.701;145;150;160.4;57;56.9;8;7.2;28.7;-1.0;
22/07/2019 21:36:10;117;0;125.10;16;25.01;6.37;467.9;7.00;68552;4852.768;-13031.701;145;150;158.4;57;57.1;12;12.6;28.7;-1.0;
22/07/2019 21:36:30;117;0;127.44;16;24.42;9.02;463.2;7.00;68556;4852.768;-13031.701;145;150;158.4;57;57.1;10;9.9;28.7;-1.0;
22/07/2019 21:36:50;117;0;127.36;16;24.42;7.32;458.5;7.00;68562;4852.768;-13031.701;145;150;160.4;57;57.1;10;9.5;28.7;-1.0;
22/07/2019 21:37:10;117;0;127.35;16;24.40;7.28;453.9;7.00;68565;4852.768;-13031.701;145;150;160.4;57;56.9;10;9.5;28.7;-1.0;
22/07/2019 21:37:30;117;0;126.54;16;24.35;7.40;449.3;7.00;68571;4852.768;-13031.701;145;150;160.4;57;56.9;11;11.3;28.6;-1.0;
22/07/2019 21:37:50;117;0;127.73;16;24.19;8.54;444.7;7.00;68577;4852.768;-13031.701;145;150;158.4;57;56.9;10;9.9;28.7;-1.0;
22/07/2019 21:38:10;117;0;128.06;16;24.28;7.32;440.1;7.00;68581;4852.768;-13031.701;145;150;160.4;57;57.1;10;9.5;28.7;-1.0;
22/07/2019 21:38:30;117;0;127.56;16;24.12;7.32;435.6;7.00;68581;4852.768;-13031.701;145;150;158.4;57;56.9;10;9.5;28.7;-1.0;
22/07/2019 21:38:50;117;0;128.05;16;24.04;7.32;431.1;7.00;68584;4852.768;-13031.701;145;150;158.4;57;56.9;10;9.5;28.7;-1.0;
22/07/2019 21:39:10;117;0;128.50;16;23.98;7.37;426.5;7.00;68583;4852.768;-13031.701;145;150;158.4;57;56.9;10;9.5;28.7;-1.0;
22/07/2019 21:39:30;117;0;127.17;16;24.23;7.41;422.1;7.00;68579;4852.768;-13031.701;145;150;158.4;57;57.1;10;9.5;28.7;-1.0;
22/07/2019 21:39:50;117;0;126.43;16;24.13;7.37;417.6;7.00;68595;4852.768;-13031.701;145;150;160.4;57;56.9;10;9.5;28.7;-1.0;
22/07/2019 21:40:10;117;0;127.35;16;23.99;7.65;413.1;7.00;68597;4852.768;-13031.701;145;150;160.4;57;56.9;10;9.5;28.7;-1.0;
22/07/2019 21:40:30;117;0;128.33;16;23.89;7.42;408.7;7.00;68592;4852.768;-13031.701;145;150;158.4;57;56.9;10;9.5;28.7;-1.0;
22/07/2019 21:40:50;117;0;129.02;16;24.13;7.50;404.3;7.00;68597;4852.768;-13031.701;145;150;158.4;57;56.9;10;9.5;28.7;-1.0;
22/07/2019 21:41:10;117;0;130.23;16;23.83;7.24;399.9;7.10;68603;4852.768;-13031.701;145;150;158.4;57;56.9;10;9.5;28.6;-1.0;
22/07/2019 21:41:30;117;0;127.71;16;23.74;7.52;395.3;7.10;68596;4852.768;-13031.701;145;150;158.4;57;57.1;10;9.5;28.7;-1.0;
22/07/2019 21:41:50;117;0;128.50;16;23.62;7.41;390.9;7.10;68590;4852.768;-13031.701;145;150;160.4;57;56.9;10;9.5;28.7;-1.0;
22/07/2019 21:42:10;117;0;130.27;16;23.70;7.36;386.6;7.10;68598;4852.768;-13031.701;145;150;158.4;57;57.1;10;9.5;28.7;-1.0;
22/07/2019 21:42:30;117;0;131.25;16;23.66;7.39;382.1;7.10;68611;4852.768;-13031.701;145;150;160.4;57;56.9;10;9.5;28.7;-1.0;
22/07/2019 21:42:50;117;0;131.98;16;23.59;7.33;377.6;7.10;68602;4852.768;-13031.701;145;150;160.4;57;57.1;10;9.5;28.6;-1.0;
22/07/2019 21:43:10;117;0;132.99;16;23.53;7.36;373.4;7.10;68601;4852.768;-13031.701;145;150;160.4;57;57.1;9;9.0;28.7;-1.0;
22/07/2019 21:43:30;117;0;130.71;16;23.77;6.82;368.9;7.10;68617;4852.768;-13031.701;145;150;158.4;57;56.9;10;9.9;28.7;-1.0;
22/07/2019 21:43:50;117;0;131.18;16;23.48;7.99;364.5;7.10;68622;4852.768;-13031.701;145;150;158.4;57;56.9;9;9.0;28.6;-1.0;
22/07/2019 21:44:10;117;0;131.98;16;23.23;6.77;360.3;7.10;68609;4852.768;-13031.701;145;150;160.4;57;56.9;9;8.1;28.6;-1.0;
22/07/2019 21:44:30;117;0;132.37;16;23.29;6.82;355.9;7.10;68615;4852.768;-13031.701;145;150;160.4;57;56.9;9;8.1;28.7;-1.0;
22/07/2019 21:44:50;117;0;133.42;16;23.22;6.81;351.8;7.10;68613;4852.768;-13031.701;145;150;158.4;57;57.1;8;8.1;28.7;-1.0;
22/07/2019 21:45:10;117;0;133.76;16;23.30;6.83;347.6;7.20;68630;4852.768;-13031.701;145;150;160.4;57;56.9;8;8.1;28.7;-1.0;
22/07/2019 21:45:30;117;0;133.91;16;23.37;6.75;343.3;7.20;68619;4852.768;-13031.701;145;150;160.4;57;56.9;8;8.6;28.7;-1.0;
22/07/2019 21:45:50;117;0;132.46;16;23.43;6.77;338.9;7.20;68621;4852.768;-13031.701;145;150;158.4;57;57.1;9;9.5;28.7;-1.0;
22/07/2019 21:46:10;117;0;132.56;16;23.31;7.66;334.6;7.20;68632;4852.768;-13031.701;145;150;158.4;57;57.1;8;8.1;28.7;-1.0;
22/07/2019 21:46:30;117;0;133.21;16;23.27;6.49;330.3;7.20;68627;4852.768;-13031.701;145;150;160.4;57;56.9;8;7.2;28.6;-1.0;
22/07/2019 21:46:50;117;0;133.33;16;23.20;6.56;326.1;7.20;68633;4852.768;-13031.701;145;150;158.4;57;57.1;8;7.7;28.7;-1.0;
22/07/2019 21:47:10;117;0;133.80;16;23.08;6.63;321.9;7.20;68641;4852.768;-13031.701;145;150;160.4;57;56.9;8;7.7;28.7;-1.0;
22/07/2019 21:47:30;117;0;133.90;16;23.32;6.49;317.5;7.20;68636;4852.768;-13031.701;145;150;160.4;57;56.9;7;7.2;28.6;-1.0;
22/07/2019 21:47:50;117;0;135.67;16;22.94;6.34;313.3;7.20;68640;4852.768;-13031.701;145;150;160.4;57;56.9;6;5.9;28.7;-1.0;
22/07/2019 21:48:10;117;0;136.60;16;23.03;5.42;309.1;7.30;68643;4852.768;-13031.701;145;150;160.4;57;57.1;6;5.4;28.7;-1.0;
22/07/2019 21:48:30;117;0;134.97;16;23.40;5.41;304.8;7.30;68651;4852.768;-13031.701;145;150;160.4;57;56.9;7;7.7;28.7;-1.0;
22/07/2019 21:48:50;117;0;135.36;16;22.83;6.82;300.6;7.30;68648;4852.768;-13031.701;145;150;160.4;57;56.9;6;5.9;28.7;-1.0;
22/07/2019 21:49:10;117;0;133.27;16;23.13;5.54;296.5;7.30;68650;4852.768;-13031.701;145;150;160.4;57;56.9;7;7.7;28.6;-1.0;
22/07/2019 21:49:30;117;0;133.42;16;22.95;6.87;292.2;7.30;68647;4852.768;-13031.701;145;150;160.4;57;57.1;6;5.9;28.7;-1.0;
22/07/2019 21:49:50;117;0;131.80;16;23.07;5.50;288.0;7.30;68644;4852.768;-13031.701;145;150;160.4;57;56.9;7;7.2;28.7;-1.0;
22/07/2019 21:50:10;117;0;130.69;16;23.02;6.74;283.7;7.30;68656;4852.768;-13031.701;145;150;158.4;57;57.1;7;8.1;28.7;-1.0;
22/07/2019 21:50:31;117;0;130.44;16;22.94;6.81;279.5;7.30;68659;4852.768;-13031.701;145;150;160.4;57;56.9;7;8.1;28.7;-1.0;
22/07/2019 21:50:51;117;0;129.66;16;22.94;6.79;275.2;7.30;68662;4852.768;-13031.701;145;150;160.4;57;56.9;7;8.1;28.7;-1.0;
22/07/2019 21:51:11;117;0;130.23;16;22.87;6.89;270.9;7.40;68659;4852.768;-13031.701;145;150;158.4;57;57.1;7;8.1;28.7;-1.0;
22/07/2019 21:51:31;117;0;130.81;16;22.89;6.84;266.8;7.40;68659;4852.768;-13031.701;145;150;160.4;57;57.1;7;8.1;28.7;-1.0;
22/07/2019 21:51:51;117;0;132.61;16;22.60;6.86;262.6;7.40;68661;4852.768;-13031.701;145;150;158.4;57;56.9;5;4.5;28.7;-1.0;
22/07/2019 21:52:11;117;0;132.68;16;22.56;4.83;258.5;7.40;68660;4852.768;-13031.701;145;150;160.4;57;57.1;5;4.1;28.7;-1.0;
22/07/2019 21:52:31;117;0;132.80;16;22.82;4.81;254.3;7.40;68659;4852.768;-13031.701;145;150;160.4;57;56.9;6;6.3;28.7;-1.0;
22/07/2019 21:52:51;117;0;133.47;16;22.59;6.22;250.0;7.40;68669;4852.768;-13031.701;145;150;160.4;57;56.9;5;4.5;28.7;-1.0;
22/07/2019 21:53:11;117;0;133.61;16;22.59;4.91;245.7;7.40;68669;4852.768;-13031.701;145;150;158.4;57;56.9;5;4.5;28.7;-1.0;
22/07/2019 21:53:31;117;0;133.74;16;22.45;4.88;241.6;7.40;68684;4852.768;-13031.701;145;150;158.4;57;57.1;5;4.1;28.7;-1.0;
22/07/2019 21:53:51;117;0;130.60;16;22.63;4.89;237.5;7.40;68683;4852.768;-13031.701;145;150;162.4;57;56.9;7;7.2;28.7;-1.0;
22/07/2019 21:54:11;117;0;128.69;16;22.55;6.85;233.3;7.40;68680;4852.768;-13031.701;145;150;160.4;57;56.9;7;8.1;28.7;-1.0;
22/07/2019 21:54:31;117;0;129.19;16;22.26;6.68;229.1;7.40;68680;4852.768;-13031.701;145;150;158.4;57;57.1;7;8.1;28.7;-1.0;
22/07/2019 21:54:51;117;0;130.66;16;22.12;6.82;225.1;7.50;68678;4852.768;-13031.701;145;150;160.4;57;56.9;7;8.1;28.7;-1.0;
22/07/2019 21:55:11;117;0;131.50;16;22.24;6.86;221.0;7.50;68686;4852.768;-13031.701;145;150;160.4;57;56.9;7;8.1;28.7;-1.0;
22/07/2019 21:55:31;117;0;131.13;16;22.09;6.90;216.9;7.50;68689;4852.768;-13031.701;145;150;160.4;57;56.9;7;8.1;28.7;-1.0;
22/07/2019 21:55:51;117;0;130.05;16;22.16;6.88;213.0;7.50;68688;4852.768;-13031.701;145;150;160.4;57;56.9;7;8.1;28.7;-1.0;
22/07/2019 21:56:11;117;0;132.73;16;22.17;6.44;209.1;7.50;68693;4852.768;-13031.701;145;150;160.4;57;57.1;4;4.1;28.7;-1.0;
22/07/2019 21:56:31;117;0;131.67;16;22.06;4.53;205.0;7.50;68695;4852.768;-13031.701;145;150;158.4;57;56.9;5;5.0;28.7;-1.0;
22/07/2019 21:56:51;117;0;129.70;16;22.76;5.93;201.0;7.60;68700;4852.768;-13031.701;145;150;160.4;57;57.1;5;5.9;28.7;-1.0;
22/07/2019 21:57:11;117;0;130.54;16;22.16;5.79;196.8;7.60;68697;4852.768;-13031.701;145;150;160.4;57;57.1;5;5.9;28.7;-1.0;
22/07/2019 21:57:31;117;0;131.14;16;21.90;5.56;192.8;7.60;68709;4852.768;-13031.701;145;150;160.4;57;56.9;5;5.9;28.7;-1.0;
22/07/2019 21:57:51;117;0;130.97;16;22.17;5.69;188.7;7.60;68695;4852.768;-13031.701;145;150;160.4;57;57.1;5;5.9;28.7;-1.0;
22/07/2019 21:58:11;117;0;130.96;16;22.10;5.82;184.6;7.60;68705;4852.768;-13031.701;145;150;160.4;57;57.1;5;5.9;28.7;-1.0;
22/07/2019 21:58:31;117;0;131.93;16;21.98;5.85;180.6;7.60;68701;4852.768;-13031.701;145;150;160.4;57;57.1;5;5.9;28.7;-1.0;
22/07/2019 21:58:51;117;0;133.19;16;21.86;5.80;176.6;7.60;68698;4852.768;-13031.701;145;150;160.4;57;57.1;3;2.7;28.6;-1.0;
22/07/2019 21:59:11;117;0;131.98;16;21.90;4.17;172.8;7.60;68697;4852.768;-13031.701;145;150;160.4;57;57.1;5;5.0;28.7;-1.0;
22/07/2019 21:59:31;117;0;134.62;16;21.38;5.66;168.8;7.60;68716;4852.768;-13031.701;145;150;160.4;57;57.1;3;3.2;28.7;-1.0;
22/07/2019 21:59:51;117;0;131.98;16;21.56;4.30;164.9;7.70;68718;4852.768;-13031.701;145;150;160.4;57;57.1;5;5.0;28.7;-1.0;
22/07/2019 22:00:11;117;0;130.70;16;21.50;5.66;161.0;7.70;68717;4852.768;-13031.701;145;150;160.4;57;57.1;5;5.9;28.7;-1.0;
22/07/2019 22:00:31;117;0;127.70;16;21.61;5.68;157.2;7.70;68734;4852.768;-13031.701;145;150;160.4;57;57.1;5;5.4;28.7;-1.0;
22/07/2019 22:00:51;117;0;127.63;16;21.31;5.74;153.2;7.70;68729;4852.768;-13031.701;145;150;158.4;57;56.9;5;5.4;28.7;-1.0;
22/07/2019 22:01:11;117;0;126.68;16;21.36;5.76;149.4;7.70;68717;4852.768;-13031.701;145;150;160.4;57;56.9;5;5.4;28.7;-1.0;
22/07/2019 22:01:31;117;0;126.42;16;21.30;5.62;145.5;7.70;68723;4852.768;-13031.701;145;150;160.4;57;56.9;5;5.4;28.7;-1.0;
22/07/2019 22:01:51;117;0;130.81;16;20.81;5.61;141.7;7.70;68729;4852.768;-13031.701;145;150;160.4;57;56.9;5;5.4;28.7;-1.0;
22/07/2019 22:02:11;117;0;129.99;16;20.96;5.70;138.0;7.80;68741;4852.768;-13031.701;145;150;160.4;57;57.1;5;5.4;28.7;-1.0;
22/07/2019 22:02:31;117;0;131.99;16;20.73;5.72;134.3;7.80;68744;4852.768;-13031.701;145;150;158.4;57;57.1;5;5.4;28.7;-1.0;
22/07/2019 22:02:51;117;0;130.19;16;20.70;5.92;130.7;7.80;68753;4852.768;-13031.701;145;150;160.4;57;56.9;5;5.4;28.7;-1.0;
22/07/2019 22:03:11;117;0;131.42;16;20.55;5.75;127.2;7.80;68754;4852.768;-13031.701;145;150;160.4;57;57.1;5;5.4;28.7;-1.0;
22/07/2019 22:03:31;117;0;132.33;16;20.50;5.68;123.7;7.80;68753;4852.768;-13031.701;145;150;160.4;57;57.1;3;2.7;28.7;-1.0;
22/07/2019 22:03:51;117;0;132.20;16;20.33;4.10;120.3;7.80;68755;4852.768;-13031.701;145;150;160.4;57;57.1;3;2.3;28.7;-1.0;
22/07/2019 22:04:11;117;0;131.83;16;20.39;4.09;117.0;7.90;68764;4852.768;-13031.701;145;150;160.4;57;56.9;4;4.1;28.6;-1.0;
22/07/2019 22:04:31;117;0;127.09;16;20.13;5.30;113.6;7.90;68764;4852.768;-13031.701;145;150;160.4;57;57.1;4;4.5;28.7;-1.0;
22/07/2019 22:04:51;117;0;126.22;16;19.55;5.29;110.4;7.90;68752;4852.768;-13031.701;145;150;160.4;57;56.9;4;4.5;28.7;-1.0;
22/07/2019 22:05:11;117;0;129.03;16;19.20;5.42;107.2;7.90;68767;4852.768;-13031.701;145;150;160.4;57;56.9;4;4.5;28.7;-1.0;
22/07/2019 22:05:31;117;0;126.62;16;19.37;5.23;104.0;7.90;68765;4852.768;-13031.701;145;150;160.4;57;57.1;4;5.0;28.6;-1.0;
22/07/2019 22:05:51;117;0;125.59;16;18.52;5.34;100.6;7.90;68756;4852.768;-13031.701;145;150;160.4;57;57.1;6;5.9;28.7;-1.0;
22/07/2019 22:06:11;117;0;129.67;16;17.30;5.94;97.5;7.90;68758;4852.768;-13031.701;145;150;160.4;57;57.1;6;5.9;28.7;-1.0;
22/07/2019 22:06:31;117;0;128.60;16;17.04;6.02;94.6;7.90;68765;4852.768;-13031.701;145;150;160.4;57;57.1;6;5.9;28.7;-1.0;
22/07/2019 22:06:51;117;0;128.23;16;16.84;6.22;91.6;8.00;68756;4852.768;-13031.701;145;150;160.4;57;57.1;6;5.9;28.7;-1.0;
22/07/2019 22:07:11;117;0;132.51;16;16.06;6.19;88.7;8.00;68768;4852.768;-13031.701;145;150;158.4;57;56.9;3;2.7;28.7;-1.0;
22/07/2019 22:07:31;117;0;132.37;16;15.84;4.16;85.9;8.00;68759;4852.768;-13031.701;145;150;160.4;57;57.1;3;2.7;28.7;-1.0;
22/07/2019 22:07:51;117;0;133.89;16;15.32;4.13;83.0;8.00;68765;4852.768;-13031.701;145;150;158.4;57;57.1;3;2.3;28.7;-1.0;
22/07/2019 22:08:11;117;0;132.98;16;14.87;4.23;80.4;8.00;68762;4852.768;-13031.701;145;150;160.4;57;57.1;3;2.3;28.7;-1.0;
22/07/2019 22:08:31;117;0;134.26;16;14.40;4.13;77.8;8.00;68781;4852.768;-13031.701;145;150;160.4;57;56.9;2;1.8;28.7;-1.0;
22/07/2019 22:08:51;117;0;132.02;16;14.07;3.64;75.3;8.00;68771;4852.768;-13031.701;145;150;158.4;57;56.9;3;3.6;28.7;-1.0;
22/07/2019 22:09:11;117;0;131.17;16;13.95;5.05;73.0;8.10;68792;4852.768;-13031.701;145;150;160.4;57;57.1;4;4.1;28.7;-1.0;
22/07/2019 22:09:31;117;0;130.35;16;13.94;5.05;70.6;8.10;68794;4852.768;-13031.701;145;150;160.4;57;57.1;4;4.1;28.7;-1.0;
22/07/2019 22:09:51;117;0;129.93;16;13.79;5.12;68.3;8.10;68800;4852.768;-13031.701;145;150;160.4;57;57.1;4;4.1;28.7;-1.0;
22/07/2019 22:10:11;117;0;132.85;16;13.24;5.19;66.1;8.10;68804;4852.768;-13031.701;145;150;160.4;57;56.9;2;1.8;28.7;-1.0;
22/07/2019 22:10:31;117;0;130.89;16;13.22;3.67;64.0;8.10;68828;4852.768;-13031.701;145;150;160.4;57;57.1;4;4.1;28.7;-1.0;
22/07/2019 22:10:51;117;0;131.91;16;13.19;5.48;61.9;8.10;68843;4852.768;-13031.701;145;150;160.4;57;57.1;3;3.2;28.7;-1.0;
22/07/2019 22:11:11;117;0;131.68;16;13.07;4.28;59.9;8.20;68865;4852.768;-13031.701;145;150;160.4;57;57.1;3;2.7;28.7;-1.0;
22/07/2019 22:11:31;117;0;131.82;16;13.05;4.32;58.0;8.20;68874;4852.768;-13031.701;145;150;160.4;57;56.9;3;2.7;28.7;-1.0;
22/07/2019 22:11:51;117;0;130.57;16;12.97;4.31;56.1;8.20;68884;4852.768;-13031.701;145;150;160.4;57;57.1;3;2.7;28.7;-1.0;
22/07/2019 22:12:11;117;0;129.48;16;13.01;4.38;54.4;8.20;68895;4852.768;-13031.701;145;150;160.4;57;57.1;3;2.7;28.7;-1.0;
22/07/2019 22:12:31;117;0;129.10;16;12.70;4.28;52.5;8.30;68925;4852.768;-13031.701;145;150;160.4;57;57.1;3;2.3;28.7;-1.0;
22/07/2019 22:12:51;117;0;130.99;16;12.46;4.25;50.6;8.30;68935;4852.768;-13031.701;145;150;160.4;57;57.1;3;2.7;28.7;-1.0;
