Timestamp;NavState;SecurityLevel;Heading;Declination;Pitch;Roll;Depth;Temperature;Pa;Lat;Lon;DesiredH;BallastCmd;BallastPos;LinCmd;LinPos;AngCmd;AngPos;Voltage;Altitude;
22/07/2019 14:12:53;117;0;262.34;16;8.40;3.54;9.4;10.30;69876;4854.459;-13038.444;270;150;160.4;57;57.1;-5;-5.0;28.7;-1.0;
22/07/2019 14:13:03;115;0;261.10;16;7.43;0.82;8.7;10.30;69871;4854.459;-13038.444;270;300;174.3;100;99.9;0;0.9;28.8;-1.0;
22/07/2019 14:13:13;115;0;255.61;16;-33.28;4.41;8.5;10.40;69813;4854.459;-13038.444;270;300;305.0;100;100.1;0;0.9;28.4;-1.0;
22/07/2019 14:13:23;115;0;287.04;16;-69.51;10.07;8.8;10.50;69667;4854.459;-13038.444;270;300;305.0;100;100.1;0;0.9;28.7;-1.0;
22/07/2019 14:13:33;115;0;285.95;16;-50.10;0.69;7.1;10.50;69672;4854.459;-13038.444;270;300;306.9;100;100.0;0;0.9;28.7;-1.0;
22/07/2019 14:13:43;116;0;296.37;16;-50.71;0.63;4.1;10.60;69693;4854.459;-13038.444;270;300;305.0;100;100.1;0;0.9;28.7;-1.0;
22/07/2019 14:14:03;116;0;211.60;16;-49.93;6.94;3.1;10.70;69696;4854.459;-13038.444;270;300;310.9;100;99.9;0;0.9;28.7;-1.0;
22/07/2019 14:14:42;116;0;164.06;16;-24.36;0.84;2.6;10.90;69733;4854.459;-13038.444;270;300;310.9;100;99.9;0;0.9;28.7;-1.0;
22/07/2019 14:15:02;116;0;169.92;16;-34.05;1.63;2.9;11.00;69752;4854.459;-13038.444;270;300;310.9;100;100.0;0;0.9;28.7;-1.0;
22/07/2019 14:15:22;116;0;170.83;16;-30.52;4.54;2.8;11.10;69756;4854.459;-13038.444;270;300;310.9;100;100.0;0;0.9;28.7;-1.0;
22/07/2019 14:15:41;116;0;168.13;16;-17.92;-0.96;2.6;11.20;69764;4854.392;-13039.097;270;300;312.9;100;100.0;0;0.9;28.7;-1.0;
22/07/2019 14:16:01;116;0;175.93;16;-21.40;3.09;2.8;11.30;69778;4854.460;-13039.077;270;300;312.9;100;99.9;0;0.9;28.7;-1.0;
22/07/2019 14:16:22;116;0;193.96;16;-31.96;2.22;2.9;11.40;69786;4854.459;-13039.068;270;300;310.9;100;100.0;0;0.9;28.7;-1.0;
22/07/2019 14:16:42;116;0;173.22;16;-16.81;3.42;2.6;11.50;69801;4854.454;-13039.067;270;300;310.9;100;100.0;0;0.9;28.7;-1.0;
22/07/2019 14:17:02;116;0;142.16;16;-8.59;2.55;2.6;11.60;69815;4854.452;-13039.064;270;300;310.9;100;100.0;0;0.9;28.7;-1.0;
22/07/2019 14:17:22;116;0;173.40;16;-6.99;5.47;2.6;11.70;69822;4854.452;-13039.054;270;300;310.9;100;99.9;0;0.9;28.7;-1.0;
22/07/2019 14:17:42;116;0;191.47;16;-13.24;5.70;2.6;11.80;69825;4854.446;-13039.040;270;300;312.9;100;99.9;0;0.9;28.8;-1.0;
22/07/2019 14:18:20;116;0;172.79;16;-6.17;4.20;2.5;12.00;69852;4854.447;-13039.038;270;300;310.9;100;99.9;0;0.9;28.7;-1.0;
22/07/2019 14:18:40;116;0;158.72;16;-11.97;1.25;2.6;12.10;69856;4854.443;-13039.031;270;300;312.9;100;99.9;0;0.9;28.7;-1.0;
22/07/2019 14:19:00;116;0;158.05;16;-26.54;4.44;2.7;12.20;69862;4854.444;-13039.030;270;300;310.9;100;99.9;0;0.9;28.7;-1.0;
22/07/2019 14:19:20;116;0;168.10;16;-38.19;0.81;3.1;12.30;69884;4854.444;-13039.026;270;300;308.9;100;100.0;0;0.9;28.8;-1.0;
22/07/2019 14:19:40;116;0;163.42;16;-19.15;-5.38;2.6;12.40;69893;4854.445;-13039.021;239;300;308.9;100;100.0;0;0.9;28.7;-1.0;
22/07/2019 14:20:00;116;0;171.85;16;-28.43;-0.24;2.8;12.50;69901;4854.448;-13038.995;239;300;310.9;100;100.0;0;0.9;28.7;-1.0;
22/07/2019 14:21:34;116;0;193.06;16;-6.54;6.57;2.5;12.90;69928;4854.448;-13038.994;239;300;310.9;100;99.9;0;0.9;28.7;-1.0;
22/07/2019 14:21:54;116;0;161.38;16;-14.83;5.47;2.6;13.00;69931;4854.449;-13038.992;239;300;310.9;100;100.0;0;0.9;28.7;-1.0;
22/07/2019 14:22:14;116;0;166.94;16;-32.40;7.63;2.9;13.10;69948;4854.456;-13038.915;239;300;308.9;100;100.1;0;0.9;28.7;-1.0;
22/07/2019 14:27:50;116;0;190.77;16;-18.88;6.35;2.6;14.30;70040;4854.456;-13038.915;239;300;310.9;100;100.0;0;0.9;28.7;-1.0;
22/07/2019 14:28:10;116;0;172.82;16;-5.05;4.57;2.5;14.40;70029;4854.457;-13038.910;239;300;310.9;100;99.9;0;0.9;28.7;-1.0;
22/07/2019 14:28:30;116;0;193.17;16;-6.88;2.66;2.5;14.40;70036;4854.457;-13038.907;239;300;310.9;100;100.0;0;0.9;28.7;-1.0;
22/07/2019 14:28:50;116;0;163.17;16;-12.37;2.77;2.6;14.50;70040;4854.457;-13038.846;239;300;308.9;100;100.0;0;0.9;28.7;-1.0;
22/07/2019 14:33:04;116;0;158.03;16;-37.49;7.29;3.0;15.10;70115;4854.457;-13038.845;239;300;308.9;100;100.0;0;0.9;28.7;-1.0;
22/07/2019 14:33:24;116;0;176.86;16;-35.94;6.69;2.7;15.20;70101;4854.458;-13038.840;239;300;308.9;100;100.0;0;0.9;28.7;-1.0;
22/07/2019 14:33:44;116;0;172.63;16;-5.96;1.34;2.5;15.20;70109;4854.459;-13038.834;239;300;310.9;100;99.9;0;0.9;28.7;-1.0;
22/07/2019 14:34:04;116;0;170.97;16;-8.03;4.65;2.5;15.30;70096;4854.457;-13038.825;239;300;310.9;100;99.9;0;0.9;28.7;-1.0;
22/07/2019 14:34:30;116;0;153.91;16;-29.00;5.61;2.6;15.30;70101;4854.458;-13038.823;239;300;308.9;100;99.9;0;0.9;28.7;-1.0;
22/07/2019 14:34:50;116;0;177.63;16;-36.84;9.23;2.8;15.40;70123;4854.458;-13038.818;239;300;308.9;100;100.0;0;0.9;28.7;-1.0;
22/07/2019 14:35:10;116;0;159.97;16;-27.60;2.11;2.7;15.40;70129;4854.458;-13038.813;239;300;310.9;100;100.0;0;0.9;28.7;-1.0;
22/07/2019 14:35:30;116;0;141.80;16;-10.90;2.83;2.5;15.40;70121;4854.459;-13038.810;239;300;308.9;100;100.0;0;0.9;28.7;-1.0;
22/07/2019 14:35:50;116;0;153.04;16;-29.05;0.61;2.8;15.50;70124;4854.458;-13038.804;239;300;308.9;100;99.9;0;0.9;28.7;-1.0;
22/07/2019 14:36:10;116;0;182.19;16;-42.29;2.23;2.9;15.50;70139;4854.460;-13038.797;239;300;306.9;100;100.0;0;0.9;28.7;-1.0;
22/07/2019 14:36:30;116;0;167.53;16;-4.42;5.99;2.5;15.50;70137;4854.461;-13038.792;239;300;310.9;100;100.0;0;0.9;28.7;-1.0;
22/07/2019 14:36:50;116;0;177.21;16;-33.26;0.64;2.8;15.60;70135;4854.461;-13038.787;239;300;308.9;100;100.0;0;0.9;28.7;-1.0;
22/07/2019 14:37:10;116;0;159.53;16;-35.09;7.07;2.9;15.60;70150;4854.461;-13038.782;239;300;308.9;100;100.0;0;0.9;28.8;-1.0;
22/07/2019 14:37:30;116;0;167.40;16;-31.21;1.91;2.6;15.60;70154;4854.464;-13038.768;239;300;308.9;100;100.0;0;0.9;28.7;-1.0;
22/07/2019 14:38:08;116;0;157.59;16;-40.27;10.44;3.0;15.70;70157;4854.464;-13038.767;239;300;308.9;100;100.0;0;0.9;28.7;-1.0;
22/07/2019 14:38:28;116;0;155.16;16;-32.18;4.32;2.8;15.70;70155;4854.466;-13038.758;239;300;306.9;100;100.0;0;0.9;28.7;-1.0;
22/07/2019 14:38:48;116;0;196.96;16;-19.23;2.91;2.6;15.70;70167;4854.466;-13038.756;239;300;308.9;100;100.0;0;0.9;28.7;-1.0;
22/07/2019 14:39:08;116;0;169.11;16;-9.18;1.62;2.5;15.80;70154;4854.467;-13038.751;260;300;308.9;100;99.9;0;0.9;28.7;-1.0;
22/07/2019 14:39:28;116;0;162.23;16;-25.03;4.15;2.7;15.80;70165;4854.466;-13038.748;260;300;308.9;100;100.0;0;0.9;28.7;-1.0;
22/07/2019 14:39:48;116;0;159.04;16;-36.57;3.28;3.1;15.80;70160;4854.467;-13038.743;260;300;306.9;100;100.0;0;0.9;28.7;-1.0;
22/07/2019 14:40:08;116;0;176.53;16;-6.85;3.88;2.5;15.80;70172;4854.469;-13038.724;260;300;310.9;100;99.9;0;0.9;28.7;-1.0;
22/07/2019 14:41:09;116;0;183.65;16;-29.47;1.12;2.6;15.90;70179;4854.469;-13038.723;260;300;308.9;100;99.9;0;0.9;28.8;-1.0;
22/07/2019 14:41:29;116;0;156.02;16;-44.00;8.04;2.9;15.90;70189;4854.470;-13038.716;260;300;306.9;100;100.0;0;0.9;28.7;-1.0;
22/07/2019 14:41:49;116;0;159.93;16;-19.68;5.44;2.6;15.90;70177;4854.470;-13038.713;260;300;308.9;100;100.0;0;0.9;28.7;-1.0;
22/07/2019 14:42:09;116;0;168.52;16;-31.53;1.44;2.6;16.00;70185;4854.470;-13038.713;260;300;306.9;100;99.9;0;0.9;28.6;-1.0;
22/07/2019 14:42:52;116;0;164.07;16;-9.21;1.53;2.5;16.00;70196;4854.472;-13038.699;260;300;308.9;100;99.9;0;0.9;28.7;-1.0;
22/07/2019 14:43:12;116;0;158.88;16;-32.45;2.81;2.8;16.00;70193;4854.471;-13038.694;140;300;308.9;100;100.0;0;0.9;28.8;-1.0;
22/07/2019 14:43:32;116;0;180.82;16;-32.71;4.96;2.8;16.10;70200;4854.472;-13038.688;140;300;306.9;100;100.0;0;0.9;28.7;-1.0;
22/07/2019 14:43:52;116;0;162.28;16;-11.44;2.41;2.6;16.10;70206;4854.472;-13038.678;140;300;308.9;100;99.9;0;0.9;28.7;-1.0;
22/07/2019 14:44:13;116;0;165.33;16;-23.08;4.87;2.7;16.10;70199;4854.472;-13038.677;140;300;308.9;100;100.0;0;0.9;28.7;-1.0;
22/07/2019 14:44:33;116;0;166.92;16;-47.86;4.08;3.0;16.20;70202;4854.473;-13038.672;140;300;306.9;100;100.0;0;0.9;28.7;-1.0;
22/07/2019 14:44:53;116;0;179.69;16;-16.78;8.93;2.5;16.20;70212;4854.474;-13038.665;140;300;308.9;100;100.0;0;0.9;28.7;-1.0;
22/07/2019 14:45:13;116;0;171.44;16;-10.91;4.31;2.6;16.20;70214;4854.474;-13038.661;140;300;308.9;100;99.9;0;0.9;28.7;-1.0;
22/07/2019 14:45:33;116;0;148.52;16;-7.68;-3.54;2.6;16.20;70205;4854.473;-13038.656;140;300;308.9;100;100.0;0;0.9;28.7;-1.0;
22/07/2019 14:45:53;116;0;145.14;16;-30.19;9.63;2.8;16.20;70218;4854.473;-13038.652;140;300;308.9;100;100.0;0;0.9;28.7;-1.0;
22/07/2019 14:46:13;116;0;136.85;16;-32.55;5.57;2.9;16.30;70222;4854.473;-13038.646;140;300;306.9;100;100.0;0;0.9;28.7;-1.0;
22/07/2019 14:46:33;116;0;176.61;16;-6.35;0.49;2.5;16.30;70223;4854.474;-13038.641;140;300;308.9;100;99.9;0;0.9;28.7;-1.0;
22/07/2019 14:46:53;116;0;171.85;16;-20.64;2.31;2.5;16.30;70227;4854.474;-13038.637;140;300;308.9;100;100.0;0;0.9;28.8;-1.0;
22/07/2019 14:47:13;116;0;166.85;16;-38.73;3.81;2.9;16.30;70232;4854.474;-13038.632;140;300;306.9;100;100.0;0;0.9;28.7;-1.0;
22/07/2019 14:47:33;110;0;152.57;16;-28.63;1.55;2.7;16.30;70228;4854.474;-13038.632;140;-500;209.9;100;100.0;0;0.9;28.7;-1.0;
22/07/2019 14:47:43;110;0;155.74;16;-25.93;1.86;2.7;16.30;70467;4854.474;-13038.632;140;-500;55.4;100;100.0;0;0.9;28.6;-1.0;
22/07/2019 14:47:53;110;0;157.69;16;-29.94;3.92;2.9;16.40;70677;4854.474;-13038.632;140;-500;-124.8;100;100.0;0;0.9;28.6;-1.0;
22/07/2019 14:48:03;110;0;145.17;16;-56.57;5.06;3.7;16.40;70961;4854.474;-13038.632;140;-500;-328.7;92;91.8;0;0.9;28.7;-1.0;
22/07/2019 14:48:13;110;0;141.22;16;-57.86;5.91;5.3;16.40;71295;4854.474;-13038.632;140;-500;-499.0;79;79.0;0;0.9;28.6;-1.0;
22/07/2019 14:48:23;110;0;141.86;16;-48.61;4.19;7.9;16.40;71569;4854.474;-13038.632;140;-500;-501.0;70;70.0;0;0.9;28.7;-1.0;
22/07/2019 14:48:33;100;0;137.98;16;-39.33;4.24;11.5;16.40;71545;4854.474;-13038.632;140;-500;-501.0;70;69.9;0;0.9;28.7;-1.0;
22/07/2019 14:48:53;100;0;132.23;16;-29.04;3.10;18.0;16.40;71563;4854.474;-13038.632;140;-500;-501.0;70;69.9;2;1.8;28.7;0.0;
22/07/2019 14:49:13;100;0;123.19;16;-26.74;4.41;24.0;16.40;71549;4854.474;-13038.632;140;-500;-499.0;70;69.7;2;2.3;28.7;0.0;
22/07/2019 14:49:33;100;0;121.91;16;-25.94;4.48;29.2;16.40;71520;4854.474;-13038.632;140;-500;-499.0;70;69.9;2;2.3;28.7;0.0;
22/07/2019 14:49:53;100;0;111.77;16;-24.36;4.71;33.8;16.40;71428;4854.474;-13038.632;140;-500;-497.0;70;69.7;-7;-7.2;28.7;0.0;
22/07/2019 14:50:13;100;0;94.95;16;-26.08;0.34;38.1;16.30;71342;4854.474;-13038.632;140;-500;-495.0;70;69.7;-15;-14.9;28.8;0.0;
22/07/2019 14:50:33;100;0;102.12;16;-25.03;-3.54;42.7;16.20;71251;4854.474;-13038.632;140;-500;-497.0;70;69.7;-7;-6.8;28.7;0.0;
22/07/2019 14:50:53;100;0;97.40;16;-24.21;0.68;47.3;16.20;71171;4854.474;-13038.632;140;-500;-497.0;70;69.7;-9;-9.5;28.7;0.0;
22/07/2019 14:51:13;100;0;93.40;16;-24.19;-0.94;51.6;16.00;71098;4854.474;-13038.632;140;-500;-497.0;70;69.7;-11;-10.8;28.7;0.0;
22/07/2019 14:51:33;100;0;87.58;16;-24.55;-1.82;55.6;16.00;71043;4854.474;-13038.632;140;-500;-499.0;70;69.7;-14;-14.0;28.7;0.0;
22/07/2019 14:51:53;100;0;84.25;16;-24.78;-3.11;59.7;15.90;70993;4854.474;-13038.632;140;-500;-497.0;70;69.7;-14;-14.4;28.7;0.0;
22/07/2019 14:52:13;100;0;79.35;16;-24.34;-3.16;64.0;15.80;70939;4854.474;-13038.632;140;-500;-495.0;70;69.7;-16;-15.8;28.7;0.0;
22/07/2019 14:52:33;100;0;74.75;16;-24.58;-3.85;68.3;15.70;70897;4854.474;-13038.632;140;-500;-497.0;70;69.9;-19;-19.0;28.8;0.0;
22/07/2019 14:52:53;100;0;67.94;16;-24.97;-5.34;72.6;15.60;70848;4854.474;-13038.632;140;-500;-497.0;70;69.7;-24;-23.9;28.7;0.0;
22/07/2019 14:53:13;100;0;68.09;16;-24.12;-7.68;77.2;15.50;70789;4854.474;-13038.632;140;-500;-497.0;70;69.7;-23;-22.6;28.7;0.0;
22/07/2019 14:53:33;100;0;64.94;16;-24.16;-6.55;81.5;15.40;70740;4854.474;-13038.632;140;-500;-497.0;70;69.7;-27;-27.1;28.7;0.0;
22/07/2019 14:53:53;100;0;70.97;16;-23.16;-9.03;85.9;15.30;70698;4854.474;-13038.632;140;-500;-497.0;70;69.7;-24;-23.9;28.7;0.0;
22/07/2019 14:54:13;100;0;75.04;16;-23.57;-7.23;89.7;15.10;70638;4854.474;-13038.632;140;-500;-497.0;70;69.7;-22;-22.1;28.7;0.0;
22/07/2019 14:54:33;100;0;77.38;16;-23.30;-6.34;93.6;15.00;70605;4854.474;-13038.632;140;-500;-497.0;70;69.7;-22;-21.7;28.7;0.0;
22/07/2019 14:54:53;100;0;77.87;16;-23.40;-6.37;97.5;14.90;70572;4854.474;-13038.632;140;-500;-499.0;70;69.7;-23;-23.5;28.7;0.0;
22/07/2019 14:55:13;100;0;81.98;16;-22.28;-7.46;101.3;14.80;70540;4854.474;-13038.632;140;-500;-497.0;70;69.7;-21;-21.2;28.7;0.0;
22/07/2019 14:55:33;100;0;83.42;16;-22.58;-6.01;104.9;14.70;70532;4854.474;-13038.632;140;-500;-497.0;70;69.7;-21;-20.8;28.8;0.0;
22/07/2019 14:55:53;100;0;79.14;16;-22.60;-6.04;108.6;14.60;70508;4854.474;-13038.632;140;-500;-497.0;70;69.7;-24;-24.4;28.7;0.0;
22/07/2019 14:56:13;100;0;76.13;16;-22.80;-8.00;112.0;14.50;70490;4854.474;-13038.632;140;-500;-497.0;70;69.7;-25;-24.8;28.7;0.0;
22/07/2019 14:56:33;100;0;79.25;16;-22.36;-7.92;115.5;14.40;70478;4854.474;-13038.632;140;-500;-497.0;70;69.7;-23;-23.0;28.7;0.0;
22/07/2019 14:56:53;100;0;79.90;16;-22.01;-6.59;118.9;14.30;70460;4854.474;-13038.632;140;-500;-495.0;70;69.7;-23;-22.1;28.8;0.0;
22/07/2019 14:57:13;100;0;74.72;16;-22.20;-6.88;122.2;14.20;70454;4854.474;-13038.632;140;-500;-495.0;70;69.7;-26;-26.2;28.7;0.0;
22/07/2019 14:57:33;100;0;75.41;16;-20.96;-8.87;125.7;14.20;70442;4854.474;-13038.632;140;-500;-497.0;70;69.7;-25;-24.8;28.7;0.0;
22/07/2019 14:57:53;100;0;71.26;16;-20.90;-7.85;128.9;14.10;70434;4854.474;-13038.632;140;-500;-497.0;70;69.7;-27;-27.5;28.7;0.0;
22/07/2019 14:58:13;100;0;75.89;16;-20.62;-9.53;132.0;14.00;70427;4854.474;-13038.632;140;-500;-495.0;70;69.7;-23;-23.0;28.7;0.0;
22/07/2019 14:58:33;100;0;76.74;16;-20.89;-6.85;134.8;13.90;70407;4854.474;-13038.632;140;-500;-497.0;70;69.7;-23;-22.1;28.7;0.0;
22/07/2019 14:58:53;100;0;73.31;16;-20.75;-6.93;137.6;13.90;70418;4854.474;-13038.632;140;-500;-495.0;70;69.7;-25;-24.8;28.7;0.0;
22/07/2019 14:59:13;100;0;75.85;16;-20.13;-8.18;140.5;13.80;70403;4854.474;-13038.632;140;-500;-497.0;70;69.7;-24;-23.9;28.7;0.0;
22/07/2019 14:59:33;100;0;73.37;16;-20.04;-7.38;143.4;13.70;70394;4854.474;-13038.632;140;-500;-495.0;70;69.7;-25;-24.8;28.7;0.0;
22/07/2019 14:59:53;100;0;72.29;16;-20.00;-8.49;146.1;13.60;70398;4854.474;-13038.632;140;-500;-497.0;70;69.7;-25;-25.3;28.7;0.0;
22/07/2019 15:00:13;100;0;74.64;16;-20.03;-8.44;148.6;13.60;70381;4854.474;-13038.632;140;-500;-495.0;70;69.7;-24;-23.5;28.8;0.0;
22/07/2019 15:00:33;100;0;73.51;16;-19.90;-7.31;151.4;13.50;70370;4854.474;-13038.632;140;-500;-497.0;70;69.7;-25;-24.8;28.7;0.0;
22/07/2019 15:00:53;100;0;76.88;16;-19.42;-8.34;154.0;13.40;70368;4854.474;-13038.632;140;-500;-497.0;70;69.7;-23;-23.0;28.7;0.0;
22/07/2019 15:01:13;100;0;79.76;16;-19.69;-6.99;156.6;13.30;70347;4854.474;-13038.632;140;-500;-495.0;70;69.7;-22;-22.1;28.8;0.0;
22/07/2019 15:01:33;100;0;82.48;16;-19.81;-7.06;159.2;13.30;70353;4854.474;-13038.632;140;-500;-497.0;70;69.7;-21;-21.2;28.7;0.0;
22/07/2019 15:01:53;100;0;85.41;16;-19.58;-6.09;161.9;13.20;70338;4854.474;-13038.632;140;-500;-495.0;70;69.7;-20;-19.9;28.7;0.0;
22/07/2019 15:02:13;100;0;85.51;16;-19.43;-5.46;164.5;13.10;70339;4854.474;-13038.632;140;-500;-495.0;70;69.7;-21;-21.2;28.7;0.0;
22/07/2019 15:02:33;100;0;86.42;16;-19.26;-6.57;167.2;13.10;70314;4854.474;-13038.632;140;-500;-497.0;70;69.7;-21;-21.7;28.7;0.0;
22/07/2019 15:02:53;100;0;87.10;16;-19.35;-6.61;169.9;13.00;70315;4854.474;-13038.632;140;-500;-495.0;70;69.7;-21;-21.7;28.7;0.0;
22/07/2019 15:03:13;100;0;85.50;16;-19.30;-6.63;172.6;12.90;70313;4854.474;-13038.632;140;-500;-497.0;70;69.7;-22;-22.1;28.8;0.0;
22/07/2019 15:03:33;100;0;84.51;16;-19.07;-7.13;175.3;12.90;70295;4854.474;-13038.632;140;-500;-497.0;70;69.7;-23;-23.5;28.7;0.0;
22/07/2019 15:03:53;100;0;85.03;16;-19.28;-7.65;178.0;12.80;70294;4854.474;-13038.632;140;-500;-495.0;70;69.7;-22;-21.7;28.8;0.0;
22/07/2019 15:04:13;100;0;84.34;16;-19.24;-6.54;180.7;12.70;70289;4854.474;-13038.632;140;-500;-497.0;70;69.7;-23;-23.0;28.7;0.0;
22/07/2019 15:04:33;100;0;84.45;16;-19.33;-7.64;183.3;12.70;70275;4854.474;-13038.632;140;-500;-497.0;70;69.7;-22;-21.7;28.8;0.0;
22/07/2019 15:04:53;100;0;86.95;16;-19.00;-6.44;186.0;12.60;70280;4854.474;-13038.632;140;-500;-495.0;70;69.7;-21;-21.2;28.7;0.0;
22/07/2019 15:05:13;100;0;88.67;16;-18.98;-6.45;188.7;12.60;70267;4854.474;-13038.632;140;-500;-495.0;70;69.7;-20;-19.9;28.7;0.0;
22/07/2019 15:05:33;100;0;90.85;16;-19.04;-5.59;191.4;12.50;70260;4854.474;-13038.632;140;-500;-495.0;70;69.7;-20;-19.4;28.7;0.0;
22/07/2019 15:05:53;100;0;92.56;16;-19.07;-5.59;194.0;12.40;70248;4854.474;-13038.632;140;-500;-495.0;70;69.7;-19;-19.0;28.7;0.0;
22/07/2019 15:06:13;100;0;93.78;16;-19.02;-5.11;196.6;12.40;70246;4854.474;-13038.632;140;-500;-495.0;70;69.7;-19;-18.1;28.7;0.0;
22/07/2019 15:06:33;100;0;94.17;16;-19.04;-5.11;199.3;12.30;70233;4854.474;-13038.632;140;-500;-495.0;70;69.7;-19;-18.1;28.7;0.0;
22/07/2019 15:06:53;100;0;94.06;16;-19.07;-5.10;201.9;12.30;70241;4854.474;-13038.632;140;-500;-495.0;70;69.7;-20;-19.9;28.8;0.0;
22/07/2019 15:07:13;100;0;93.63;16;-18.98;-6.10;204.6;12.20;70220;4854.474;-13038.632;140;-500;-495.0;70;69.7;-21;-21.7;28.7;0.0;
22/07/2019 15:07:33;100;0;92.88;16;-18.93;-6.82;207.3;12.20;70218;4854.474;-13038.632;140;-500;-495.0;70;69.7;-21;-21.7;28.7;0.0;
22/07/2019 15:07:53;100;0;92.91;16;-18.89;-6.85;210.0;12.10;70219;4854.474;-13038.632;140;-500;-495.0;70;69.7;-21;-22.1;28.7;0.0;
22/07/2019 15:08:13;100;0;92.62;16;-18.89;-6.80;212.7;12.10;70211;4854.474;-13038.632;140;-500;-495.0;70;69.7;-21;-21.7;28.8;0.0;
22/07/2019 15:08:33;100;0;93.12;16;-18.95;-6.82;215.2;12.00;70220;4854.474;-13038.632;140;-500;-495.0;70;69.7;-20;-19.4;28.7;0.0;
22/07/2019 15:08:53;100;0;93.58;16;-18.94;-5.37;217.8;12.00;70207;4854.474;-13038.632;140;-500;-495.0;70;69.7;-20;-19.0;28.8;0.0;
22/07/2019 15:09:13;100;0;94.37;16;-18.85;-5.38;220.4;11.90;70193;4854.474;-13038.632;140;-500;-495.0;70;69.7;-20;-19.0;28.8;0.0;
22/07/2019 15:09:33;100;0;94.10;16;-18.91;-5.37;222.9;11.90;70192;4854.474;-13038.632;140;-500;-495.0;70;69.7;-20;-19.0;28.8;0.0;
22/07/2019 15:09:53;100;0;93.16;16;-18.82;-5.30;225.5;11.80;70184;4854.474;-13038.632;140;-500;-495.0;70;69.7;-21;-21.2;28.7;0.0;
22/07/2019 15:10:13;100;0;93.97;16;-18.76;-6.79;228.1;11.80;70183;4854.474;-13038.632;140;-500;-495.0;70;69.7;-21;-21.7;28.7;0.0;
22/07/2019 15:10:34;100;0;95.37;16;-18.75;-6.75;230.7;11.70;70178;4854.474;-13038.632;140;-500;-495.0;70;69.7;-19;-18.5;28.7;0.0;
22/07/2019 15:10:54;100;0;94.68;16;-18.98;-5.03;233.2;11.70;70178;4854.474;-13038.632;140;-500;-495.0;70;69.7;-20;-19.9;28.7;0.0;
22/07/2019 15:11:14;100;0;94.08;16;-18.69;-6.08;235.9;11.60;70169;4854.474;-13038.632;140;-500;-495.0;70;69.7;-20;-20.3;28.7;0.0;
22/07/2019 15:11:34;100;0;94.30;16;-18.62;-6.13;238.5;11.60;70166;4854.474;-13038.632;140;-500;-495.0;70;69.7;-20;-20.3;28.7;0.0;
22/07/2019 15:11:54;100;0;93.63;16;-18.77;-6.06;241.1;11.50;70160;4854.474;-13038.632;140;-500;-495.0;70;69.7;-21;-21.7;28.7;0.0;
22/07/2019 15:12:14;100;0;93.22;16;-18.80;-6.93;243.8;11.50;70158;4854.474;-13038.632;140;-500;-495.0;70;69.7;-21;-22.1;28.8;0.0;
22/07/2019 15:12:34;100;0;93.84;16;-18.61;-6.92;246.4;11.40;70145;4854.474;-13038.632;140;-500;-495.0;70;69.7;-21;-22.1;28.8;0.0;
22/07/2019 15:12:54;100;0;94.07;16;-18.65;-6.96;249.1;11.40;70142;4854.474;-13038.632;140;-500;-495.0;70;69.7;-20;-19.9;28.7;0.0;
22/07/2019 15:13:14;100;0;93.65;16;-18.67;-5.48;251.8;11.40;70147;4854.474;-13038.632;140;-500;-497.0;70;69.6;-21;-21.2;28.8;0.0;
22/07/2019 15:13:34;100;0;95.06;16;-18.60;-6.81;254.3;11.30;70136;4854.474;-13038.632;140;-500;-495.0;70;69.7;-19;-19.0;28.7;0.0;
22/07/2019 15:13:54;100;0;94.91;16;-18.66;-5.12;257.0;11.30;70141;4854.474;-13038.632;140;-500;-495.0;70;69.7;-20;-19.9;28.7;0.0;
22/07/2019 15:14:14;100;0;95.69;16;-18.69;-6.16;259.6;11.20;70130;4854.474;-13038.632;140;-500;-495.0;70;69.7;-20;-20.3;28.7;0.0;
22/07/2019 15:14:34;100;0;96.13;16;-18.55;-6.12;262.2;11.20;70127;4854.474;-13038.632;140;-500;-495.0;70;69.7;-19;-19.0;28.7;0.0;
22/07/2019 15:14:54;100;0;96.14;16;-18.44;-5.28;264.8;11.20;70129;4854.474;-13038.632;140;-500;-495.0;70;69.7;-20;-19.9;28.7;0.0;
22/07/2019 15:15:14;100;0;96.51;16;-18.44;-6.11;267.4;11.10;70108;4854.474;-13038.632;140;-500;-495.0;70;69.7;-20;-20.3;28.7;0.0;
22/07/2019 15:15:34;100;0;96.14;16;-18.50;-6.16;269.9;11.10;70110;4854.474;-13038.632;140;-500;-495.0;70;69.6;-20;-20.3;28.7;0.0;
22/07/2019 15:15:54;100;0;95.84;16;-18.42;-6.10;272.5;11.10;70108;4854.474;-13038.632;140;-500;-495.0;70;69.7;-20;-20.3;28.7;0.0;
22/07/2019 15:16:14;100;0;94.80;16;-18.47;-6.09;274.9;11.00;70107;4854.474;-13038.632;140;-500;-495.0;70;69.6;-21;-21.2;28.7;0.0;
22/07/2019 15:16:34;100;0;94.14;16;-18.51;-6.65;277.4;11.00;70089;4854.474;-13038.632;140;-500;-493.1;70;69.7;-21;-21.7;28.7;0.0;
22/07/2019 15:16:54;100;0;95.09;16;-18.36;-6.66;279.9;10.90;70093;4854.474;-13038.632;140;-500;-493.1;70;69.7;-20;-19.9;28.7;0.0;
22/07/2019 15:17:14;100;0;95.13;16;-18.36;-5.48;282.4;10.90;70084;4854.474;-13038.632;140;-500;-495.0;70;69.7;-20;-19.0;28.7;0.0;
22/07/2019 15:17:34;100;0;95.48;16;-18.26;-5.50;284.7;10.90;70080;4854.474;-13038.632;140;-500;-495.0;70;69.6;-20;-19.0;28.7;0.0;
22/07/2019 15:17:54;100;0;95.98;16;-18.38;-5.52;287.2;10.80;70080;4854.474;-13038.632;140;-500;-495.0;70;69.7;-20;-19.0;28.7;0.0;
22/07/2019 15:18:14;100;0;97.10;16;-18.26;-5.58;289.6;10.80;70068;4854.474;-13038.632;140;-500;-495.0;70;69.7;-19;-19.0;28.7;0.0;
22/07/2019 15:18:34;100;0;97.91;16;-18.22;-5.54;291.9;10.80;70057;4854.474;-13038.632;140;-500;-495.0;70;69.7;-19;-19.0;28.7;0.0;
22/07/2019 15:18:54;100;0;97.94;16;-18.37;-5.52;294.3;10.70;70063;4854.474;-13038.632;140;-500;-495.0;70;69.7;-20;-19.9;28.7;0.0;
22/07/2019 15:19:14;100;0;99.26;16;-18.44;-6.04;296.6;10.70;70063;4854.474;-13038.632;140;-500;-495.0;70;69.7;-18;-18.1;28.7;0.0;
22/07/2019 15:19:34;100;0;98.41;16;-18.38;-4.70;298.9;10.70;70065;4854.474;-13038.632;140;-500;-495.0;70;69.7;-19;-19.0;28.7;0.0;
22/07/2019 15:19:54;100;0;98.59;16;-18.33;-5.69;301.3;10.60;70062;4854.474;-13038.632;140;-500;-495.0;70;69.7;-19;-19.4;28.7;0.0;
22/07/2019 15:20:14;100;0;98.24;16;-18.32;-5.70;303.5;10.60;70048;4854.474;-13038.632;140;-500;-495.0;70;69.7;-19;-19.4;28.7;0.0;
22/07/2019 15:20:34;100;0;98.85;16;-18.36;-5.72;305.8;10.60;70056;4854.474;-13038.632;140;-500;-495.0;70;69.7;-19;-19.4;28.8;0.0;
22/07/2019 15:20:54;100;0;99.03;16;-18.35;-5.68;308.1;10.50;70054;4854.474;-13038.632;140;-500;-495.0;70;69.7;-19;-19.4;28.7;0.0;
22/07/2019 15:21:14;100;0;98.93;16;-18.31;-5.72;310.4;10.50;70045;4854.474;-13038.632;140;-500;-495.0;70;69.7;-20;-19.9;28.8;0.0;
22/07/2019 15:21:34;100;0;99.28;16;-18.35;-6.06;312.5;10.50;70037;4854.474;-13038.632;140;-500;-495.0;70;69.7;-19;-18.5;28.7;0.0;
22/07/2019 15:21:54;100;0;99.05;16;-18.37;-5.10;314.7;10.50;70033;4854.474;-13038.632;140;-500;-495.0;70;69.7;-19;-18.5;28.7;0.0;
22/07/2019 15:22:14;100;0;97.74;16;-18.32;-5.06;317.0;10.40;70029;4854.474;-13038.632;140;-500;-495.0;70;69.7;-20;-20.3;28.7;0.0;
22/07/2019 15:22:34;100;0;97.31;16;-18.22;-6.21;319.2;10.40;70035;4854.474;-13038.632;140;-500;-495.0;70;69.7;-20;-20.3;28.7;0.0;
22/07/2019 15:22:54;100;0;97.37;16;-18.34;-6.19;321.5;10.40;70029;4854.474;-13038.632;140;-500;-495.0;70;69.7;-20;-20.3;28.7;0.0;
22/07/2019 15:23:14;100;0;97.69;16;-18.29;-6.22;323.7;10.30;70027;4854.474;-13038.632;140;-500;-495.0;70;69.7;-20;-20.3;28.7;0.0;
22/07/2019 15:23:34;100;0;98.91;16;-18.28;-6.24;326.0;10.30;70032;4854.474;-13038.632;140;-500;-495.0;70;69.7;-19;-18.5;28.7;0.0;
22/07/2019 15:23:54;100;0;98.76;16;-18.21;-5.00;328.2;10.30;70036;4854.474;-13038.632;140;-500;-495.0;70;69.7;-19;-18.1;28.8;0.0;
22/07/2019 15:24:14;100;0;98.52;16;-18.23;-5.00;330.4;10.20;70019;4854.474;-13038.632;140;-500;-495.0;70;69.7;-19;-17.6;28.7;0.0;
22/07/2019 15:24:34;100;0;97.43;16;-18.18;-4.98;332.7;10.20;70020;4854.474;-13038.632;140;-500;-495.0;70;69.7;-20;-19.9;28.7;0.0;
22/07/2019 15:24:54;100;0;99.19;16;-18.18;-6.17;334.9;10.20;70013;4854.474;-13038.632;140;-500;-495.0;70;69.7;-19;-19.0;28.7;0.0;
22/07/2019 15:25:14;100;0;100.92;16;-17.97;-5.24;337.2;10.20;70017;4854.474;-13038.632;140;-500;-495.0;70;69.7;-18;-17.6;28.7;0.0;
22/07/2019 15:25:34;100;0;99.79;16;-17.99;-4.61;339.5;10.10;70015;4854.474;-13038.632;140;-500;-495.0;70;69.7;-19;-19.0;28.7;0.0;
22/07/2019 15:25:54;100;0;98.81;16;-18.05;-5.73;341.7;10.10;70000;4854.474;-13038.632;140;-500;-495.0;70;69.7;-20;-19.9;28.7;0.0;
22/07/2019 15:26:14;100;0;98.18;16;-18.21;-6.12;343.8;10.10;69999;4854.474;-13038.632;140;-500;-493.1;70;69.7;-20;-20.3;28.7;0.0;
22/07/2019 15:26:34;100;0;97.81;16;-18.11;-6.11;346.2;10.10;69995;4854.474;-13038.632;140;-500;-493.1;70;69.7;-20;-20.3;28.7;0.0;
22/07/2019 15:26:54;100;0;97.71;16;-18.03;-6.08;348.4;10.00;69986;4854.474;-13038.632;140;-500;-495.0;70;69.7;-20;-20.3;28.7;0.0;
22/07/2019 15:27:14;100;0;96.79;16;-17.98;-6.07;350.8;10.00;69983;4854.474;-13038.632;140;-500;-495.0;70;69.7;-20;-20.3;28.7;0.0;
22/07/2019 15:27:34;100;0;96.39;16;-17.81;-6.11;353.1;10.00;69986;4854.474;-13038.632;140;-500;-493.1;70;69.7;-20;-20.3;28.7;0.0;
22/07/2019 15:27:54;100;0;97.84;16;-17.85;-6.11;355.4;10.00;69979;4854.474;-13038.632;140;-500;-493.1;70;69.7;-19;-19.0;28.8;0.0;
22/07/2019 15:28:14;100;0;97.43;16;-17.96;-5.20;357.7;10.00;69976;4854.474;-13038.632;140;-500;-495.0;70;69.7;-20;-20.3;28.7;0.0;
22/07/2019 15:28:34;100;0;97.76;16;-18.06;-6.24;359.9;9.90;69979;4854.474;-13038.632;140;-500;-495.0;70;69.6;-20;-20.3;28.7;0.0;
22/07/2019 15:28:54;100;0;97.85;16;-17.85;-6.19;362.3;9.90;69976;4854.474;-13038.632;140;-500;-495.0;70;69.7;-20;-20.3;28.7;0.0;
22/07/2019 15:29:14;100;0;98.42;16;-17.92;-6.34;364.7;9.90;69974;4854.474;-13038.632;140;-500;-493.1;70;69.7;-19;-19.0;28.7;0.0;
22/07/2019 15:29:34;100;0;98.31;16;-17.95;-5.32;367.0;9.90;69963;4854.474;-13038.632;140;-500;-493.1;70;69.7;-19;-18.5;28.7;0.0;
22/07/2019 15:29:54;100;0;99.26;16;-17.87;-5.43;369.5;9.80;69962;4854.474;-13038.632;140;-500;-493.1;70;69.6;-19;-18.5;28.7;0.0;
22/07/2019 15:30:14;100;0;98.34;16;-17.92;-5.33;371.9;9.80;69963;4854.474;-13038.632;140;-500;-493.1;70;69.6;-20;-19.9;28.7;0.0;
22/07/2019 15:30:34;100;0;99.77;16;-17.77;-6.11;374.2;9.80;69958;4854.474;-13038.632;140;-500;-495.0;70;69.7;-19;-19.0;28.7;0.0;
22/07/2019 15:30:54;100;0;100.21;16;-17.73;-5.29;376.5;9.70;69954;4854.474;-13038.632;140;-500;-495.0;70;69.7;-19;-18.5;28.7;0.0;
22/07/2019 15:31:14;100;0;99.51;16;-17.76;-5.21;378.9;9.70;69950;4854.474;-13038.632;140;-500;-493.1;70;69.7;-19;-18.1;28.7;0.0;
22/07/2019 15:31:34;100;0;99.08;16;-17.73;-5.29;381.3;9.70;69954;4854.474;-13038.632;140;-500;-493.1;70;69.7;-19;-18.5;28.7;0.0;
22/07/2019 15:31:54;100;0;98.40;16;-17.73;-5.47;383.5;9.70;69947;4854.474;-13038.632;140;-500;-493.1;70;69.7;-20;-20.3;28.7;0.0;
22/07/2019 15:32:14;100;0;97.97;16;-17.71;-6.24;385.9;9.70;69941;4854.474;-13038.632;140;-500;-493.1;70;69.7;-20;-20.8;28.7;0.0;
22/07/2019 15:32:34;100;0;97.66;16;-17.70;-6.26;388.2;9.60;69948;4854.474;-13038.632;140;-500;-495.0;70;69.7;-20;-20.3;28.7;0.0;
22/07/2019 15:32:54;100;0;97.50;16;-17.69;-6.24;390.5;9.60;69945;4854.474;-13038.632;140;-500;-493.1;70;69.7;-20;-20.3;28.7;0.0;
22/07/2019 15:33:14;100;0;98.51;16;-17.71;-6.28;392.7;9.60;69939;4854.474;-13038.632;140;-500;-493.1;70;69.6;-19;-19.0;28.7;0.0;
22/07/2019 15:33:34;100;0;98.13;16;-17.61;-5.36;395.1;9.60;69938;4854.474;-13038.632;140;-500;-493.1;70;69.7;-19;-18.5;28.7;0.0;
22/07/2019 15:33:54;100;0;97.10;16;-17.69;-5.38;397.4;9.60;69941;4854.474;-13038.632;140;-500;-495.0;70;69.7;-20;-19.9;28.7;0.0;
22/07/2019 15:34:14;100;0;97.41;16;-17.63;-6.25;399.6;9.60;69942;4854.474;-13038.632;140;-500;-493.1;70;69.7;-20;-20.3;28.7;0.0;
22/07/2019 15:34:34;100;0;97.55;16;-17.66;-6.20;402.0;9.50;69936;4854.474;-13038.632;140;-500;-493.1;70;69.7;-20;-20.3;28.7;0.0;
22/07/2019 15:34:54;100;0;98.24;16;-17.71;-6.25;404.2;9.50;69926;4854.474;-13038.632;140;-500;-497.0;70;69.7;-19;-18.5;28.7;0.0;
22/07/2019 15:35:14;100;0;98.10;16;-17.44;-4.98;406.6;9.50;69924;4854.474;-13038.632;140;-500;-493.1;70;69.7;-19;-17.6;28.7;0.0;
22/07/2019 15:35:34;100;0;97.37;16;-17.62;-5.00;408.8;9.50;69936;4854.474;-13038.632;140;-500;-493.1;70;69.6;-20;-19.9;28.7;0.0;
22/07/2019 15:35:54;100;0;97.47;16;-17.71;-6.12;411.0;9.40;69927;4854.474;-13038.632;140;-500;-493.1;70;69.7;-20;-20.3;28.7;0.0;
22/07/2019 15:36:14;100;0;98.81;16;-17.64;-6.15;413.4;9.40;69925;4854.474;-13038.632;140;-500;-495.0;70;69.7;-19;-19.0;28.7;0.0;
22/07/2019 15:36:34;100;0;97.55;16;-17.47;-5.25;415.6;9.40;69914;4854.474;-13038.632;140;-500;-495.0;70;69.7;-20;-19.9;28.7;0.0;
22/07/2019 15:36:54;100;0;97.65;16;-17.57;-6.12;417.8;9.40;69908;4854.474;-13038.632;140;-500;-493.1;70;69.7;-20;-20.3;28.7;0.0;
22/07/2019 15:37:14;100;0;98.32;16;-17.58;-6.14;420.2;9.40;69918;4854.474;-13038.632;140;-500;-493.1;70;69.7;-19;-19.0;28.8;0.0;
22/07/2019 15:37:34;100;0;98.27;16;-17.57;-5.26;422.5;9.30;69908;4854.474;-13038.632;140;-500;-493.1;70;69.7;-19;-18.1;28.7;0.0;
22/07/2019 15:37:54;100;0;97.50;16;-17.51;-5.22;424.8;9.30;69901;4854.474;-13038.632;140;-500;-493.1;70;69.7;-20;-19.9;28.8;0.0;
22/07/2019 15:38:14;100;0;98.10;16;-17.59;-6.31;427.0;9.30;69904;4854.474;-13038.632;140;-500;-493.1;70;69.7;-19;-18.5;28.8;0.0;
22/07/2019 15:38:34;100;0;97.28;16;-17.52;-5.10;429.4;9.30;69895;4854.474;-13038.632;140;-500;-493.1;70;69.7;-20;-19.9;28.7;0.0;
22/07/2019 15:38:54;100;0;97.01;16;-17.56;-6.21;431.7;9.30;69906;4854.474;-13038.632;140;-500;-493.1;70;69.7;-20;-20.3;28.7;0.0;
22/07/2019 15:39:14;100;0;96.43;16;-17.54;-6.18;434.0;9.20;69892;4854.474;-13038.632;140;-500;-493.1;70;69.7;-20;-20.3;28.8;0.0;
22/07/2019 15:39:34;100;0;96.39;16;-17.34;-6.21;436.3;9.20;69897;4854.474;-13038.632;140;-500;-493.1;70;69.7;-20;-20.3;28.7;0.0;
22/07/2019 15:39:54;100;0;96.91;16;-17.37;-6.24;438.6;9.20;69880;4854.474;-13038.632;140;-500;-493.1;70;69.7;-20;-20.3;28.7;0.0;
22/07/2019 15:40:14;100;0;98.11;16;-17.38;-6.24;440.8;9.20;69879;4854.474;-13038.632;140;-500;-493.1;70;69.7;-19;-19.0;28.7;0.0;
22/07/2019 15:40:34;100;0;97.30;16;-17.44;-5.35;443.0;9.20;69878;4854.474;-13038.632;140;-500;-493.1;70;69.7;-20;-19.9;28.7;0.0;
22/07/2019 15:40:54;100;0;96.80;16;-17.32;-6.28;445.3;9.20;69881;4854.474;-13038.632;140;-500;-493.1;70;69.7;-20;-20.3;28.8;0.0;
22/07/2019 15:41:14;100;0;98.15;16;-17.36;-6.28;447.6;9.10;69872;4854.474;-13038.632;140;-500;-493.1;70;69.7;-19;-19.0;28.7;0.0;
22/07/2019 15:41:34;100;0;97.37;16;-17.31;-5.26;449.7;9.10;69876;4854.474;-13038.632;140;-500;-495.0;70;69.6;-20;-19.9;28.7;0.0;
22/07/2019 15:41:54;100;0;97.44;16;-17.33;-6.32;451.9;9.10;69871;4854.474;-13038.632;140;-500;-493.1;70;69.7;-20;-20.8;28.7;0.0;
22/07/2019 15:42:14;100;0;98.56;16;-17.42;-6.32;454.1;9.10;69861;4854.474;-13038.632;140;-500;-493.1;70;69.7;-19;-19.0;28.7;0.0;
22/07/2019 15:42:34;100;0;99.12;16;-17.26;-5.15;456.3;9.10;69866;4854.474;-13038.632;140;-500;-493.1;70;69.7;-19;-18.1;28.7;0.0;
22/07/2019 15:42:54;100;0;98.94;16;-17.19;-5.11;458.5;9.00;69867;4854.474;-13038.632;140;-500;-493.1;70;69.7;-20;-19.9;28.7;0.0;
22/07/2019 15:43:14;100;0;98.07;16;-17.28;-6.18;460.6;9.00;69856;4854.474;-13038.632;140;-500;-491.1;70;69.7;-20;-20.3;28.8;0.0;
22/07/2019 15:43:34;100;0;98.07;16;-17.33;-6.21;462.7;9.00;69859;4854.474;-13038.632;140;-500;-493.1;70;69.7;-20;-20.3;28.8;0.0;
22/07/2019 15:43:54;100;0;98.08;16;-17.20;-6.21;464.9;9.00;69856;4854.474;-13038.632;140;-500;-493.1;70;69.7;-20;-20.3;28.7;0.0;
22/07/2019 15:44:14;100;0;97.18;16;-17.25;-6.18;467.0;9.00;69841;4854.474;-13038.632;140;-500;-493.1;70;69.7;-20;-20.3;28.7;0.0;
22/07/2019 15:44:35;100;0;97.66;16;-17.24;-6.25;469.1;9.00;69845;4854.474;-13038.632;140;-500;-491.1;70;69.7;-20;-20.3;28.7;0.0;
22/07/2019 15:44:55;100;0;97.69;16;-17.29;-6.21;471.2;8.90;69834;4854.474;-13038.632;140;-500;-493.1;70;69.7;-20;-20.3;28.7;0.0;
22/07/2019 15:45:15;100;0;97.31;16;-17.17;-6.21;473.3;8.90;69829;4854.474;-13038.632;140;-500;-493.1;70;69.7;-20;-20.3;28.7;0.0;
22/07/2019 15:45:35;100;0;97.61;16;-17.23;-6.32;475.4;8.90;69826;4854.474;-13038.632;140;-500;-493.1;70;69.7;-20;-20.3;28.7;0.0;
22/07/2019 15:45:55;100;0;96.47;16;-17.39;-6.11;477.5;8.90;69828;4854.474;-13038.632;140;-500;-491.1;70;69.7;-20;-20.3;28.7;0.0;
22/07/2019 15:46:15;100;0;96.16;16;-17.06;-6.20;479.5;8.80;69804;4854.474;-13038.632;140;-500;-491.1;70;69.7;-20;-20.3;28.7;0.0;
22/07/2019 15:46:35;100;0;95.26;16;-17.14;-6.22;481.5;8.80;69821;4854.474;-13038.632;140;-500;-493.1;70;69.7;-21;-21.2;28.7;0.0;
22/07/2019 15:46:55;100;0;97.09;16;-17.17;-6.80;483.6;8.80;69813;4854.474;-13038.632;140;-500;-493.1;70;69.7;-19;-19.0;28.7;0.0;
22/07/2019 15:47:15;100;0;97.97;16;-17.22;-5.39;485.7;8.80;69806;4854.474;-13038.632;140;-500;-493.1;70;69.7;-19;-18.1;28.7;0.0;
22/07/2019 15:47:35;100;0;96.95;16;-17.06;-5.31;487.9;8.80;69800;4854.474;-13038.632;140;-500;-493.1;70;69.7;-20;-20.3;28.7;0.0;
22/07/2019 15:47:55;100;0;96.49;16;-16.99;-6.37;489.9;8.80;69806;4854.474;-13038.632;140;-500;-493.1;70;69.6;-20;-20.8;28.7;0.0;
22/07/2019 15:48:15;100;0;96.94;16;-16.97;-6.44;491.9;8.70;69798;4854.474;-13038.632;140;-500;-491.1;70;69.6;-20;-20.8;28.8;0.0;
22/07/2019 15:48:35;100;0;97.99;16;-17.06;-6.49;493.8;8.70;69801;4854.474;-13038.632;140;-500;-493.1;70;69.7;-19;-19.0;28.7;0.0;
22/07/2019 15:48:55;100;0;97.48;16;-16.94;-5.44;496.0;8.70;69795;4854.474;-13038.632;140;-500;-491.1;70;69.6;-20;-19.9;28.7;0.0;
22/07/2019 15:49:15;100;0;96.85;16;-16.91;-6.18;498.0;8.70;69787;4854.474;-13038.632;140;-500;-491.1;70;69.7;-20;-20.3;28.7;0.0;
22/07/2019 15:49:35;100;0;96.58;16;-16.98;-6.23;499.9;8.70;69790;4854.474;-13038.632;140;-500;-491.1;70;69.7;-20;-20.3;28.7;0.0;
22/07/2019 15:49:55;118;0;96.35;16;-17.08;-6.19;501.8;8.70;69790;4854.474;-13038.632;140;150;-479.2;57;56.8;0;0.5;28.7;0.0;
22/07/2019 15:50:05;118;0;96.57;16;-0.39;3.43;502.6;8.60;69688;4854.474;-13038.632;140;150;-318.8;57;57.1;0;0.5;27.8;0.0;
22/07/2019 15:50:15;118;0;92.87;16;13.69;3.31;502.4;8.70;69498;4854.474;-13038.632;140;150;-162.4;57;57.1;0;0.5;27.7;-1.0;
22/07/2019 15:50:25;118;0;90.80;16;18.15;3.39;501.9;8.60;69224;4854.474;-13038.632;140;150;-9.9;57;57.1;0;0.5;27.7;-1.0;
22/07/2019 15:50:35;118;0;90.98;16;18.18;3.47;501.0;8.60;68979;4854.474;-13038.632;140;150;146.5;57;56.9;0;0.5;27.7;-1.0;
22/07/2019 15:50:45;118;0;91.52;16;20.29;3.58;499.7;8.60;68736;4854.474;-13038.632;140;150;158.4;57;56.9;0;0.5;27.7;-1.0;
22/07/2019 15:50:55;118;0;103.52;16;22.78;3.41;497.9;8.60;68741;4854.474;-13038.632;140;150;156.4;57;56.9;0;0.5;28.7;-1.0;
22/07/2019 15:51:05;117;0;103.75;16;23.72;3.44;495.8;8.60;68734;4854.474;-13038.632;140;150;160.4;57;57.1;0;0.5;28.7;-1.0;
22/07/2019 15:51:25;117;0;102.29;16;24.47;3.26;491.3;8.60;68738;4854.474;-13038.632;140;150;158.4;57;57.1;17;17.1;28.7;-1.0;
22/07/2019 15:51:45;117;0;106.12;16;23.96;11.53;486.0;8.60;68734;4854.474;-13038.632;140;150;158.4;57;56.9;16;15.8;28.7;-1.0;
22/07/2019 15:52:05;117;0;110.51;16;24.02;10.15;481.3;8.60;68723;4854.474;-13038.632;140;150;158.4;57;56.9;14;14.0;28.7;-1.0;
22/07/2019 15:52:25;117;0;111.83;16;24.22;9.27;476.5;8.60;68731;4854.474;-13038.632;140;150;158.4;57;56.9;15;14.9;28.7;-1.0;
22/07/2019 15:52:45;117;0;117.73;16;23.96;10.39;471.8;8.60;68726;4854.474;-13038.632;140;150;158.4;57;57.1;13;13.1;28.7;-1.0;
22/07/2019 15:53:05;117;0;120.79;16;24.04;8.93;467.1;8.50;68729;4854.474;-13038.632;140;150;158.4;57;56.9;12;12.2;28.7;-1.0;
22/07/2019 15:53:25;117;0;122.28;16;24.26;8.36;462.4;8.50;68722;4854.474;-13038.632;140;150;158.4;57;56.9;13;13.1;28.7;-1.0;
22/07/2019 15:53:45;117;0;125.77;16;23.96;9.47;457.7;8.50;68736;4854.474;-13038.632;140;150;158.4;57;56.9;13;14.0;28.7;-1.0;
22/07/2019 15:54:05;117;0;128.26;16;24.12;9.48;453.1;8.50;68732;4854.474;-13038.632;140;150;158.4;57;56.9;12;12.2;28.7;-1.0;
22/07/2019 15:54:25;117;0;128.90;16;24.28;8.33;448.3;8.50;68735;4854.474;-13038.632;140;150;158.4;57;57.1;12;11.7;28.7;-1.0;
22/07/2019 15:54:45;117;0;129.26;16;24.32;8.27;443.8;8.50;68743;4854.474;-13038.632;140;150;158.4;57;56.9;12;11.3;28.7;-1.0;
22/07/2019 15:55:05;117;0;130.57;16;24.15;8.31;439.1;8.40;68741;4854.474;-13038.632;140;150;158.4;57;56.9;12;11.3;28.7;-1.0;
22/07/2019 15:55:25;117;0;131.71;16;24.06;8.27;434.6;8.40;68736;4854.474;-13038.632;140;150;158.4;57;56.9;11;10.8;28.7;-1.0;
22/07/2019 15:55:45;117;0;132.98;16;24.09;7.66;430.1;8.40;68740;4854.474;-13038.632;140;150;158.4;57;57.1;11;10.4;28.7;-1.0;
22/07/2019 15:56:05;117;0;133.90;16;24.19;7.67;425.5;8.40;68748;4854.474;-13038.632;140;150;160.4;57;56.9;10;9.9;28.7;-1.0;
22/07/2019 15:56:25;117;0;134.28;16;24.17;7.67;421.0;8.40;68750;4854.474;-13038.632;140;150;158.4;57;57.1;10;10.4;28.7;-1.0;
22/07/2019 15:56:45;117;0;135.65;16;24.03;7.63;416.6;8.40;68746;4854.474;-13038.632;140;150;158.4;57;56.9;9;9.0;28.7;-1.0;
22/07/2019 15:57:05;117;0;135.42;16;24.21;6.90;412.2;8.40;68747;4854.474;-13038.632;140;150;160.4;57;56.9;9;8.6;28.7;-1.0;
22/07/2019 15:57:25;117;0;134.05;16;24.18;6.94;407.8;8.40;68751;4854.474;-13038.632;140;150;158.4;57;56.9;9;8.6;28.7;-1.0;
22/07/2019 15:57:45;117;0;135.40;16;23.97;6.99;403.3;8.30;68739;4854.474;-13038.632;140;150;160.4;57;56.9;8;7.7;28.7;-1.0;
22/07/2019 15:58:05;117;0;133.58;16;24.15;6.44;399.0;8.30;68747;4854.474;-13038.632;140;150;158.4;57;56.9;9;9.0;28.7;-1.0;
22/07/2019 15:58:25;117;0;134.98;16;23.84;7.56;394.7;8.30;68756;4854.474;-13038.632;140;150;158.4;57;56.9;8;7.7;28.7;-1.0;
22/07/2019 15:58:45;117;0;134.74;16;23.96;6.39;390.4;8.30;68753;4854.474;-13038.632;140;150;158.4;57;56.9;7;7.2;28.7;-1.0;
22/07/2019 15:59:05;117;0;133.77;16;24.01;6.36;386.1;8.30;68756;4854.474;-13038.632;140;150;160.4;57;56.9;8;8.1;28.7;-1.0;
22/07/2019 15:59:25;117;0;133.04;16;23.81;7.09;381.7;8.30;68764;4854.474;-13038.632;140;150;158.4;57;57.1;7;7.2;28.7;-1.0;
22/07/2019 15:59:45;117;0;130.99;16;24.02;6.05;377.4;8.30;68759;4854.474;-13038.632;140;150;158.4;57;57.1;9;9.0;28.7;-1.0;
22/07/2019 16:00:05;117;0;131.45;16;23.62;7.41;373.0;8.30;68755;4854.474;-13038.632;140;150;160.4;57;57.1;7;7.2;28.8;-1.0;
22/07/2019 16:00:25;117;0;131.98;16;23.59;6.23;368.7;8.30;68753;4854.474;-13038.632;140;150;160.4;57;56.9;7;7.2;28.8;-1.0;
22/07/2019 16:00:45;117;0;132.49;16;23.73;6.18;364.6;8.30;68755;4854.474;-13038.632;140;150;160.4;57;56.9;6;5.4;28.7;-1.0;
22/07/2019 16:01:05;117;0;131.00;16;23.95;5.21;360.1;8.30;68753;4854.474;-13038.632;140;150;160.4;57;56.9;7;7.2;28.7;-1.0;
22/07/2019 16:01:25;117;0;131.43;16;23.58;6.67;355.8;8.30;68768;4854.474;-13038.632;140;150;158.4;57;56.9;6;5.4;28.7;-1.0;
22/07/2019 16:01:45;117;0;130.45;16;23.80;5.32;351.4;8.30;68773;4854.474;-13038.632;140;150;160.4;57;56.9;6;5.4;28.7;-1.0;
22/07/2019 16:02:05;117;0;128.94;16;23.86;5.31;347.1;8.30;68762;4854.474;-13038.632;140;150;160.4;57;56.9;7;7.2;28.7;-1.0;
22/07/2019 16:02:25;117;0;127.36;16;23.84;6.60;342.7;8.30;68778;4854.474;-13038.632;140;150;160.4;57;57.1;7;7.7;28.7;-1.0;
22/07/2019 16:02:45;117;0;126.92;16;23.64;6.68;338.3;8.30;68770;4854.474;-13038.632;140;150;158.4;57;57.1;7;7.7;28.7;-1.0;
22/07/2019 16:03:05;117;0;127.43;16;23.61;6.67;333.9;8.30;68764;4854.474;-13038.632;140;150;158.4;57;57.1;6;5.4;28.7;-1.0;
22/07/2019 16:03:25;117;0;123.12;16;23.98;5.44;329.5;8.30;68773;4854.474;-13038.632;140;150;160.4;57;57.1;6;5.4;28.7;-1.0;
22/07/2019 16:03:45;117;0;120.22;16;23.76;5.30;325.0;8.30;68776;4854.474;-13038.632;140;150;158.4;57;56.9;9;9.0;28.7;-1.0;
22/07/2019 16:04:05;117;0;119.92;16;23.29;7.60;320.7;8.30;68783;4854.474;-13038.632;140;150;158.4;57;56.9;9;9.5;28.7;-1.0;
22/07/2019 16:04:25;117;0;121.35;16;23.16;7.59;316.5;8.30;68790;4854.474;-13038.632;140;150;160.4;57;56.9;7;7.2;28.7;-1.0;
22/07/2019 16:04:45;117;0;121.49;16;23.34;6.10;312.2;8.30;68783;4854.474;-13038.632;140;150;160.4;57;56.9;7;6.8;28.7;-1.0;
22/07/2019 16:05:05;117;0;121.30;16;23.30;6.24;307.9;8.30;68784;4854.474;-13038.632;140;150;160.4;57;56.9;7;6.8;28.7;-1.0;
22/07/2019 16:05:25;117;0;121.05;16;23.27;6.26;303.7;8.30;68783;4854.474;-13038.632;140;150;160.4;57;56.9;7;7.2;28.7;-1.0;
22/07/2019 16:05:45;117;0;121.90;16;23.37;6.19;299.5;8.30;68783;4854.474;-13038.632;140;150;158.4;57;56.9;7;6.8;28.7;-1.0;
22/07/2019 16:06:05;117;0;119.90;16;23.49;6.14;295.1;8.30;68772;4854.474;-13038.632;140;150;160.4;57;57.1;9;9.0;28.7;-1.0;
22/07/2019 16:06:25;117;0;119.81;16;23.16;7.54;290.9;8.30;68789;4854.474;-13038.632;140;150;158.4;57;57.1;9;9.5;28.7;-1.0;
22/07/2019 16:06:45;117;0;120.61;16;22.96;7.61;286.7;8.30;68795;4854.474;-13038.632;140;150;158.4;57;57.1;8;8.1;28.7;-1.0;
22/07/2019 16:07:05;117;0;122.36;16;22.92;6.51;282.6;8.30;68796;4854.474;-13038.632;140;150;160.4;57;56.9;7;7.2;28.7;-1.0;
22/07/2019 16:07:25;117;0;122.49;16;22.92;6.45;278.5;8.30;68803;4854.474;-13038.632;140;150;160.4;57;56.9;7;7.2;28.7;-1.0;
22/07/2019 16:07:45;117;0;121.20;16;23.13;6.41;274.3;8.30;68801;4854.474;-13038.632;140;150;160.4;57;57.1;8;8.6;28.7;-1.0;
22/07/2019 16:08:05;117;0;120.26;16;23.07;7.29;270.1;8.30;68808;4854.474;-13038.632;140;150;158.4;57;56.9;9;9.0;28.7;-1.0;
22/07/2019 16:08:25;117;0;121.19;16;22.76;7.28;265.9;8.30;68802;4854.474;-13038.632;140;150;160.4;57;56.9;8;7.7;28.7;-1.0;
22/07/2019 16:08:45;117;0;122.15;16;22.80;6.48;261.8;8.30;68800;4854.474;-13038.632;140;150;160.4;57;56.9;8;7.7;28.7;-1.0;
22/07/2019 16:09:05;117;0;123.70;16;22.43;6.61;257.8;8.30;68802;4854.474;-13038.632;140;150;160.4;57;57.1;8;7.7;28.7;-1.0;
22/07/2019 16:09:25;117;0;125.37;16;22.47;6.67;253.8;8.30;68813;4854.474;-13038.632;140;150;158.4;57;56.9;8;7.7;28.8;-1.0;
22/07/2019 16:09:45;117;0;127.41;16;22.36;6.55;249.8;8.30;68805;4854.474;-13038.632;140;150;160.4;57;56.9;6;5.4;28.7;-1.0;
22/07/2019 16:10:05;117;0;128.58;16;22.38;5.48;245.8;8.40;68809;4854.474;-13038.632;140;150;160.4;57;56.9;6;5.4;28.7;-1.0;
22/07/2019 16:10:25;117;0;126.68;16;22.69;5.44;241.8;8.40;68810;4854.474;-13038.632;140;150;160.4;57;57.1;7;7.2;28.7;-1.0;
22/07/2019 16:10:45;117;0;125.09;16;22.78;6.76;237.8;8.40;68814;4854.474;-13038.632;140;150;162.4;57;56.9;8;8.6;28.7;-1.0;
22/07/2019 16:11:05;117;0;127.73;16;22.21;7.42;233.7;8.40;68806;4854.474;-13038.632;140;150;160.4;57;57.1;6;5.4;28.7;-1.0;
22/07/2019 16:11:25;117;0;127.56;16;22.25;5.53;229.8;8.40;68831;4854.474;-13038.632;140;150;160.4;57;56.9;6;5.0;28.7;-1.0;
22/07/2019 16:11:45;117;0;127.94;16;22.50;5.40;225.8;8.40;68829;4854.474;-13038.632;140;150;160.4;57;56.9;6;5.0;28.7;-1.0;
22/07/2019 16:12:05;117;0;126.18;16;22.53;5.34;221.8;8.40;68829;4854.474;-13038.632;140;150;160.4;57;56.9;7;7.2;28.7;-1.0;
22/07/2019 16:12:25;117;0;125.57;16;22.26;6.73;217.8;8.40;68828;4854.474;-13038.632;140;150;158.4;57;57.1;7;7.7;28.7;-1.0;
22/07/2019 16:12:45;117;0;123.75;16;22.45;6.79;213.7;8.40;68841;4854.474;-13038.632;140;150;160.4;57;56.9;7;7.7;28.7;-1.0;
22/07/2019 16:13:05;117;0;121.22;16;22.50;6.80;209.6;8.40;68846;4854.474;-13038.632;140;150;160.4;57;57.1;7;7.7;28.7;-1.0;
22/07/2019 16:13:25;117;0;119.80;16;22.46;6.81;205.6;8.40;68838;4854.474;-13038.632;140;150;160.4;57;56.9;9;9.0;28.7;-1.0;
22/07/2019 16:13:45;117;0;118.95;16;22.23;7.63;201.6;8.40;68845;4854.474;-13038.632;140;150;160.4;57;56.9;9;9.5;28.7;-1.0;
22/07/2019 16:14:05;117;0;120.66;16;21.90;7.70;197.5;8.50;68853;4854.474;-13038.632;140;150;160.4;57;56.9;8;8.1;28.8;-1.0;
22/07/2019 16:14:25;117;0;124.32;16;21.60;6.54;193.7;8.50;68856;4854.474;-13038.632;140;150;160.4;57;56.9;8;7.2;28.7;-1.0;
22/07/2019 16:14:45;117;0;126.66;16;21.73;6.47;189.7;8.50;68859;4854.474;-13038.632;140;150;160.4;57;57.1;8;7.2;28.8;-1.0;
22/07/2019 16:15:05;117;0;128.74;16;21.46;6.50;185.9;8.50;68862;4854.474;-13038.632;140;150;160.4;57;57.1;5;5.0;28.7;-1.0;
22/07/2019 16:15:25;117;0;129.77;16;21.45;5.16;182.1;8.50;68866;4854.474;-13038.632;140;150;160.4;57;57.1;5;5.0;28.7;-1.0;
22/07/2019 16:15:45;117;0;126.88;16;22.02;5.18;178.1;8.50;68872;4854.474;-13038.632;140;150;160.4;57;57.1;7;7.2;28.7;-1.0;
22/07/2019 16:16:05;117;0;123.06;16;22.23;6.89;174.1;8.50;68874;4854.474;-13038.632;140;150;160.4;57;57.1;7;7.7;28.7;-1.0;
22/07/2019 16:16:25;117;0;121.98;16;22.03;6.84;169.9;8.50;68876;4854.474;-13038.632;140;150;160.4;57;57.1;7;7.7;28.7;-1.0;
22/07/2019 16:16:46;117;0;121.80;16;21.64;6.92;165.9;8.50;68875;4854.474;-13038.632;140;150;160.4;57;56.9;7;8.1;28.8;-1.0;
22/07/2019 16:17:06;117;0;122.66;16;21.41;6.90;161.9;8.50;68878;4854.474;-13038.632;140;150;160.4;57;57.1;7;7.7;28.7;-1.0;
22/07/2019 16:17:26;117;0;127.18;16;20.84;6.88;158.0;8.50;68883;4854.474;-13038.632;140;150;160.4;57;56.9;5;5.0;28.7;-1.0;
22/07/2019 16:17:46;117;0;128.65;16;20.89;5.12;154.3;8.60;68895;4854.474;-13038.632;140;150;160.4;57;57.1;5;4.5;28.7;-1.0;
22/07/2019 16:18:06;117;0;130.65;16;20.75;5.13;150.6;8.60;68887;4854.474;-13038.632;140;150;162.4;57;56.9;4;3.6;28.7;-1.0;
22/07/2019 16:18:26;117;0;129.64;16;20.76;4.63;146.9;8.60;68884;4854.474;-13038.632;140;150;162.4;57;56.9;5;5.0;28.7;-1.0;
22/07/2019 16:18:46;117;0;130.62;16;20.69;5.64;143.2;8.60;68884;4854.474;-13038.632;140;150;162.4;57;56.9;4;3.6;28.7;-1.0;
22/07/2019 16:19:06;117;0;130.10;16;20.57;4.69;139.5;8.60;68877;4854.474;-13038.632;140;150;162.4;57;56.9;5;5.0;28.7;-1.0;
22/07/2019 16:19:26;117;0;132.12;16;20.21;5.66;135.9;8.60;68893;4854.474;-13038.632;140;150;160.4;57;57.1;3;3.2;28.7;-1.0;
22/07/2019 16:19:46;117;0;132.84;16;20.08;4.20;132.2;8.60;68895;4854.474;-13038.632;140;150;162.4;57;57.1;3;2.7;28.7;-1.0;
22/07/2019 16:20:06;117;0;130.96;16;20.08;4.28;128.7;8.60;68890;4854.474;-13038.632;140;150;160.4;57;56.9;4;4.1;28.7;-1.0;
22/07/2019 16:20:26;117;0;130.86;16;19.88;5.09;125.3;8.60;68898;4854.474;-13038.632;140;150;160.4;57;57.1;4;4.1;28.7;-1.0;
22/07/2019 16:20:46;117;0;132.63;16;19.79;5.09;121.9;8.60;68889;4854.474;-13038.632;140;150;160.4;57;56.9;2;1.8;28.7;-1.0;
22/07/2019 16:21:06;117;0;127.59;16;20.06;3.46;118.4;8.70;68890;4854.474;-13038.632;140;150;160.4;57;57.1;5;5.0;28.8;-1.0;
22/07/2019 16:21:26;117;0;132.97;16;18.49;5.74;115.1;8.70;68884;4854.474;-13038.632;140;150;160.4;57;56.9;1;0.9;28.7;-1.0;
22/07/2019 16:21:46;117;0;135.15;16;18.14;3.25;112.3;8.70;68890;4854.474;-13038.632;140;150;162.4;57;56.9;0;0.0;28.7;-1.0;
22/07/2019 16:22:06;117;0;135.17;16;18.01;2.71;109.5;8.70;68892;4854.474;-13038.632;140;150;160.4;57;57.1;0;-0.5;28.7;-1.0;
22/07/2019 16:22:26;117;0;128.09;16;17.91;2.63;106.7;8.70;68884;4854.474;-13038.632;140;150;160.4;57;56.9;4;4.1;28.7;-1.0;
22/07/2019 16:22:46;117;0;123.43;16;17.37;5.44;103.7;8.70;68881;4854.474;-13038.632;140;150;162.4;57;56.9;4;4.5;28.7;-1.0;
22/07/2019 16:23:06;117;0;125.44;16;16.85;5.39;100.8;8.70;68880;4854.474;-13038.632;140;150;162.4;57;57.1;4;4.5;28.7;-1.0;
22/07/2019 16:23:26;117;0;130.70;16;16.64;5.48;98.0;8.70;68881;4854.474;-13038.632;140;150;162.4;57;57.1;0;0.0;28.8;-1.0;
22/07/2019 16:23:46;117;0;131.25;16;16.60;2.72;95.1;8.70;68876;4854.474;-13038.632;140;150;162.4;57;56.9;0;-0.5;28.7;-1.0;
22/07/2019 16:24:06;117;0;128.35;16;16.69;2.71;92.1;8.70;68879;4854.474;-13038.632;140;150;162.4;57;56.9;2;1.8;28.7;-1.0;
22/07/2019 16:24:26;117;0;126.23;16;16.04;4.14;89.1;8.70;68878;4854.474;-13038.632;140;150;160.4;57;56.9;3;3.6;28.7;-1.0;
22/07/2019 16:24:46;117;0;129.34;16;15.18;5.02;86.4;8.70;68878;4854.474;-13038.632;140;150;160.4;57;56.9;0;0.0;28.7;-1.0;
22/07/2019 16:25:06;117;0;124.95;16;15.09;2.74;83.9;8.70;68878;4854.474;-13038.632;140;150;160.4;57;57.1;0;-0.5;28.7;-1.0;
22/07/2019 16:25:26;117;0;120.42;16;14.55;2.72;81.4;8.70;68892;4854.474;-13038.632;140;150;160.4;57;57.1;5;5.0;28.7;-1.0;
22/07/2019 16:25:46;117;0;117.65;16;14.49;5.70;78.9;8.70;68893;4854.474;-13038.632;140;150;160.4;57;57.1;6;5.9;28.7;-1.0;
22/07/2019 16:26:06;117;0;116.57;16;14.15;6.34;76.4;8.70;68903;4854.474;-13038.632;140;150;160.4;57;57.1;6;6.8;28.7;-1.0;
22/07/2019 16:26:26;117;0;118.48;16;13.69;6.45;74.1;8.70;68917;4854.474;-13038.632;140;150;160.4;57;56.9;4;4.1;28.7;-1.0;
22/07/2019 16:26:46;117;0;120.22;16;13.85;4.78;71.9;8.80;68931;4854.474;-13038.632;140;150;160.4;57;57.1;3;3.2;28.7;-1.0;
22/07/2019 16:27:06;117;0;119.12;16;13.50;4.67;69.5;8.80;68937;4854.474;-13038.632;140;150;160.4;57;56.9;4;4.5;28.7;-1.0;
22/07/2019 16:27:26;117;0;118.77;16;13.51;5.45;67.3;8.80;68950;4854.474;-13038.632;140;150;158.4;57;56.9;5;5.0;28.7;-1.0;
22/07/2019 16:27:46;117;0;121.14;16;13.29;5.95;64.9;8.80;68965;4854.474;-13038.632;140;150;162.4;57;57.1;3;3.2;28.7;-1.0;
22/07/2019 16:28:06;117;0;121.60;16;13.24;4.33;62.6;8.80;68983;4854.474;-13038.632;140;150;160.4;57;56.9;3;2.7;28.7;-1.0;
22/07/2019 16:28:26;117;0;121.79;16;13.05;4.38;60.3;8.90;68987;4854.474;-13038.632;140;150;160.4;57;57.1;4;4.1;28.7;-1.0;
22/07/2019 16:28:46;117;0;123.92;16;12.73;5.67;58.0;8.90;69008;4854.474;-13038.632;140;150;160.4;57;56.9;4;5.0;28.7;-1.0;
22/07/2019 16:29:06;117;0;124.76;16;12.61;5.67;55.8;8.90;69033;4854.474;-13038.632;140;150;162.4;57;57.1;4;5.4;28.7;-1.0;
22/07/2019 16:29:26;117;0;127.60;16;12.53;5.65;53.6;8.90;69043;4854.474;-13038.632;140;150;160.4;57;57.1;2;1.4;28.7;-1.0;
22/07/2019 16:29:46;117;0;123.97;16;12.68;3.46;51.6;9.00;69068;4854.474;-13038.632;140;150;160.4;57;57.1;2;0.9;28.7;-1.0;
22/07/2019 16:30:06;117;0;123.35;16;12.85;3.73;49.6;9.00;69092;4854.474;-13038.632;140;150;160.4;57;57.1;2;0.9;28.7;-1.0;
22/07/2019 16:30:26;117;0;125.55;16;12.35;3.69;47.6;9.00;69106;4854.474;-13038.632;140;150;160.4;57;57.1;2;0.9;28.7;-1.0;
22/07/2019 16:30:46;117;0;127.50;16;12.06;3.59;45.6;9.10;69132;4854.474;-13038.632;140;150;160.4;57;57.1;2;0.9;28.7;-1.0;
22/07/2019 16:31:06;117;0;123.15;16;11.94;3.45;43.7;9.10;69158;4854.474;-13038.632;140;150;160.4;57;57.1;2;0.9;28.7;-1.0;
22/07/2019 16:31:26;117;0;120.66;16;12.05;3.56;41.9;9.20;69197;4854.474;-13038.632;140;150;160.4;57;56.9;6;6.3;28.7;-1.0;
22/07/2019 16:31:46;117;0;124.03;16;11.51;6.60;40.0;9.20;69219;4854.474;-13038.632;140;150;160.4;57;57.1;6;6.8;28.8;-1.0;
22/07/2019 16:32:06;117;0;126.15;16;11.35;6.60;38.1;9.20;69259;4854.474;-13038.632;140;150;160.4;57;57.1;6;6.8;28.7;-1.0;
22/07/2019 16:32:26;117;0;129.62;16;11.09;6.62;36.1;9.30;69281;4854.474;-13038.632;140;150;158.4;57;57.1;1;0.9;28.7;-1.0;
22/07/2019 16:32:46;117;0;129.87;16;10.78;3.46;34.1;9.30;69320;4854.474;-13038.632;140;150;160.4;57;57.1;1;0.5;28.7;-1.0;
22/07/2019 16:33:06;117;0;130.57;16;10.20;3.41;32.1;9.40;69379;4854.474;-13038.632;140;150;160.4;57;57.1;1;0.5;28.7;-1.0;
22/07/2019 16:33:26;117;0;127.52;16;10.11;3.42;30.3;9.50;69431;4854.474;-13038.632;140;150;160.4;57;56.9;3;3.2;28.7;-1.0;
22/07/2019 16:33:46;117;0;126.91;16;10.02;5.12;28.4;9.50;69469;4854.474;-13038.632;140;150;162.4;57;56.9;3;4.1;28.7;-1.0;
22/07/2019 16:34:06;117;0;125.72;16;10.01;5.05;26.7;9.60;69493;4854.474;-13038.632;140;150;160.4;57;57.1;3;4.1;28.7;-1.0;
22/07/2019 16:34:26;117;0;127.90;16;9.88;5.20;24.9;9.70;69529;4854.474;-13038.632;140;150;160.4;57;57.1;1;0.9;28.7;-1.0;
22/07/2019 16:34:46;117;0;128.04;16;9.77;3.43;23.4;9.70;69568;4854.474;-13038.632;140;150;160.4;57;56.9;1;0.5;28.7;-1.0;
22/07/2019 16:35:06;117;0;127.97;16;9.52;3.49;21.8;9.80;69606;4854.474;-13038.632;140;150;160.4;57;56.9;2;1.8;28.7;-1.0;
22/07/2019 16:35:26;117;0;129.34;16;8.76;4.33;20.6;9.90;69641;4854.474;-13038.632;140;150;160.4;57;57.1;0;0.0;28.7;-1.0;
22/07/2019 16:35:46;117;0;129.05;16;7.85;3.02;19.3;10.00;69706;4854.474;-13038.632;140;150;162.4;57;57.1;0;-0.5;28.7;-1.0;
22/07/2019 16:36:06;117;0;129.14;16;8.01;3.02;18.1;10.10;69770;4854.474;-13038.632;140;150;160.4;57;57.1;0;-0.5;28.8;-1.0;
22/07/2019 16:36:26;117;0;129.79;16;8.14;2.98;17.0;10.20;69810;4854.474;-13038.632;140;150;162.4;57;56.9;0;-0.5;28.7;-1.0;
22/07/2019 16:36:46;117;0;128.77;16;7.98;3.04;15.7;10.30;69852;4854.474;-13038.632;140;150;160.4;57;57.1;1;1.4;28.7;-1.0;
22/07/2019 16:37:06;117;0;130.65;16;8.34;4.47;14.6;10.40;69875;4854.474;-13038.632;140;150;160.4;57;56.9;0;0.0;28.7;-1.0;
22/07/2019 16:37:26;117;0;132.65;16;8.11;2.98;13.3;10.50;69906;4854.474;-13038.632;140;150;160.4;57;57.1;-1;-0.9;28.7;-1.0;
22/07/2019 16:37:46;117;0;129.79;16;8.38;2.51;12.0;10.50;69928;4854.474;-13038.632;140;150;160.4;57;57.1;0;0.5;28.8;-1.0;
22/07/2019 16:38:06;117;0;129.50;16;9.22;3.49;10.7;10.60;69953;4854.474;-13038.632;140;150;160.4;57;57.1;0;0.9;28.7;-1.0;
