Timestamp;NavState;SecurityLevel;Heading;Declination;Pitch;Roll;Depth;Temperature;Pa;Lat;Lon;DesiredH;BallastCmd;BallastPos;LinCmd;LinPos;AngCmd;AngPos;Voltage;Altitude;
12/06/2019 18:18:44;117;2048;345.19;17;-3.09;4.27;1.0;19.40;70301;5139.305;-12805.589;-9999;400;407.9;20;19.7;0;-0.5;28.9;-1.0;
12/06/2019 18:18:54;115;3072;345.54;17;-1.76;1.90;1.0;19.40;70293;5139.305;-12805.589;-9999;500;451.5;100;82.1;0;-0.5;28.9;-1.0;
12/06/2019 18:19:04;115;3072;20.05;17;-8.43;3.87;1.1;19.40;70168;5139.305;-12805.589;-9999;500;506.9;100;100.3;0;-0.5;28.7;-1.0;
12/06/2019 18:19:14;115;3072;341.58;17;-21.87;4.69;1.1;19.40;70129;5139.305;-12805.589;-9999;500;505.0;100;100.0;0;-0.5;28.9;-1.0;
12/06/2019 18:19:24;116;3072;344.93;17;-33.70;2.43;1.1;19.40;70124;5139.315;-12805.630;-9999;500;505.0;100;99.9;0;0.0;29.0;-1.0;
12/06/2019 18:19:44;116;3072;331.93;17;-35.81;1.77;1.1;19.40;70121;5139.315;-12805.633;-9999;500;505.0;100;99.7;0;-0.5;28.9;-1.0;
12/06/2019 18:20:08;116;3072;314.74;17;-31.39;1.69;1.1;19.30;70117;5139.315;-12805.634;-9999;500;505.0;100;99.7;0;-0.5;28.9;-1.0;
12/06/2019 18:20:28;116;3072;327.01;17;-29.11;3.28;1.1;19.30;70119;5139.316;-12805.637;-9999;500;505.0;100;99.9;0;-0.5;28.9;-1.0;
12/06/2019 18:20:48;116;3072;342.83;17;-32.24;3.84;1.2;19.30;70120;5139.323;-12805.674;-9999;500;503.0;100;100.0;0;0.0;28.9;-1.0;
12/06/2019 18:25:34;116;3072;53.28;17;-55.35;-4.93;1.1;19.20;70086;5139.324;-12805.679;-9999;500;505.0;100;99.7;0;0.0;29.0;-1.0;
12/06/2019 18:25:54;116;3072;87.50;17;-14.69;18.59;1.0;19.20;70083;5139.324;-12805.679;-9999;500;505.0;100;99.7;0;-0.5;29.0;-1.0;
12/06/2019 18:26:14;116;3072;71.50;17;-4.91;16.91;1.1;19.10;70076;5139.324;-12805.684;-9999;500;506.9;100;99.7;0;-0.5;29.1;-1.0;
12/06/2019 18:26:34;116;3072;73.29;17;-2.13;18.29;1.1;19.10;70087;5139.321;-12805.696;-9999;500;505.0;100;99.7;0;0.0;28.9;-1.0;
12/06/2019 18:27:31;116;3072;80.23;17;-2.89;10.91;1.1;19.10;70097;5139.321;-12805.698;-9999;500;505.0;100;99.6;0;-0.5;29.1;-1.0;
12/06/2019 18:27:51;116;3072;87.34;17;2.15;10.53;1.1;19.00;70096;5139.319;-12805.699;-9999;500;506.9;100;99.7;0;-0.5;29.0;-1.0;
12/06/2019 18:28:19;116;3072;96.41;17;0.78;11.45;1.0;19.00;70092;5139.319;-12805.699;-9999;500;506.9;100;99.7;0;-0.5;29.0;-1.0;
12/06/2019 18:28:39;116;3072;136.55;17;1.38;10.53;1.0;19.00;70106;5139.314;-12805.702;-9999;500;505.0;100;99.7;0;0.0;29.0;-1.0;
12/06/2019 18:28:59;116;3072;143.57;17;-0.14;11.05;1.0;19.00;70102;5139.309;-12805.730;-9999;500;506.9;100;99.6;0;0.0;29.1;-1.0;
12/06/2019 18:29:19;116;3072;149.12;17;-1.21;11.05;1.0;19.00;70114;5139.302;-12805.775;-9999;500;505.0;100;99.6;0;0.0;29.1;-1.0;
12/06/2019 18:29:39;116;3072;148.98;17;-0.59;9.76;1.1;19.00;70101;5139.295;-12805.831;-9999;500;506.9;100;99.6;0;0.0;29.0;-1.0;
12/06/2019 18:29:59;116;3072;153.19;17;-0.24;9.68;1.1;18.90;70103;5139.286;-12805.979;-9999;500;506.9;100;99.6;0;0.0;29.0;-1.0;
12/06/2019 18:30:31;116;3072;156.25;17;-0.49;9.22;1.1;18.90;70100;5139.285;-12805.998;-9999;500;506.9;100;99.7;0;0.0;29.0;-1.0;
12/06/2019 18:30:51;116;3072;150.78;17;2.16;8.84;1.1;18.90;70106;5139.283;-12806.063;-9999;500;506.9;100;99.6;0;0.0;29.0;-1.0;
12/06/2019 18:31:11;116;3072;157.33;17;-1.57;8.49;1.1;18.90;70102;5139.279;-12806.117;-9999;500;506.9;100;99.7;0;0.0;29.0;-1.0;
12/06/2019 18:31:31;116;3072;152.96;17;-3.48;5.57;1.0;18.80;70095;5139.274;-12806.180;-9999;500;505.0;100;99.7;0;0.0;29.0;-1.0;
12/06/2019 18:31:51;116;3072;154.24;17;-3.09;6.10;1.1;18.80;70103;5139.271;-12806.243;-9999;500;506.9;100;99.7;0;0.0;29.1;-1.0;
12/06/2019 18:32:11;116;3072;157.79;17;-0.81;6.12;1.0;18.80;70087;5139.269;-12806.305;-9999;500;506.9;100;99.7;0;0.0;29.0;-1.0;
12/06/2019 18:32:31;116;3072;153.74;17;-0.37;6.16;1.1;18.80;70086;5139.269;-12806.366;-9999;500;506.9;100;99.7;0;0.0;29.0;-1.0;
12/06/2019 18:32:51;116;3072;156.34;17;-1.87;6.16;1.1;18.70;70091;5139.266;-12806.427;-9999;500;505.0;100;99.7;0;0.0;29.1;-1.0;
12/06/2019 18:33:11;116;3072;154.95;17;-2.04;6.37;1.1;18.70;70078;5139.265;-12806.488;-9999;500;506.9;100;99.7;0;0.0;28.9;-1.0;
12/06/2019 18:33:31;116;3072;154.32;17;-2.10;6.15;1.1;18.70;70089;5139.260;-12806.655;-9999;500;506.9;100;99.7;0;0.0;29.0;-1.0;
12/06/2019 18:34:09;116;3072;160.23;17;-2.09;6.22;1.0;18.60;70081;5139.263;-12806.701;-9999;500;505.0;100;99.7;0;0.0;29.0;-1.0;
12/06/2019 18:34:29;116;3072;166.52;17;-1.71;6.40;1.0;18.60;70082;5139.264;-12806.725;-9999;500;506.9;100;99.7;0;0.0;29.0;-1.0;
12/06/2019 18:34:49;116;3072;164.32;17;-0.41;5.98;1.0;18.60;70080;5139.270;-12806.785;-9999;500;506.9;100;99.6;0;0.0;29.0;-1.0;
12/06/2019 18:35:09;116;3072;162.29;17;-1.53;6.63;1.1;18.50;70089;5139.277;-12806.846;-9999;500;506.9;100;99.6;0;0.0;29.0;-1.0;
12/06/2019 18:35:29;116;3072;160.42;17;-3.71;6.67;1.1;18.50;70086;5139.282;-12806.908;-9999;500;505.0;100;99.7;0;0.0;29.0;-1.0;
12/06/2019 18:35:49;116;3072;160.90;17;-3.51;6.76;1.0;18.50;70087;5139.287;-12806.971;-9999;500;506.9;100;99.7;0;0.0;29.1;-1.0;
12/06/2019 18:36:09;116;3072;160.27;17;-3.82;6.68;1.1;18.50;70083;5139.289;-12807.033;-9999;500;506.9;100;99.7;0;0.0;29.0;-1.0;
12/06/2019 18:36:29;116;3072;160.61;17;-3.70;6.73;1.1;18.40;70080;5139.293;-12807.096;-9999;500;505.0;100;99.7;0;0.0;29.0;-1.0;
12/06/2019 18:36:49;116;3072;159.62;17;-2.27;6.66;1.1;18.40;70073;5139.295;-12807.159;-9999;500;505.0;100;99.6;0;0.0;29.1;-1.0;
12/06/2019 18:37:09;116;3072;159.89;17;-2.96;8.80;1.0;18.40;70086;5139.296;-12807.219;-9999;500;506.9;100;99.6;0;0.0;29.0;-1.0;
12/06/2019 18:37:29;116;3072;156.72;17;-3.49;8.20;1.0;18.40;70084;5139.295;-12807.346;-9999;500;505.0;100;99.7;0;0.0;29.0;-1.0;
12/06/2019 18:38:07;116;3072;157.54;17;-2.99;8.01;1.0;18.30;70092;5139.297;-12807.372;-9999;500;506.9;100;99.6;0;0.0;29.0;-1.0;
12/06/2019 18:38:27;116;3072;155.89;17;-2.46;8.19;1.1;18.30;70110;5139.298;-12807.399;-9999;500;506.9;100;99.7;0;0.0;29.1;-1.0;
12/06/2019 18:38:47;116;3072;155.32;17;-2.91;8.23;1.1;18.30;70116;5139.300;-12807.445;-9999;500;506.9;100;99.7;0;0.0;29.0;-1.0;
12/06/2019 18:39:07;116;3072;155.67;17;-2.00;7.85;1.0;18.30;70118;5139.301;-12807.491;-9999;500;506.9;100;99.7;0;-0.5;29.0;-1.0;
12/06/2019 18:39:27;116;3072;157.31;17;-1.69;7.84;1.0;18.30;70135;5139.302;-12807.535;-9999;500;506.9;100;99.6;0;0.0;29.0;-1.0;
12/06/2019 18:39:47;116;3072;157.42;17;-2.21;7.81;1.1;18.30;70138;5139.304;-12807.586;-9999;500;505.0;100;99.7;0;0.0;29.0;-1.0;
12/06/2019 18:40:07;116;3072;154.94;17;-3.10;7.95;1.0;18.30;70151;5139.303;-12807.630;-9999;500;506.9;100;99.6;0;0.0;29.0;-1.0;
12/06/2019 18:40:27;116;3072;151.51;17;-2.92;7.80;1.1;18.30;70144;5139.302;-12807.670;-9999;500;505.0;100;99.6;0;0.0;29.1;-1.0;
12/06/2019 18:40:47;116;3072;156.13;17;-2.41;8.20;1.0;18.30;70152;5139.300;-12807.699;-9999;500;506.9;100;99.6;0;0.0;29.1;-1.0;
12/06/2019 18:41:07;116;3072;160.93;17;-2.44;7.93;1.0;18.30;70169;5139.301;-12807.724;-9999;500;505.0;100;99.7;0;0.0;29.0;-1.0;
12/06/2019 18:41:27;116;3072;145.00;17;-2.26;8.37;1.1;18.30;70180;5139.288;-12807.756;-9999;500;505.0;100;99.6;0;0.0;29.0;-1.0;
12/06/2019 18:42:08;116;3072;25.82;17;1.03;8.04;1.1;18.30;70183;5139.285;-12807.757;-9999;500;506.9;100;99.7;0;0.0;29.1;-1.0;
12/06/2019 18:42:28;116;3072;305.71;17;-1.71;8.06;1.0;18.30;70200;5139.284;-12807.756;-9999;500;505.0;100;99.6;0;0.0;29.1;-1.0;
12/06/2019 18:42:48;116;3072;249.46;17;-1.23;7.81;1.1;18.30;70198;5139.281;-12807.755;-9999;500;505.0;100;99.6;0;0.0;29.0;-1.0;
12/06/2019 18:43:08;116;3072;243.83;17;0.05;9.31;1.1;18.30;70203;5139.281;-12807.755;-9999;500;505.0;100;99.7;0;0.0;29.0;-1.0;
12/06/2019 18:43:28;116;3072;238.85;17;-0.49;9.87;1.1;18.30;70218;5139.281;-12807.755;-9999;500;506.9;100;99.6;0;0.0;29.0;-1.0;
12/06/2019 18:43:48;116;3072;254.83;17;-19.64;9.39;1.1;18.20;70204;5139.280;-12807.753;-9999;500;505.0;100;99.7;0;0.0;29.0;-1.0;
12/06/2019 18:44:08;116;3072;337.00;17;-23.57;9.28;1.1;18.30;70212;5139.278;-12807.753;-9999;500;506.9;100;99.7;0;0.0;29.1;-1.0;
12/06/2019 18:44:28;116;3072;245.67;17;-22.46;10.49;1.1;18.30;70217;5139.276;-12807.751;-9999;500;505.0;100;99.7;0;0.0;29.0;-1.0;
12/06/2019 18:44:48;116;3072;213.22;17;-1.52;9.73;1.1;18.30;70226;5139.275;-12807.749;-9999;500;506.9;100;99.7;0;0.0;29.0;-1.0;
12/06/2019 18:45:08;116;3072;213.24;17;-1.52;9.71;1.1;18.30;70231;5139.275;-12807.748;-9999;500;506.9;100;99.7;0;0.0;29.0;-1.0;
12/06/2019 18:45:28;116;3072;213.44;17;-1.52;9.70;1.1;18.30;70223;5139.275;-12807.747;-9999;500;506.9;100;99.7;0;0.0;29.0;-1.0;
12/06/2019 18:46:06;116;3072;179.20;17;-20.86;10.68;1.1;18.30;70218;5139.275;-12807.746;-9999;500;505.0;100;99.7;0;0.0;29.0;-1.0;
12/06/2019 18:46:26;116;3072;64.56;17;-32.04;9.56;1.1;18.30;70236;5139.275;-12807.759;-9999;500;505.0;100;99.7;0;1.4;29.0;-1.0;
12/06/2019 18:46:46;116;3072;220.81;17;-1.62;8.75;1.1;18.30;70232;5139.274;-12807.769;-9999;500;505.0;100;99.6;0;1.4;29.1;-1.0;
12/06/2019 18:47:06;116;3072;219.26;17;-1.62;8.75;1.1;18.40;70233;5139.273;-12807.769;-9999;500;506.9;100;99.7;0;1.8;29.0;-1.0;
12/06/2019 18:47:26;116;3072;342.23;17;-25.90;8.59;1.1;18.40;70224;5139.274;-12807.765;-9999;500;506.9;100;99.7;0;1.8;29.0;-1.0;
12/06/2019 18:47:46;116;3072;340.29;17;-1.36;9.83;1.1;18.40;70225;5139.274;-12807.765;-9999;500;505.0;100;99.7;0;1.8;29.1;-1.0;
12/06/2019 18:48:06;116;3072;340.32;17;-1.46;9.80;1.1;18.40;70222;5139.275;-12807.764;-9999;500;505.0;100;99.7;0;1.8;29.1;-1.0;
12/06/2019 18:48:26;116;3072;340.14;17;-1.44;9.81;1.0;18.40;70212;5139.274;-12807.764;-9999;500;508.9;100;99.7;0;1.8;29.0;-1.0;
12/06/2019 18:48:46;116;3072;340.10;17;-1.39;9.86;1.1;18.40;70219;5139.274;-12807.765;-9999;500;506.9;100;99.6;0;1.8;29.1;-1.0;
12/06/2019 18:49:06;116;3072;340.22;17;-1.41;9.86;1.1;18.50;70210;5139.275;-12807.765;-9999;500;506.9;100;99.7;0;1.8;29.0;-1.0;
12/06/2019 18:49:26;116;3072;339.97;17;-1.43;9.83;1.1;18.50;70203;5139.277;-12807.762;-9999;500;506.9;100;99.7;0;1.8;29.0;-1.0;
12/06/2019 18:49:46;116;3072;340.21;17;-1.43;9.85;1.0;18.50;70211;5139.275;-12807.762;-9999;500;505.0;100;99.7;0;1.8;29.0;-1.0;
12/06/2019 18:50:06;116;3072;340.12;17;-1.44;9.83;1.1;18.50;70211;5139.273;-12807.762;-9999;500;505.0;100;99.7;0;1.8;29.0;-1.0;
12/06/2019 18:50:26;116;3072;340.02;17;-1.43;9.85;1.1;18.50;70199;5139.272;-12807.762;-9999;500;505.0;100;99.7;0;1.8;29.0;-1.0;
12/06/2019 18:50:46;116;3072;340.19;17;-1.42;9.86;1.0;18.50;70198;5139.274;-12807.762;-9999;500;505.0;100;99.7;0;1.8;29.0;-1.0;
12/06/2019 18:51:06;116;3072;340.25;17;-1.43;9.84;1.1;18.50;70198;5139.277;-12807.761;-9999;500;505.0;100;99.7;0;1.8;29.0;-1.0;
12/06/2019 18:51:26;116;3072;340.07;17;-1.44;9.85;1.1;18.40;70185;5139.277;-12807.762;-9999;500;505.0;100;99.7;0;1.8;29.0;-1.0;
12/06/2019 18:51:46;116;3072;340.15;17;-1.44;9.85;1.1;18.40;70184;5139.277;-12807.762;-9999;500;506.9;100;99.6;0;1.8;29.0;-1.0;
12/06/2019 18:52:06;116;2048;340.10;17;-1.45;9.86;1.1;18.40;70173;5139.277;-12807.761;-9999;500;506.9;100;99.7;0;1.8;29.0;-1.0;
12/06/2019 18:52:26;116;0;340.36;17;-1.44;9.84;1.1;18.40;70177;5139.273;-12807.763;-9999;500;505.0;100;99.7;0;1.8;29.0;-1.0;
12/06/2019 18:52:46;116;0;340.45;17;-1.43;9.86;1.1;18.40;70167;5139.272;-12807.763;-9999;500;506.9;100;99.7;0;1.8;29.0;-1.0;
