Timestamp;NavState;SecurityLevel;Heading;Declination;Pitch;Roll;Depth;Temperature;Pa;Lat;Lon;DesiredH;BallastCmd;BallastPos;LinCmd;LinPos;AngCmd;AngPos;Voltage;Altitude;
13/06/2019 00:31:54;117;0;117.94;17;34.27;4.07;9.3;13.50;69750;5139.201;-12804.924;-9999;150;158.4;49;49.0;0;0.5;29.0;-1.0;
13/06/2019 00:32:04;115;0;135.91;17;34.34;3.05;7.6;13.50;69762;5139.201;-12804.924;-9999;500;170.3;100;93.4;0;0.0;29.0;-1.0;
13/06/2019 00:32:14;115;0;122.81;17;-4.69;4.77;6.3;13.50;69687;5139.201;-12804.924;-9999;500;320.8;100;100.0;0;0.5;28.7;-1.0;
13/06/2019 00:32:24;115;0;105.37;17;-52.43;5.94;7.2;13.50;69492;5139.201;-12804.924;-9999;500;473.3;100;100.0;0;0.5;28.7;-1.0;
13/06/2019 00:32:34;115;0;65.17;17;-60.22;3.16;7.7;13.50;69268;5139.201;-12804.924;-9999;500;505.0;100;99.9;0;0.5;28.7;-1.0;
13/06/2019 00:32:44;115;0;39.89;17;-39.19;3.89;5.6;13.50;69226;5139.201;-12804.924;-9999;500;506.9;100;99.9;0;0.0;29.0;-1.0;
13/06/2019 00:32:54;116;0;24.12;17;-57.77;5.03;3.2;13.50;69268;5139.201;-12804.924;-9999;500;506.9;100;100.0;0;0.5;29.0;-1.0;
13/06/2019 00:33:14;116;0;108.91;17;-62.88;0.37;2.6;13.50;69334;5139.201;-12804.924;-9999;500;505.0;100;100.0;0;0.0;29.0;-1.0;
13/06/2019 00:33:34;116;0;184.24;17;-24.94;3.72;1.2;13.60;69374;5139.147;-12804.953;-9999;500;508.9;100;99.9;0;0.5;29.0;-1.0;
13/06/2019 00:33:54;116;0;204.73;17;-47.00;3.32;1.6;13.60;69406;5139.146;-12804.956;-9999;500;508.9;100;99.9;0;0.5;29.0;-1.0;
13/06/2019 00:34:15;116;0;246.32;17;-34.99;3.61;1.5;13.70;69431;5139.146;-12804.957;-9999;500;506.9;100;99.9;0;0.5;29.0;-1.0;
13/06/2019 00:34:35;116;0;310.32;17;-36.49;3.67;1.5;13.70;69444;5139.146;-12804.961;-9999;500;508.9;100;100.0;0;0.5;29.0;-1.0;
13/06/2019 00:34:55;116;0;322.28;17;-39.72;3.97;1.6;13.80;69458;5139.144;-12804.981;-9999;500;510.9;100;99.7;0;0.0;29.0;-1.0;
13/06/2019 00:36:22;116;0;331.05;17;2.16;-0.68;1.1;14.00;69531;5139.144;-12804.981;-9999;500;510.9;100;99.6;0;0.0;29.0;-1.0;
13/06/2019 00:36:42;116;0;337.82;17;4.45;5.69;1.0;14.00;69533;5139.143;-12805.026;-9999;500;510.9;100;99.3;0;0.0;29.0;-1.0;
13/06/2019 00:37:05;116;0;6.36;17;-2.08;4.60;1.1;14.10;69546;5139.150;-12805.048;-9999;500;508.9;100;100.0;0;0.5;29.0;-1.0;
13/06/2019 00:37:25;116;0;357.51;17;-1.70;-0.76;1.1;14.10;69568;5139.171;-12805.193;-9999;500;510.9;100;100.0;0;0.5;29.0;-1.0;
13/06/2019 00:38:14;116;0;354.92;17;-2.02;-0.36;1.1;14.30;69579;5139.174;-12805.255;-9999;500;510.9;100;100.1;0;0.5;29.0;-1.0;
13/06/2019 00:38:34;116;0;352.40;17;-1.18;7.74;1.1;14.30;69587;5139.178;-12805.373;-9999;500;510.9;100;100.1;0;0.5;29.0;-1.0;
13/06/2019 00:38:54;116;0;344.16;17;-1.94;5.13;1.0;14.30;69591;5139.181;-12805.447;-9999;500;510.9;100;100.1;0;0.5;29.0;-1.0;
13/06/2019 00:39:14;116;0;351.48;17;-1.51;5.20;1.0;14.40;69610;5139.196;-12805.631;-9999;500;508.9;100;100.1;0;0.5;28.9;-1.0;
13/06/2019 00:39:34;116;0;348.22;17;-1.46;5.79;1.1;14.40;69618;5139.198;-12805.722;-9999;500;508.9;100;100.1;0;0.5;28.9;-1.0;
13/06/2019 00:39:54;116;0;347.50;17;-0.85;3.81;1.1;14.50;69626;5139.199;-12805.882;-9999;500;510.9;100;100.1;0;0.5;28.9;-1.0;
13/06/2019 00:40:14;116;0;348.65;17;-0.96;3.53;1.1;14.50;69632;5139.206;-12806.163;-9999;500;508.9;100;100.1;0;0.5;29.0;-1.0;
13/06/2019 00:40:34;116;0;344.98;17;-1.17;3.61;1.1;14.60;69637;5139.206;-12806.224;-9999;500;510.9;100;100.1;0;0.5;29.0;-1.0;
13/06/2019 00:40:54;116;0;350.25;17;-1.31;3.43;1.1;14.60;69644;5139.207;-12806.398;-9999;500;508.9;100;100.1;0;0.5;28.9;-1.0;
13/06/2019 00:41:14;116;0;353.81;17;-0.71;3.79;1.1;14.70;69655;5139.225;-12806.569;-9999;500;510.9;100;100.1;0;0.5;29.0;-1.0;
13/06/2019 00:41:34;116;0;346.78;17;-1.23;2.94;1.1;14.70;69658;5139.237;-12806.741;-9999;500;508.9;100;100.1;0;0.5;28.8;-1.0;
13/06/2019 00:41:54;116;0;351.77;17;-0.54;2.96;1.1;14.80;69656;5139.247;-12806.861;-9999;500;510.9;100;100.1;0;0.5;29.0;-1.0;
13/06/2019 00:42:14;116;0;358.09;17;-0.28;-0.49;1.1;14.80;69675;5139.255;-12806.922;-9999;500;510.9;100;100.1;0;0.5;29.0;-1.0;
13/06/2019 00:42:34;116;0;357.63;17;1.18;-0.46;1.1;14.80;69678;5139.262;-12806.975;-9999;500;510.9;100;100.1;0;0.5;28.8;-1.0;
13/06/2019 00:42:54;116;0;355.34;17;0.25;-0.62;1.1;14.90;69689;5139.269;-12807.028;-9999;500;510.9;100;100.1;0;0.5;29.0;-1.0;
