Timestamp;NavState;SecurityLevel;Heading;Declination;Pitch;Roll;Depth;Temperature;Pa;Lat;Lon;DesiredH;BallastCmd;BallastPos;LinCmd;LinPos;AngCmd;AngPos;Voltage;Altitude;
21/07/2019 23:37:42;117;0;259.88;16;5.79;3.31;9.4;16.90;70557;4854.595;-13036.243;270;150;158.4;57;57.2;-6;-6.3;28.8;-1.0;
21/07/2019 23:37:52;115;0;261.80;16;7.58;0.08;8.8;16.90;70551;4854.595;-13036.243;270;325;168.3;100;100.3;0;0.9;28.9;-1.0;
21/07/2019 23:38:02;115;0;285.65;16;-39.67;5.41;8.2;16.90;70481;4854.595;-13036.243;270;325;320.8;100;99.7;0;0.9;28.5;-1.0;
21/07/2019 23:38:12;115;0;246.74;16;-70.62;5.45;8.0;16.90;70276;4854.595;-13036.243;270;325;324.8;100;99.9;0;0.9;28.5;-1.0;
21/07/2019 23:38:22;115;0;263.23;16;-46.46;4.63;5.3;16.90;70303;4854.595;-13036.243;270;325;324.8;100;99.7;0;0.9;28.8;-1.0;
21/07/2019 23:38:32;116;0;206.49;16;-52.46;19.30;2.4;16.90;70303;4854.595;-13036.243;270;325;326.7;100;99.7;0;0.9;28.8;-1.0;
21/07/2019 23:38:52;116;0;121.95;16;-3.02;4.11;2.3;16.90;70322;4854.643;-13036.098;270;325;328.7;100;99.6;0;0.9;28.8;-1.0;
21/07/2019 23:39:27;116;0;102.02;16;-19.29;2.43;2.4;16.90;70340;4854.643;-13036.098;270;325;330.7;100;99.6;0;0.9;28.8;-1.0;
21/07/2019 23:39:47;116;0;102.72;16;-19.53;8.26;2.4;16.90;70348;4854.645;-13036.093;270;325;328.7;100;99.6;0;0.9;28.8;-1.0;
21/07/2019 23:40:07;116;0;78.35;16;-5.62;3.73;2.4;16.90;70340;4854.646;-13036.091;270;325;330.7;100;99.7;0;0.9;28.8;-1.0;
21/07/2019 23:40:27;116;0;89.23;16;-19.59;3.86;2.5;16.90;70351;4854.652;-13036.071;270;325;328.7;100;99.7;0;0.9;28.8;-1.0;
21/07/2019 23:41:26;116;0;88.14;16;-28.63;12.46;2.7;16.90;70369;4854.652;-13036.070;270;325;328.7;100;99.6;0;0.9;28.9;-1.0;
21/07/2019 23:41:46;116;0;102.25;16;-19.93;7.14;2.3;16.90;70372;4854.655;-13036.069;270;325;326.7;100;99.7;0;0.9;28.9;-1.0;
21/07/2019 23:42:06;116;0;90.46;16;-37.14;3.68;2.5;17.00;70371;4854.686;-13035.987;270;325;328.7;100;99.6;0;0.9;28.9;-1.0;
21/07/2019 23:47:42;116;0;89.60;16;-26.12;-0.93;2.4;17.20;70405;4854.687;-13035.986;270;325;328.7;100;99.6;0;0.9;28.8;-1.0;
21/07/2019 23:48:02;116;0;80.16;16;-25.48;2.82;2.6;17.20;70413;4854.688;-13035.983;270;325;328.7;100;99.7;0;0.9;28.9;-1.0;
21/07/2019 23:48:22;116;0;95.93;16;-21.19;7.47;2.4;17.30;70415;4854.690;-13035.979;270;325;328.7;100;99.6;0;0.9;28.9;-1.0;
21/07/2019 23:48:42;116;0;89.16;16;-20.18;-2.84;2.5;17.30;70403;4854.692;-13035.975;270;325;330.7;100;99.6;0;0.9;28.8;-1.0;
21/07/2019 23:49:02;116;0;84.62;16;-31.54;1.68;2.6;17.30;70424;4854.694;-13035.971;270;325;326.7;100;99.7;0;0.9;28.8;-1.0;
21/07/2019 23:49:22;116;0;94.34;16;-7.50;5.34;2.3;17.30;70424;4854.696;-13035.967;270;325;328.7;100;99.7;0;0.9;28.8;-1.0;
21/07/2019 23:49:42;116;0;83.88;16;-6.01;8.95;2.3;17.30;70415;4854.697;-13035.962;270;325;328.7;100;99.6;0;0.9;28.8;-1.0;
21/07/2019 23:50:02;116;0;80.31;16;-45.86;6.97;2.8;17.30;70426;4854.699;-13035.955;270;325;326.7;100;99.7;0;0.9;28.9;-1.0;
21/07/2019 23:50:22;116;0;99.58;16;-20.65;1.06;2.4;17.30;70430;4854.701;-13035.953;270;325;326.7;100;99.7;0;0.9;28.8;-1.0;
21/07/2019 23:50:42;116;0;94.10;16;-6.21;-1.94;2.3;17.30;70425;4854.705;-13035.939;270;325;330.7;100;99.6;0;0.9;28.8;-1.0;
21/07/2019 23:51:20;116;0;81.34;16;-8.73;0.46;2.3;17.30;70425;4854.706;-13035.938;270;325;326.7;100;99.6;0;0.9;28.8;-1.0;
21/07/2019 23:51:40;116;0;87.57;16;-10.63;5.20;2.3;17.30;70422;4854.708;-13035.932;270;325;328.7;100;99.7;0;0.9;28.8;-1.0;
21/07/2019 23:52:00;116;0;83.92;16;-6.11;11.86;2.4;17.30;70415;4854.711;-13035.928;270;325;328.7;100;99.6;0;0.9;28.9;-1.0;
21/07/2019 23:52:20;116;0;90.40;16;-10.85;3.24;2.3;17.30;70419;4854.711;-13035.922;270;325;328.7;100;99.6;0;0.9;28.9;-1.0;
21/07/2019 23:52:40;110;0;74.76;16;-37.45;5.19;2.7;17.30;70427;4854.711;-13035.922;270;-500;202.0;100;99.7;0;0.9;28.9;-1.0;
21/07/2019 23:52:50;110;0;82.93;16;-46.07;-0.38;2.9;17.30;70717;4854.711;-13035.922;270;-500;31.7;100;99.7;0;0.9;28.7;-1.0;
21/07/2019 23:53:00;110;0;92.08;16;-47.78;3.94;3.0;17.30;70939;4854.711;-13035.922;270;-500;-150.5;100;99.9;0;0.9;28.8;-1.0;
21/07/2019 23:53:10;110;0;79.56;16;-58.67;12.13;3.5;17.40;71230;4854.711;-13035.922;270;-500;-342.6;91;90.9;0;0.9;28.7;-1.0;
21/07/2019 23:53:20;110;0;82.16;16;-58.54;-1.36;4.5;17.40;71561;4854.711;-13035.922;270;-500;-501.0;79;79.0;0;0.9;28.8;-1.0;
21/07/2019 23:53:30;110;0;77.54;16;-45.35;4.65;6.9;17.40;71805;4854.711;-13035.922;270;-500;-501.0;70;70.0;0;0.9;28.9;-1.0;
21/07/2019 23:53:40;100;0;76.49;16;-36.51;4.09;10.0;17.40;71792;4854.711;-13035.922;270;-500;-501.0;70;70.0;0;0.9;28.9;-1.0;
21/07/2019 23:54:00;100;0;75.79;16;-29.47;4.14;16.0;17.40;71789;4854.711;-13035.922;270;-500;-501.0;70;70.0;0;0.9;28.8;0.0;
21/07/2019 23:54:20;100;0;63.50;16;-26.35;3.88;21.8;17.40;71769;4854.711;-13035.922;270;-500;-501.0;70;70.0;45;45.6;28.9;0.0;
21/07/2019 23:54:40;100;0;57.65;16;-24.02;24.48;26.9;17.40;71703;4854.711;-13035.922;270;-500;-501.0;70;70.0;45;45.6;28.8;0.0;
21/07/2019 23:55:00;100;0;39.45;16;-19.99;25.29;31.3;17.30;71609;4854.711;-13035.922;270;-500;-499.0;70;70.0;45;46.0;28.9;0.0;
21/07/2019 23:55:20;100;0;24.19;16;-20.32;24.68;35.2;17.20;71531;4854.711;-13035.922;270;-500;-499.0;70;69.9;41;41.1;28.9;0.0;
21/07/2019 23:55:40;100;0;8.89;16;-21.21;22.06;39.0;17.10;71445;4854.711;-13035.922;270;-500;-501.0;70;69.9;32;32.0;28.9;0.0;
21/07/2019 23:56:00;100;0;355.89;16;-22.03;17.53;42.8;17.00;71380;4854.711;-13035.922;270;-500;-501.0;70;70.0;27;27.1;28.9;0.0;
21/07/2019 23:56:20;100;0;343.75;16;-22.14;15.32;46.7;17.00;71328;4854.711;-13035.922;270;-500;-499.0;70;70.0;24;23.9;28.9;0.0;
21/07/2019 23:56:40;100;0;332.55;16;-22.10;13.59;50.6;16.90;71247;4854.711;-13035.922;270;-500;-499.0;70;70.0;22;22.1;28.9;0.0;
21/07/2019 23:57:00;100;0;319.92;16;-22.57;12.92;54.5;16.80;71194;4854.711;-13035.922;270;-500;-499.0;70;69.9;18;18.1;28.8;0.0;
21/07/2019 23:57:20;100;0;307.50;16;-23.08;10.96;58.3;16.70;71144;4854.711;-13035.922;270;-500;-501.0;70;70.0;16;15.8;28.8;0.0;
21/07/2019 23:57:40;100;0;293.16;16;-23.41;9.73;62.2;16.60;71091;4854.711;-13035.922;270;-500;-499.0;70;69.9;13;12.6;28.9;0.0;
21/07/2019 23:58:00;100;0;275.49;16;-22.90;8.33;66.2;16.50;71064;4854.711;-13035.922;270;-500;-499.0;70;70.0;7;7.2;28.8;0.0;
21/07/2019 23:58:20;100;0;262.50;16;-23.50;5.97;70.2;16.40;71003;4854.711;-13035.922;270;-500;-499.0;70;69.9;5;5.0;28.9;0.0;
21/07/2019 23:58:40;100;0;239.42;16;-23.09;4.77;74.2;16.30;70975;4854.711;-13035.922;270;-500;-499.0;70;69.9;5;4.1;28.8;0.0;
21/07/2019 23:59:00;100;0;227.15;16;-22.92;4.76;78.3;16.20;70922;4854.711;-13035.922;270;-500;-499.0;70;69.9;-2;-2.3;28.8;0.0;
21/07/2019 23:59:20;100;0;225.29;16;-23.80;1.65;82.0;16.10;70890;4854.711;-13035.922;270;-500;-499.0;70;69.9;1;0.9;28.9;0.0;
21/07/2019 23:59:40;100;0;209.53;16;-23.44;3.64;85.8;16.00;70859;4854.711;-13035.922;270;-500;-501.0;70;69.9;-5;-5.4;28.9;0.0;
22/07/2019 00:00:00;100;0;193.93;16;-23.28;0.59;89.6;15.80;70812;4854.711;-13035.922;270;-500;-501.0;70;69.9;-12;-12.2;28.9;0.0;
22/07/2019 00:00:20;100;0;190.19;16;-23.38;-2.38;93.3;15.80;70778;4854.711;-13035.922;270;-500;-499.0;70;69.9;-11;-10.4;28.8;0.0;
22/07/2019 00:00:40;100;0;187.25;16;-23.17;-1.08;97.1;15.70;70743;4854.711;-13035.922;270;-500;-497.0;70;69.9;-12;-12.2;28.9;0.0;
22/07/2019 00:01:00;100;0;177.82;16;-22.69;-2.42;101.1;15.60;70718;4854.711;-13035.922;270;-500;-499.0;70;69.9;-19;-19.0;28.8;0.0;
22/07/2019 00:01:20;100;0;171.82;16;-22.63;-5.25;104.8;15.50;70694;4854.711;-13035.922;270;-500;-499.0;70;69.9;-22;-22.1;28.8;0.0;
22/07/2019 00:01:40;100;0;174.12;16;-21.87;-6.83;108.7;15.40;70677;4854.711;-13035.922;270;-500;-497.0;70;69.9;-21;-21.2;28.9;0.0;
22/07/2019 00:02:00;100;0;174.49;16;-22.23;-5.82;112.2;15.30;70663;4854.711;-13035.922;270;-500;-497.0;70;69.9;-24;-23.9;28.8;0.0;
22/07/2019 00:02:20;100;0;176.05;16;-22.04;-7.72;116.1;15.20;70646;4854.711;-13035.922;270;-500;-497.0;70;69.7;-25;-24.8;28.9;0.0;
22/07/2019 00:02:40;100;0;174.98;16;-21.67;-8.16;119.7;15.10;70639;4854.711;-13035.922;270;-500;-497.0;70;69.9;-30;-29.8;28.9;0.0;
22/07/2019 00:03:00;100;0;179.61;16;-21.09;-10.29;123.3;15.10;70625;4854.711;-13035.922;270;-500;-497.0;70;69.9;-28;-28.0;28.8;0.0;
22/07/2019 00:03:20;100;0;182.18;16;-21.38;-9.36;126.7;15.00;70617;4854.711;-13035.922;270;-500;-497.0;70;69.9;-27;-27.1;28.8;0.0;
22/07/2019 00:03:40;100;0;186.08;16;-20.79;-8.65;130.0;14.90;70608;4854.711;-13035.922;270;-500;-497.0;70;69.9;-25;-24.4;28.8;0.0;
22/07/2019 00:04:00;100;0;188.86;16;-20.42;-7.52;133.2;14.80;70605;4854.711;-13035.922;270;-500;-497.0;70;69.9;-26;-26.2;28.9;0.0;
22/07/2019 00:04:20;100;0;185.32;16;-20.69;-8.89;136.5;14.80;70594;4854.711;-13035.922;270;-500;-497.0;70;69.9;-28;-28.0;28.8;0.0;
22/07/2019 00:04:40;100;0;189.33;16;-19.95;-9.62;139.7;14.70;70595;4854.711;-13035.922;270;-500;-497.0;70;69.9;-26;-25.7;28.8;0.0;
22/07/2019 00:05:00;100;0;189.85;16;-20.16;-8.32;142.7;14.60;70582;4854.711;-13035.922;270;-500;-497.0;70;69.9;-27;-27.1;28.9;0.0;
22/07/2019 00:05:20;100;0;192.50;16;-19.76;-9.24;145.7;14.50;70578;4854.711;-13035.922;270;-500;-497.0;70;69.9;-25;-24.4;28.8;0.0;
22/07/2019 00:05:40;100;0;192.67;16;-19.99;-7.63;148.6;14.50;70568;4854.711;-13035.922;270;-500;-497.0;70;69.9;-26;-26.2;28.9;0.0;
22/07/2019 00:06:00;100;0;195.52;16;-19.71;-8.83;151.5;14.40;70568;4854.711;-13035.922;270;-500;-495.0;70;69.9;-25;-24.8;28.9;0.0;
22/07/2019 00:06:20;100;0;197.79;16;-19.53;-7.71;154.4;14.40;70552;4854.711;-13035.922;270;-500;-495.0;70;69.9;-24;-23.9;28.9;0.0;
22/07/2019 00:06:40;100;0;200.08;16;-19.65;-7.67;157.3;14.30;70547;4854.711;-13035.922;270;-500;-497.0;70;69.9;-23;-22.6;28.8;0.0;
22/07/2019 00:07:00;100;0;198.18;16;-19.64;-6.77;160.3;14.20;70534;4854.711;-13035.922;270;-500;-495.0;70;69.9;-25;-24.8;28.9;0.0;
22/07/2019 00:07:20;100;0;196.32;16;-19.74;-8.38;163.1;14.20;70535;4854.711;-13035.922;270;-500;-497.0;70;69.7;-27;-27.5;28.8;0.0;
22/07/2019 00:07:40;100;0;196.76;16;-19.98;-9.33;166.0;14.10;70528;4854.711;-13035.922;270;-500;-495.0;70;69.9;-26;-26.2;28.8;0.0;
22/07/2019 00:08:00;100;0;197.42;16;-19.92;-8.57;168.7;14.00;70518;4854.711;-13035.922;270;-500;-497.0;70;69.9;-25;-24.8;28.9;0.0;
22/07/2019 00:08:20;100;0;199.07;16;-19.74;-7.78;171.6;14.00;70513;4854.711;-13035.922;270;-500;-497.0;70;69.9;-24;-23.9;28.8;0.0;
22/07/2019 00:08:40;100;0;202.89;16;-19.61;-7.82;174.4;13.90;70493;4854.711;-13035.922;270;-500;-495.0;70;69.9;-23;-23.0;28.9;0.0;
22/07/2019 00:09:00;100;0;201.48;16;-19.58;-6.95;177.2;13.80;70498;4854.711;-13035.922;270;-500;-495.0;70;69.9;-24;-24.4;28.8;0.0;
22/07/2019 00:09:20;100;0;201.98;16;-19.51;-7.98;179.9;13.80;70492;4854.711;-13035.922;270;-500;-495.0;70;69.9;-25;-25.3;28.8;0.0;
22/07/2019 00:09:40;100;0;203.84;16;-19.52;-8.51;182.7;13.70;70474;4854.711;-13035.922;270;-500;-495.0;70;69.9;-24;-23.9;28.9;0.0;
22/07/2019 00:10:00;100;0;204.35;16;-19.56;-7.47;185.4;13.70;70469;4854.711;-13035.922;270;-500;-497.0;70;69.9;-24;-23.5;28.8;0.0;
22/07/2019 00:10:20;100;0;206.16;16;-19.49;-7.43;188.1;13.60;70472;4854.711;-13035.922;270;-500;-497.0;70;69.7;-23;-23.0;28.8;0.0;
22/07/2019 00:10:40;100;0;208.21;16;-19.50;-7.16;190.9;13.50;70455;4854.711;-13035.922;270;-500;-497.0;70;69.9;-22;-22.1;28.9;0.0;
22/07/2019 00:11:00;100;0;207.69;16;-19.55;-6.59;193.5;13.50;70447;4854.711;-13035.922;270;-500;-495.0;70;69.9;-23;-23.5;28.9;0.0;
22/07/2019 00:11:20;100;0;209.45;16;-19.45;-7.60;196.3;13.40;70445;4854.711;-13035.922;270;-500;-497.0;70;69.7;-22;-22.1;28.8;0.0;
22/07/2019 00:11:40;100;0;208.48;16;-19.30;-6.56;199.1;13.40;70442;4854.711;-13035.922;270;-500;-497.0;70;69.9;-23;-23.0;28.8;0.0;
22/07/2019 00:12:00;100;0;209.28;16;-19.19;-7.53;201.8;13.30;70424;4854.711;-13035.922;270;-500;-495.0;70;69.9;-23;-23.5;28.9;0.0;
22/07/2019 00:12:20;100;0;209.58;16;-19.24;-7.55;204.5;13.30;70417;4854.711;-13035.922;270;-500;-497.0;70;69.7;-23;-23.5;28.9;0.0;
22/07/2019 00:12:40;100;0;210.81;16;-19.28;-7.53;207.2;13.20;70406;4854.711;-13035.922;270;-500;-497.0;70;69.7;-23;-23.5;28.8;0.0;
22/07/2019 00:13:00;100;0;211.96;16;-19.42;-7.58;209.9;13.20;70406;4854.711;-13035.922;270;-500;-493.1;70;69.7;-22;-22.1;28.8;0.0;
22/07/2019 00:13:21;100;0;212.87;16;-19.32;-6.70;212.5;13.10;70398;4854.711;-13035.922;270;-500;-497.0;70;69.9;-22;-21.7;28.9;0.0;
22/07/2019 00:13:41;100;0;213.17;16;-19.15;-6.70;215.2;13.10;70393;4854.711;-13035.922;270;-500;-495.0;70;69.9;-22;-21.7;28.9;0.0;
22/07/2019 00:14:01;100;0;214.30;16;-19.22;-6.64;218.0;13.00;70388;4854.711;-13035.922;270;-500;-497.0;70;69.7;-22;-21.7;28.8;0.0;
22/07/2019 00:14:21;100;0;216.07;16;-19.00;-6.70;220.7;13.00;70383;4854.711;-13035.922;270;-500;-495.0;70;69.9;-21;-21.2;28.9;0.0;
22/07/2019 00:14:41;100;0;215.52;16;-19.16;-6.17;223.3;12.90;70385;4854.711;-13035.922;270;-500;-497.0;70;69.7;-22;-22.6;28.8;0.0;
22/07/2019 00:15:01;100;0;216.26;16;-19.28;-7.19;226.0;12.90;70371;4854.711;-13035.922;270;-500;-497.0;70;69.9;-21;-21.2;28.8;0.0;
22/07/2019 00:15:21;100;0;217.14;16;-18.99;-6.11;228.6;12.80;70365;4854.711;-13035.922;270;-500;-495.0;70;69.9;-21;-20.8;28.9;0.0;
22/07/2019 00:15:41;100;0;217.84;16;-19.08;-6.11;231.4;12.80;70366;4854.711;-13035.922;270;-500;-497.0;70;69.7;-21;-20.8;28.9;0.0;
22/07/2019 00:16:01;100;0;219.28;16;-19.09;-6.14;234.0;12.70;70347;4854.711;-13035.922;270;-500;-495.0;70;69.7;-20;-19.9;28.8;0.0;
22/07/2019 00:16:21;100;0;221.05;16;-19.00;-5.51;236.6;12.70;70364;4854.711;-13035.922;270;-500;-495.0;70;69.9;-20;-19.4;28.8;0.0;
22/07/2019 00:16:41;100;0;220.43;16;-19.08;-5.52;239.3;12.60;70344;4854.711;-13035.922;270;-500;-497.0;70;69.9;-21;-21.2;28.8;0.0;
22/07/2019 00:17:01;100;0;219.96;16;-19.17;-6.56;241.9;12.60;70348;4854.711;-13035.922;270;-500;-497.0;70;69.9;-22;-22.1;28.9;0.0;
22/07/2019 00:17:21;100;0;219.71;16;-18.95;-7.06;244.5;12.50;70337;4854.711;-13035.922;270;-500;-497.0;70;69.9;-21;-21.2;28.9;0.0;
22/07/2019 00:17:41;100;0;219.04;16;-18.99;-6.24;247.2;12.50;70331;4854.711;-13035.922;270;-500;-497.0;70;69.9;-21;-20.8;28.8;0.0;
22/07/2019 00:18:01;100;0;219.18;16;-18.95;-6.22;249.8;12.50;70333;4854.711;-13035.922;270;-500;-495.0;70;69.9;-21;-20.8;28.8;0.0;
22/07/2019 00:18:21;100;0;217.20;16;-18.93;-6.21;252.4;12.40;70326;4854.711;-13035.922;270;-500;-495.0;70;69.9;-22;-22.1;28.8;0.0;
22/07/2019 00:18:41;100;0;216.90;16;-19.08;-7.07;254.9;12.40;70313;4854.711;-13035.922;270;-500;-497.0;70;69.9;-23;-23.0;28.8;0.0;
22/07/2019 00:19:01;100;0;219.63;16;-18.97;-7.53;257.5;12.30;70320;4854.711;-13035.922;270;-500;-497.0;70;69.7;-21;-21.2;28.9;0.0;
22/07/2019 00:19:21;100;0;218.33;16;-18.88;-6.16;260.0;12.30;70309;4854.711;-13035.922;270;-500;-495.0;70;69.7;-22;-22.1;28.8;0.0;
22/07/2019 00:19:41;100;0;216.20;16;-18.97;-7.19;262.6;12.30;70307;4854.711;-13035.922;270;-500;-497.0;70;69.9;-23;-23.0;28.8;0.0;
22/07/2019 00:20:01;100;0;216.76;16;-19.00;-7.50;265.1;12.20;70302;4854.711;-13035.922;270;-500;-497.0;70;69.9;-22;-21.7;28.8;0.0;
22/07/2019 00:20:21;100;0;217.13;16;-18.83;-6.54;267.6;12.20;70296;4854.711;-13035.922;270;-500;-495.0;70;69.9;-22;-21.2;28.9;0.0;
22/07/2019 00:20:41;100;0;217.21;16;-18.94;-6.49;270.1;12.10;70290;4854.711;-13035.922;270;-500;-497.0;70;69.9;-22;-21.2;28.9;0.0;
22/07/2019 00:21:01;100;0;218.15;16;-18.89;-6.49;272.6;12.10;70285;4854.711;-13035.922;270;-500;-495.0;70;69.7;-21;-21.2;28.9;0.0;
22/07/2019 00:21:21;100;0;218.34;16;-18.84;-6.55;275.1;12.10;70280;4854.711;-13035.922;270;-500;-497.0;70;69.9;-21;-21.2;28.8;0.0;
22/07/2019 00:21:41;100;0;218.80;16;-18.89;-6.54;277.7;12.00;70284;4854.711;-13035.922;270;-500;-497.0;70;69.9;-21;-21.2;28.8;0.0;
22/07/2019 00:22:01;100;0;219.85;16;-18.89;-6.54;280.1;12.00;70271;4854.711;-13035.922;270;-500;-495.0;70;69.9;-21;-21.2;28.9;0.0;
22/07/2019 00:22:21;100;0;220.17;16;-18.79;-6.53;282.7;12.00;70276;4854.711;-13035.922;270;-500;-497.0;70;69.9;-21;-21.2;28.8;0.0;
22/07/2019 00:22:41;100;0;217.75;16;-18.82;-6.45;285.2;11.90;70266;4854.711;-13035.922;270;-500;-495.0;70;69.9;-23;-23.0;28.8;0.0;
22/07/2019 00:23:01;100;0;217.46;16;-18.85;-7.58;287.7;11.90;70263;4854.711;-13035.922;270;-500;-495.0;70;69.7;-22;-22.1;28.9;0.0;
22/07/2019 00:23:21;100;0;218.36;16;-18.67;-6.65;290.3;11.90;70260;4854.711;-13035.922;270;-500;-495.0;70;69.9;-21;-21.2;28.8;0.0;
22/07/2019 00:23:41;100;0;217.35;16;-18.72;-6.12;292.8;11.80;70249;4854.711;-13035.922;270;-500;-495.0;70;69.7;-22;-22.1;28.9;0.0;
22/07/2019 00:24:01;100;0;218.98;16;-18.60;-7.10;295.4;11.80;70250;4854.711;-13035.922;270;-500;-495.0;70;69.9;-21;-21.2;28.8;0.0;
22/07/2019 00:24:21;100;0;221.38;16;-18.55;-6.27;297.9;11.80;70238;4854.711;-13035.922;270;-500;-495.0;70;69.7;-20;-19.4;28.8;0.0;
22/07/2019 00:24:41;100;0;222.59;16;-18.50;-5.34;300.5;11.70;70227;4854.711;-13035.922;270;-500;-495.0;70;69.9;-20;-19.0;28.9;0.0;
22/07/2019 00:25:01;100;0;222.63;16;-18.56;-5.49;303.0;11.70;70232;4854.711;-13035.922;270;-500;-495.0;70;69.9;-20;-19.0;28.8;0.0;
22/07/2019 00:25:21;100;0;222.89;16;-18.69;-5.45;305.5;11.60;70234;4854.711;-13035.922;270;-500;-495.0;70;69.9;-20;-19.0;28.8;0.0;
22/07/2019 00:25:41;100;0;221.91;16;-18.54;-5.42;308.1;11.60;70225;4854.711;-13035.922;270;-500;-495.0;70;69.9;-21;-21.2;28.8;0.0;
22/07/2019 00:26:01;100;0;220.89;16;-18.57;-6.80;310.6;11.60;70208;4854.711;-13035.922;270;-500;-495.0;70;69.7;-22;-22.6;28.9;0.0;
22/07/2019 00:26:21;100;0;220.96;16;-18.61;-7.28;313.3;11.50;70209;4854.711;-13035.922;270;-500;-495.0;70;69.9;-21;-21.2;28.9;0.0;
22/07/2019 00:26:41;100;0;219.71;16;-18.62;-6.10;315.8;11.50;70196;4854.711;-13035.922;270;-500;-495.0;70;69.9;-22;-22.1;28.9;0.0;
22/07/2019 00:27:01;100;0;220.33;16;-18.63;-7.20;318.4;11.50;70198;4854.711;-13035.922;270;-500;-495.0;70;69.7;-21;-20.8;28.8;0.0;
22/07/2019 00:27:21;100;0;220.72;16;-18.45;-6.11;321.1;11.40;70192;4854.711;-13035.922;270;-500;-495.0;70;69.9;-21;-20.3;28.8;0.0;
22/07/2019 00:27:41;100;0;220.92;16;-18.46;-6.09;323.7;11.40;70190;4854.711;-13035.922;270;-500;-495.0;70;69.9;-21;-20.3;28.9;0.0;
22/07/2019 00:28:01;100;0;221.24;16;-18.32;-6.09;326.3;11.40;70188;4854.711;-13035.922;270;-500;-495.0;70;69.7;-21;-20.3;28.8;0.0;
22/07/2019 00:28:21;100;0;222.03;16;-18.49;-6.09;328.9;11.40;70183;4854.711;-13035.922;270;-500;-495.0;70;69.9;-20;-19.9;28.8;0.0;
22/07/2019 00:28:41;100;0;222.21;16;-18.44;-5.50;331.5;11.30;70186;4854.711;-13035.922;270;-500;-495.0;70;69.9;-20;-19.0;28.8;0.0;
22/07/2019 00:29:01;100;0;221.82;16;-18.41;-5.49;334.1;11.30;70168;4854.711;-13035.922;270;-500;-495.0;70;69.7;-21;-21.2;28.8;0.0;
22/07/2019 00:29:21;100;0;222.14;16;-18.54;-6.91;336.7;11.30;70181;4854.711;-13035.922;270;-500;-497.0;70;69.9;-20;-19.9;28.8;0.0;
22/07/2019 00:29:41;100;0;222.71;16;-18.39;-5.43;339.3;11.20;70166;4854.711;-13035.922;270;-500;-495.0;70;69.9;-21;-21.2;28.8;0.0;
22/07/2019 00:30:01;100;0;223.88;16;-18.41;-6.86;342.0;11.20;70171;4854.711;-13035.922;270;-500;-497.0;70;69.9;-20;-19.9;28.8;0.0;
22/07/2019 00:30:21;100;0;224.27;16;-18.32;-5.64;344.6;11.20;70164;4854.711;-13035.922;270;-500;-495.0;70;69.9;-20;-19.4;28.9;0.0;
22/07/2019 00:30:41;100;0;225.13;16;-18.27;-5.62;347.3;11.10;70160;4854.711;-13035.922;270;-500;-495.0;70;69.9;-19;-19.0;28.8;0.0;
22/07/2019 00:31:01;100;0;224.88;16;-18.28;-5.01;349.9;11.10;70163;4854.711;-13035.922;270;-500;-495.0;70;69.7;-20;-19.9;28.8;0.0;
22/07/2019 00:31:21;100;0;225.17;16;-18.31;-6.17;352.5;11.10;70157;4854.711;-13035.922;270;-500;-495.0;70;69.7;-20;-20.3;28.8;0.0;
22/07/2019 00:31:41;100;0;225.68;16;-18.40;-6.19;355.1;11.10;70152;4854.711;-13035.922;270;-500;-495.0;70;69.9;-20;-20.3;28.8;0.0;
22/07/2019 00:32:01;100;0;224.63;16;-18.27;-6.12;357.6;11.00;70151;4854.711;-13035.922;270;-500;-495.0;70;69.9;-21;-21.7;28.9;0.0;
22/07/2019 00:32:21;100;0;224.54;16;-18.24;-6.92;360.2;11.00;70138;4854.711;-13035.922;270;-500;-495.0;70;69.7;-20;-19.9;28.9;0.0;
22/07/2019 00:32:41;100;0;224.91;16;-18.19;-5.69;362.9;11.00;70134;4854.711;-13035.922;270;-500;-493.1;70;69.9;-20;-19.4;28.9;0.0;
22/07/2019 00:33:01;100;0;223.81;16;-18.17;-5.65;365.3;11.00;70143;4854.711;-13035.922;270;-500;-495.0;70;69.7;-21;-21.2;28.8;0.0;
22/07/2019 00:33:21;100;0;226.11;16;-18.27;-6.75;367.9;10.90;70143;4854.711;-13035.922;270;-500;-495.0;70;69.9;-19;-19.0;28.9;0.0;
22/07/2019 00:33:41;100;0;226.46;16;-18.13;-5.19;370.4;10.90;70128;4854.711;-13035.922;270;-500;-495.0;70;69.9;-19;-18.5;28.8;0.0;
22/07/2019 00:34:01;100;0;223.87;16;-18.11;-5.19;372.9;10.90;70130;4854.711;-13035.922;270;-500;-495.0;70;69.7;-21;-21.2;28.8;0.0;
22/07/2019 00:34:21;100;0;224.70;16;-18.15;-6.87;375.3;10.80;70126;4854.711;-13035.922;270;-500;-493.1;70;69.7;-20;-19.9;28.9;0.0;
22/07/2019 00:34:41;100;0;225.71;16;-18.21;-5.61;377.8;10.80;70126;4854.711;-13035.922;270;-500;-495.0;70;69.9;-20;-19.0;28.9;0.0;
22/07/2019 00:35:01;100;0;226.41;16;-18.21;-5.57;380.1;10.80;70123;4854.711;-13035.922;270;-500;-495.0;70;69.9;-19;-19.0;28.8;0.0;
22/07/2019 00:35:21;100;0;227.19;16;-18.27;-5.57;382.5;10.80;70114;4854.711;-13035.922;270;-500;-495.0;70;69.7;-19;-19.0;28.8;0.0;
22/07/2019 00:35:41;100;0;226.49;16;-18.19;-5.56;385.0;10.70;70107;4854.711;-13035.922;270;-500;-493.1;70;69.9;-20;-19.9;28.8;0.0;
22/07/2019 00:36:01;100;0;224.87;16;-18.10;-6.07;387.4;10.70;70101;4854.711;-13035.922;270;-500;-495.0;70;69.9;-21;-21.2;28.8;0.0;
22/07/2019 00:36:21;100;0;226.15;16;-18.07;-6.94;389.8;10.70;70100;4854.711;-13035.922;270;-500;-495.0;70;69.9;-20;-19.4;28.8;0.0;
22/07/2019 00:36:41;100;0;226.14;16;-18.03;-5.45;392.2;10.70;70101;4854.711;-13035.922;270;-500;-495.0;70;69.9;-20;-19.0;28.9;0.0;
22/07/2019 00:37:01;100;0;224.84;16;-18.07;-5.47;394.6;10.70;70107;4854.711;-13035.922;270;-500;-493.1;70;69.7;-21;-21.2;28.8;0.0;
22/07/2019 00:37:21;100;0;226.43;16;-18.04;-6.78;397.0;10.60;70097;4854.711;-13035.922;270;-500;-495.0;70;69.9;-19;-19.0;28.9;0.0;
22/07/2019 00:37:41;100;0;226.69;16;-18.04;-5.10;399.5;10.60;70090;4854.711;-13035.922;270;-500;-495.0;70;69.9;-20;-19.9;28.9;0.0;
22/07/2019 00:38:01;100;0;224.78;16;-17.85;-6.16;401.8;10.60;70092;4854.711;-13035.922;270;-500;-495.0;70;69.7;-21;-21.2;28.9;0.0;
22/07/2019 00:38:21;100;0;223.79;16;-17.91;-6.63;404.2;10.50;70082;4854.711;-13035.922;270;-500;-495.0;70;69.9;-21;-21.2;28.8;0.0;
22/07/2019 00:38:41;100;0;224.59;16;-17.89;-6.61;406.7;10.50;70074;4854.711;-13035.922;270;-500;-495.0;70;69.9;-20;-19.9;28.9;0.0;
22/07/2019 00:39:01;100;0;225.07;16;-17.76;-5.51;409.0;10.50;70076;4854.711;-13035.922;270;-500;-493.1;70;69.9;-20;-19.0;28.8;0.0;
22/07/2019 00:39:21;100;0;225.04;16;-17.94;-5.56;411.3;10.50;70070;4854.711;-13035.922;270;-500;-493.1;70;69.9;-20;-19.0;28.9;0.0;
22/07/2019 00:39:41;100;0;224.64;16;-17.95;-5.54;413.6;10.50;70071;4854.711;-13035.922;270;-500;-495.0;70;69.7;-21;-21.2;28.9;0.0;
22/07/2019 00:40:01;100;0;226.29;16;-17.94;-6.89;415.9;10.40;70065;4854.711;-13035.922;270;-500;-495.0;70;69.9;-19;-19.0;28.8;0.0;
22/07/2019 00:40:21;100;0;224.89;16;-17.90;-5.16;418.1;10.40;70054;4854.711;-13035.922;270;-500;-493.1;70;69.7;-21;-21.2;28.8;0.0;
22/07/2019 00:40:41;100;0;224.32;16;-17.90;-6.80;420.5;10.40;70044;4854.711;-13035.922;270;-500;-495.0;70;69.9;-21;-21.7;28.9;0.0;
22/07/2019 00:41:01;100;0;225.37;16;-17.99;-6.73;422.7;10.40;70051;4854.711;-13035.922;270;-500;-493.1;70;69.7;-20;-19.9;28.8;0.0;
22/07/2019 00:41:21;100;0;226.46;16;-17.83;-5.62;425.0;10.30;70052;4854.711;-13035.922;270;-500;-493.1;70;69.7;-19;-19.0;28.8;0.0;
22/07/2019 00:41:41;100;0;227.85;16;-17.77;-5.63;427.3;10.30;70040;4854.711;-13035.922;270;-500;-493.1;70;69.9;-19;-19.0;28.8;0.0;
22/07/2019 00:42:01;100;0;228.06;16;-17.80;-5.63;429.7;10.30;70033;4854.711;-13035.922;270;-500;-493.1;70;69.9;-19;-19.0;28.9;0.0;
22/07/2019 00:42:21;100;0;227.19;16;-17.81;-5.62;431.9;10.30;70023;4854.711;-13035.922;270;-500;-493.1;70;69.7;-20;-19.9;28.9;0.0;
22/07/2019 00:42:41;100;0;225.90;16;-17.63;-6.14;434.2;10.20;70036;4854.711;-13035.922;270;-500;-495.0;70;69.9;-21;-21.7;28.9;0.0;
22/07/2019 00:43:01;100;0;227.06;16;-17.92;-6.93;436.4;10.20;70019;4854.711;-13035.922;270;-500;-495.0;70;69.9;-19;-19.0;28.8;0.0;
22/07/2019 00:43:21;100;0;228.38;16;-17.71;-5.31;438.7;10.20;70020;4854.711;-13035.922;270;-500;-493.1;70;69.9;-19;-18.5;28.8;0.0;
22/07/2019 00:43:41;100;0;228.65;16;-17.58;-5.30;441.1;10.20;70011;4854.711;-13035.922;270;-500;-493.1;70;69.9;-19;-18.5;28.9;0.0;
22/07/2019 00:44:01;100;0;228.87;16;-17.57;-5.25;443.4;10.20;70017;4854.711;-13035.922;270;-500;-493.1;70;69.9;-19;-18.5;28.9;0.0;
22/07/2019 00:44:21;100;0;228.84;16;-17.56;-5.28;445.8;10.10;70009;4854.711;-13035.922;270;-500;-493.1;70;69.7;-19;-18.5;28.9;0.0;
22/07/2019 00:44:41;100;0;228.23;16;-17.49;-5.29;448.1;10.10;70004;4854.711;-13035.922;270;-500;-493.1;70;69.9;-19;-18.5;28.8;0.0;
22/07/2019 00:45:01;100;0;228.10;16;-17.57;-5.34;450.4;10.10;70008;4854.711;-13035.922;270;-500;-491.1;70;69.7;-19;-18.5;28.9;0.0;
22/07/2019 00:45:21;100;0;229.02;16;-17.55;-5.28;452.7;10.00;70001;4854.711;-13035.922;270;-500;-493.1;70;69.7;-19;-18.5;28.8;0.0;
22/07/2019 00:45:41;100;0;230.24;16;-17.49;-5.33;454.9;10.00;69992;4854.711;-13035.922;270;-500;-493.1;70;69.7;-19;-18.5;28.8;0.0;
22/07/2019 00:46:01;100;0;230.14;16;-17.52;-5.24;457.2;10.00;69988;4854.711;-13035.922;270;-500;-493.1;70;69.9;-19;-18.5;28.8;0.0;
22/07/2019 00:46:21;100;0;228.56;16;-17.45;-5.33;459.5;10.00;69991;4854.711;-13035.922;270;-500;-493.1;70;69.7;-20;-20.3;28.9;0.0;
22/07/2019 00:46:41;100;0;229.95;16;-17.43;-6.31;461.8;10.00;69992;4854.711;-13035.922;270;-500;-491.1;70;69.7;-19;-19.0;28.8;0.0;
22/07/2019 00:47:02;100;0;230.32;16;-17.47;-5.13;464.1;9.90;69980;4854.711;-13035.922;270;-500;-493.1;70;69.7;-19;-18.5;28.8;0.0;
22/07/2019 00:47:22;100;0;229.61;16;-17.44;-5.17;466.2;9.90;69975;4854.711;-13035.922;270;-500;-493.1;70;69.9;-19;-18.1;28.8;0.0;
22/07/2019 00:47:42;100;0;229.52;16;-17.47;-5.17;468.4;9.90;69970;4854.711;-13035.922;270;-500;-493.1;70;69.9;-19;-18.1;28.8;0.0;
22/07/2019 00:48:02;100;0;230.28;16;-17.51;-5.16;470.7;9.90;69975;4854.711;-13035.922;270;-500;-495.0;70;69.9;-19;-18.1;28.9;0.0;
22/07/2019 00:48:22;100;0;230.79;16;-17.50;-5.16;472.8;9.80;69973;4854.711;-13035.922;270;-500;-493.1;70;69.7;-19;-18.1;28.9;0.0;
22/07/2019 00:48:42;100;0;231.06;16;-17.59;-5.20;475.0;9.80;69968;4854.711;-13035.922;270;-500;-493.1;70;69.7;-18;-18.1;28.9;0.0;
22/07/2019 00:49:02;100;0;231.13;16;-17.54;-5.22;477.1;9.80;69952;4854.711;-13035.922;270;-500;-493.1;70;69.9;-19;-19.0;28.9;0.0;
22/07/2019 00:49:22;100;0;229.84;16;-17.52;-5.67;479.3;9.80;69955;4854.711;-13035.922;270;-500;-493.1;70;69.7;-20;-19.9;28.8;0.0;
22/07/2019 00:49:42;100;0;228.54;16;-17.53;-6.20;481.4;9.80;69951;4854.711;-13035.922;270;-500;-493.1;70;69.7;-20;-20.3;28.8;0.0;
22/07/2019 00:50:02;100;0;228.24;16;-17.44;-6.20;483.6;9.70;69946;4854.711;-13035.922;270;-500;-493.1;70;69.7;-20;-20.3;28.8;0.0;
22/07/2019 00:50:22;100;0;228.97;16;-17.42;-6.17;485.8;9.70;69945;4854.711;-13035.922;270;-500;-493.1;70;69.9;-20;-20.3;28.9;0.0;
22/07/2019 00:50:42;100;0;227.62;16;-17.56;-6.20;487.9;9.70;69947;4854.711;-13035.922;270;-500;-493.1;70;69.7;-20;-20.3;28.8;0.0;
22/07/2019 00:51:02;100;0;228.18;16;-17.54;-6.19;490.1;9.70;69941;4854.711;-13035.922;270;-500;-493.1;70;69.9;-19;-19.0;28.8;0.0;
22/07/2019 00:51:22;100;0;229.36;16;-17.40;-5.43;492.3;9.70;69938;4854.711;-13035.922;270;-500;-493.1;70;69.9;-19;-18.5;28.9;0.0;
22/07/2019 00:51:42;100;0;228.84;16;-17.35;-5.36;494.4;9.60;69939;4854.711;-13035.922;270;-500;-493.1;70;69.9;-20;-19.9;28.8;0.0;
22/07/2019 00:52:02;100;0;229.38;16;-17.33;-6.19;496.6;9.60;69928;4854.711;-13035.922;270;-500;-493.1;70;69.9;-19;-19.0;28.8;0.0;
22/07/2019 00:52:22;100;0;228.64;16;-17.30;-5.35;498.7;9.60;69919;4854.711;-13035.922;270;-500;-491.1;70;69.7;-20;-19.9;28.9;0.0;
22/07/2019 00:52:42;100;0;227.56;16;-17.26;-6.10;500.9;9.60;69922;4854.711;-13035.922;270;-500;-491.1;70;69.9;-20;-19.9;28.9;0.0;
22/07/2019 00:53:02;100;0;226.74;16;-17.24;-6.15;502.9;9.60;69917;4854.711;-13035.922;270;-500;-493.1;70;69.9;-21;-21.2;28.8;0.0;
22/07/2019 00:53:22;100;0;226.44;16;-17.31;-6.90;505.0;9.50;69922;4854.711;-13035.922;270;-500;-493.1;70;69.9;-20;-19.9;28.9;0.0;
22/07/2019 00:53:42;100;0;226.18;16;-17.24;-5.70;507.2;9.50;69910;4854.711;-13035.922;270;-500;-493.1;70;69.9;-20;-19.4;28.9;0.0;
22/07/2019 00:54:02;100;0;225.03;16;-17.27;-5.69;509.2;9.50;69908;4854.711;-13035.922;270;-500;-493.1;70;69.9;-21;-21.2;28.9;0.0;
22/07/2019 00:54:22;100;0;226.88;16;-17.28;-6.92;511.2;9.50;69906;4854.711;-13035.922;270;-500;-493.1;70;69.9;-20;-19.9;28.9;0.0;
22/07/2019 00:54:42;100;0;227.38;16;-17.16;-5.65;513.4;9.50;69907;4854.711;-13035.922;270;-500;-491.1;70;69.9;-19;-19.0;28.8;0.0;
22/07/2019 00:55:02;100;0;225.85;16;-17.19;-5.58;515.4;9.40;69901;4854.711;-13035.922;270;-500;-491.1;70;69.9;-21;-21.2;28.8;0.0;
22/07/2019 00:55:22;100;0;225.52;16;-17.21;-6.77;517.4;9.40;69893;4854.711;-13035.922;270;-500;-491.1;70;69.9;-20;-19.9;28.9;0.0;
22/07/2019 00:55:42;100;0;225.56;16;-17.06;-5.66;519.5;9.40;69899;4854.711;-13035.922;270;-500;-491.1;70;69.7;-20;-19.0;28.8;0.0;
22/07/2019 00:56:02;100;0;225.85;16;-17.00;-5.66;521.6;9.40;69891;4854.711;-13035.922;270;-500;-491.1;70;69.9;-20;-19.0;28.8;0.0;
22/07/2019 00:56:22;100;0;224.57;16;-16.98;-5.66;523.5;9.30;69885;4854.711;-13035.922;270;-500;-491.1;70;69.9;-21;-21.7;28.9;0.0;
22/07/2019 00:56:42;100;0;224.33;16;-17.13;-6.96;525.6;9.30;69876;4854.711;-13035.922;270;-500;-491.1;70;69.9;-21;-22.1;28.8;0.0;
22/07/2019 00:57:02;100;0;226.20;16;-17.09;-6.99;527.7;9.30;69879;4854.711;-13035.922;270;-500;-491.1;70;69.7;-19;-19.0;28.8;0.0;
22/07/2019 00:57:22;100;0;225.87;16;-16.94;-5.33;529.7;9.30;69869;4854.711;-13035.922;270;-500;-491.1;70;69.7;-20;-19.9;28.8;0.0;
22/07/2019 00:57:42;100;0;226.33;16;-16.99;-6.15;531.8;9.30;69873;4854.711;-13035.922;270;-500;-493.1;70;69.9;-20;-20.3;28.9;0.0;
22/07/2019 00:58:02;100;0;228.53;16;-16.88;-6.15;533.8;9.20;69878;4854.711;-13035.922;270;-500;-491.1;70;69.7;-19;-19.0;28.9;0.0;
22/07/2019 00:58:22;100;0;228.57;16;-16.99;-5.24;535.9;9.20;69867;4854.711;-13035.922;270;-500;-493.1;70;69.9;-19;-18.1;28.9;0.0;
22/07/2019 00:58:42;100;0;227.34;16;-16.85;-5.24;537.9;9.20;69865;4854.711;-13035.922;270;-500;-491.1;70;69.7;-20;-19.9;28.9;0.0;
22/07/2019 00:59:02;100;0;228.30;16;-16.87;-6.29;540.0;9.20;69860;4854.711;-13035.922;270;-500;-491.1;70;69.7;-19;-19.0;28.8;0.0;
22/07/2019 00:59:22;100;0;228.29;16;-16.94;-5.09;542.0;9.20;69864;4854.711;-13035.922;270;-500;-491.1;70;69.9;-19;-18.1;28.8;0.0;
22/07/2019 00:59:42;100;0;227.70;16;-16.98;-5.20;544.0;9.10;69857;4854.711;-13035.922;270;-500;-491.1;70;69.9;-20;-19.9;28.8;0.0;
22/07/2019 01:00:02;100;0;229.82;16;-16.97;-6.26;546.0;9.10;69856;4854.711;-13035.922;270;-500;-491.1;70;69.9;-19;-19.0;28.8;0.0;
22/07/2019 01:00:22;100;0;229.73;16;-16.85;-5.37;548.0;9.10;69844;4854.711;-13035.922;270;-500;-491.1;70;69.9;-19;-18.5;28.8;0.0;
22/07/2019 01:00:42;100;0;229.15;16;-16.80;-5.36;550.1;9.10;69840;4854.711;-13035.922;270;-500;-491.1;70;69.9;-19;-18.5;28.8;0.0;
22/07/2019 01:01:02;100;0;229.12;16;-16.88;-5.42;552.1;9.10;69843;4854.711;-13035.922;270;-500;-491.1;70;69.7;-19;-18.5;28.8;0.0;
22/07/2019 01:01:22;100;0;229.77;16;-16.70;-5.36;554.1;9.00;69844;4854.711;-13035.922;270;-500;-491.1;70;69.7;-19;-18.5;28.8;0.0;
22/07/2019 01:01:42;100;0;230.72;16;-16.70;-5.39;556.2;9.00;69847;4854.711;-13035.922;270;-500;-491.1;70;69.9;-19;-18.5;28.8;0.0;
22/07/2019 01:02:02;100;0;231.34;16;-16.75;-5.37;558.2;9.00;69840;4854.711;-13035.922;270;-500;-491.1;70;69.7;-18;-18.1;28.8;0.0;
22/07/2019 01:02:22;100;0;232.18;16;-16.71;-4.80;560.3;9.00;69824;4854.711;-13035.922;270;-500;-491.1;70;69.7;-18;-17.1;28.9;0.0;
22/07/2019 01:02:42;100;0;231.49;16;-16.75;-4.81;562.3;9.00;69831;4854.711;-13035.922;270;-500;-491.1;70;69.7;-19;-19.0;28.8;0.0;
22/07/2019 01:03:02;100;0;231.27;16;-16.72;-5.90;564.3;9.00;69838;4854.711;-13035.922;270;-500;-491.1;70;69.7;-19;-19.4;28.8;0.0;
22/07/2019 01:03:22;100;0;230.16;16;-16.78;-5.95;566.4;8.90;69820;4854.711;-13035.922;270;-500;-491.1;70;69.7;-19;-19.4;28.9;0.0;
22/07/2019 01:03:42;100;0;229.73;16;-16.88;-5.89;568.4;8.90;69824;4854.711;-13035.922;270;-500;-489.1;70;69.7;-20;-19.9;28.8;0.0;
22/07/2019 01:04:02;100;0;229.75;16;-16.70;-6.26;570.4;8.90;69809;4854.711;-13035.922;270;-500;-491.1;70;69.9;-20;-20.3;28.8;0.0;
22/07/2019 01:04:22;100;0;229.74;16;-16.77;-6.13;572.4;8.90;69808;4854.711;-13035.922;270;-500;-491.1;70;69.7;-19;-19.0;28.8;0.0;
22/07/2019 01:04:42;100;0;228.97;16;-16.57;-5.29;574.5;8.90;69813;4854.711;-13035.922;270;-500;-491.1;70;69.7;-20;-19.9;28.8;0.0;
22/07/2019 01:05:02;100;0;231.02;16;-16.87;-6.37;576.4;8.80;69807;4854.711;-13035.922;270;-500;-493.1;70;69.7;-18;-18.1;28.8;0.0;
22/07/2019 01:05:22;100;0;230.96;16;-16.59;-4.80;578.4;8.80;69810;4854.711;-13035.922;270;-500;-491.1;70;69.7;-19;-19.0;28.9;0.0;
22/07/2019 01:05:42;100;0;231.63;16;-16.61;-5.83;580.4;8.80;69803;4854.711;-13035.922;270;-500;-491.1;70;69.7;-18;-18.1;28.9;0.0;
22/07/2019 01:06:02;100;0;230.17;16;-16.45;-4.84;582.5;8.80;69802;4854.711;-13035.922;270;-500;-491.1;70;69.7;-19;-19.0;28.8;0.0;
22/07/2019 01:06:22;100;0;228.49;16;-16.48;-5.84;584.5;8.80;69802;4854.711;-13035.922;270;-500;-491.1;70;69.7;-20;-20.3;28.8;0.0;
22/07/2019 01:06:42;100;0;226.98;16;-16.61;-6.36;586.7;8.80;69803;4854.711;-13035.922;270;-500;-491.1;70;69.7;-21;-21.2;28.8;0.0;
22/07/2019 01:07:02;100;0;226.62;16;-16.61;-6.87;588.6;8.70;69804;4854.711;-13035.922;270;-500;-491.1;70;69.7;-20;-19.9;28.9;0.0;
22/07/2019 01:07:22;100;0;226.51;16;-16.57;-5.73;590.7;8.70;69799;4854.711;-13035.922;270;-500;-491.1;70;69.7;-20;-19.4;28.9;0.0;
22/07/2019 01:07:42;100;0;226.80;16;-16.63;-5.76;592.8;8.70;69795;4854.711;-13035.922;270;-500;-491.1;70;69.9;-20;-19.4;28.8;0.0;
22/07/2019 01:08:02;100;0;227.38;16;-16.50;-5.77;594.9;8.70;69792;4854.711;-13035.922;270;-500;-491.1;70;69.7;-19;-19.0;28.8;0.0;
22/07/2019 01:08:22;100;0;226.49;16;-16.57;-5.58;596.9;8.70;69790;4854.711;-13035.922;270;-500;-491.1;70;69.7;-20;-19.9;28.9;0.0;
22/07/2019 01:08:42;100;0;226.15;16;-16.59;-6.27;599.1;8.60;69779;4854.711;-13035.922;270;-500;-491.1;70;69.9;-20;-20.3;28.9;0.0;
22/07/2019 01:09:02;100;0;225.78;16;-16.54;-6.36;601.2;8.60;69785;4854.711;-13035.922;270;-500;-491.1;70;69.9;-21;-21.2;28.9;0.0;
22/07/2019 01:09:22;100;0;225.78;16;-16.62;-6.79;603.3;8.60;69785;4854.711;-13035.922;270;-500;-491.1;70;69.7;-20;-19.9;28.8;0.0;
22/07/2019 01:09:42;100;0;224.97;16;-16.47;-5.65;605.5;8.60;69785;4854.711;-13035.922;270;-500;-493.1;70;69.7;-21;-21.7;28.8;0.0;
22/07/2019 01:10:02;100;0;227.09;16;-16.64;-7.07;607.6;8.60;69783;4854.711;-13035.922;270;-500;-491.1;70;69.7;-19;-19.0;28.9;0.0;
22/07/2019 01:10:22;100;0;229.73;16;-16.38;-5.41;609.9;8.60;69770;4854.711;-13035.922;270;-500;-491.1;70;69.7;-18;-18.1;28.8;0.0;
22/07/2019 01:10:42;100;0;230.23;16;-16.18;-5.34;612.1;8.60;69776;4854.711;-13035.922;270;-500;-491.1;70;69.7;-18;-18.5;28.8;0.0;
22/07/2019 01:11:02;100;0;230.35;16;-16.38;-5.34;614.3;8.50;69770;4854.711;-13035.922;270;-500;-489.1;70;69.7;-19;-19.0;28.9;0.0;
22/07/2019 01:11:22;100;0;230.67;16;-16.31;-5.84;616.5;8.50;69764;4854.711;-13035.922;270;-500;-491.1;70;69.9;-19;-19.4;28.8;0.0;
22/07/2019 01:11:42;100;0;231.27;16;-16.33;-5.79;618.8;8.50;69773;4854.711;-13035.922;270;-500;-493.1;70;69.7;-18;-18.1;28.8;0.0;
22/07/2019 01:12:02;100;0;230.15;16;-16.33;-5.05;621.0;8.50;69767;4854.711;-13035.922;270;-500;-491.1;70;69.7;-19;-19.4;28.8;0.0;
22/07/2019 01:12:22;100;0;230.92;16;-16.33;-6.09;623.3;8.50;69766;4854.711;-13035.922;270;-500;-489.1;70;69.9;-19;-19.9;28.8;0.0;
22/07/2019 01:12:42;100;0;231.28;16;-16.30;-6.04;625.5;8.40;69755;4854.711;-13035.922;270;-500;-491.1;70;69.9;-19;-19.9;28.8;0.0;
22/07/2019 01:13:02;100;0;231.91;16;-16.13;-6.05;627.8;8.40;69759;4854.711;-13035.922;270;-500;-489.1;70;69.9;-19;-19.9;28.8;0.0;
22/07/2019 01:13:22;100;0;232.64;16;-16.17;-6.09;630.0;8.40;69760;4854.711;-13035.922;270;-500;-489.1;70;69.9;-18;-18.1;28.9;0.0;
22/07/2019 01:13:42;100;0;232.83;16;-16.05;-4.89;632.4;8.40;69754;4854.711;-13035.922;270;-500;-491.1;70;69.7;-18;-17.1;28.8;0.0;
22/07/2019 01:14:02;100;0;233.08;16;-16.03;-4.91;634.7;8.40;69763;4854.711;-13035.922;270;-500;-489.1;70;69.9;-18;-17.1;28.8;0.0;
22/07/2019 01:14:22;100;0;233.44;16;-16.03;-4.93;636.9;8.40;69752;4854.711;-13035.922;270;-500;-491.1;70;69.9;-18;-17.1;28.9;0.0;
22/07/2019 01:14:42;100;0;233.38;16;-16.02;-4.88;639.1;8.40;69744;4854.711;-13035.922;270;-500;-489.1;70;69.9;-18;-17.6;28.9;0.0;
22/07/2019 01:15:02;100;0;232.33;16;-16.13;-4.92;641.5;8.30;69751;4854.711;-13035.922;270;-500;-489.1;70;69.7;-19;-19.4;28.8;0.0;
22/07/2019 01:15:22;100;0;233.47;16;-16.14;-6.06;643.8;8.30;69741;4854.711;-13035.922;270;-500;-489.1;70;69.7;-18;-18.1;28.8;0.0;
22/07/2019 01:15:42;100;0;234.72;16;-16.11;-5.22;646.0;8.30;69749;4854.711;-13035.922;270;-500;-489.1;70;69.7;-18;-18.1;28.8;0.0;
22/07/2019 01:16:02;100;0;235.75;16;-16.00;-5.22;648.3;8.30;69738;4854.711;-13035.922;270;-500;-491.1;70;69.7;-17;-17.1;28.9;0.0;
22/07/2019 01:16:22;100;0;236.79;16;-15.96;-4.55;650.5;8.30;69743;4854.711;-13035.922;270;-500;-489.1;70;69.7;-17;-16.2;28.9;0.0;
22/07/2019 01:16:42;100;0;237.32;16;-16.03;-4.50;652.8;8.30;69736;4854.711;-13035.922;270;-500;-491.1;70;69.7;-17;-16.2;28.8;0.0;
22/07/2019 01:17:02;100;0;236.70;16;-15.90;-4.51;655.0;8.30;69739;4854.711;-13035.922;270;-500;-489.1;70;69.9;-18;-18.1;28.9;0.0;
22/07/2019 01:17:22;100;0;235.90;16;-16.07;-5.59;657.2;8.20;69733;4854.711;-13035.922;270;-500;-489.1;70;69.7;-18;-18.5;28.9;0.0;
22/07/2019 01:17:42;100;0;234.61;16;-16.05;-5.60;659.4;8.20;69729;4854.711;-13035.922;270;-500;-491.1;70;69.7;-19;-19.0;28.8;0.0;
22/07/2019 01:18:02;100;0;233.73;16;-16.03;-5.59;661.5;8.20;69730;4854.711;-13035.922;270;-500;-489.1;70;69.9;-19;-18.5;28.8;0.0;
22/07/2019 01:18:22;100;0;231.91;16;-15.97;-5.56;663.8;8.20;69736;4854.711;-13035.922;270;-500;-489.1;70;69.7;-20;-19.9;28.8;0.0;
22/07/2019 01:18:42;100;0;231.80;16;-16.00;-6.42;665.9;8.20;69737;4854.711;-13035.922;270;-500;-487.1;70;69.7;-19;-19.0;28.9;0.0;
22/07/2019 01:19:02;100;0;231.97;16;-15.98;-5.25;668.1;8.20;69727;4854.711;-13035.922;270;-500;-489.1;70;69.7;-19;-18.1;28.8;0.0;
22/07/2019 01:19:22;100;0;231.33;16;-15.96;-5.22;670.3;8.10;69715;4854.711;-13035.922;270;-500;-489.1;70;69.7;-19;-18.1;28.9;0.0;
22/07/2019 01:19:42;100;0;231.21;16;-15.91;-5.25;672.4;8.10;69731;4854.711;-13035.922;270;-500;-489.1;70;69.9;-19;-18.1;28.8;0.0;
22/07/2019 01:20:02;100;0;230.83;16;-15.96;-5.18;674.5;8.10;69728;4854.711;-13035.922;270;-500;-491.1;70;69.7;-20;-19.9;28.8;0.0;
22/07/2019 01:20:22;100;0;230.69;16;-15.94;-6.29;676.6;8.10;69728;4854.711;-13035.922;270;-500;-489.1;70;69.9;-19;-19.0;28.9;0.0;
22/07/2019 01:20:42;100;0;231.86;16;-15.89;-5.55;678.7;8.10;69721;4854.711;-13035.922;270;-500;-489.1;70;69.7;-19;-18.5;28.8;0.0;
22/07/2019 01:21:02;100;0;231.90;16;-15.79;-5.48;680.9;8.10;69722;4854.711;-13035.922;270;-500;-489.1;70;69.9;-19;-18.5;28.8;0.0;
22/07/2019 01:21:22;100;0;231.44;16;-15.76;-5.52;682.9;8.10;69717;4854.711;-13035.922;270;-500;-489.1;70;69.7;-19;-18.5;28.9;0.0;
22/07/2019 01:21:42;100;0;231.00;16;-15.92;-5.45;685.0;8.10;69712;4854.711;-13035.922;270;-500;-491.1;70;69.7;-19;-18.5;28.8;0.0;
22/07/2019 01:22:02;100;0;231.21;16;-15.77;-5.54;687.1;8.00;69718;4854.711;-13035.922;270;-500;-489.1;70;69.7;-19;-18.5;28.8;0.0;
22/07/2019 01:22:23;100;0;232.17;16;-15.86;-5.53;689.1;8.00;69720;4854.711;-13035.922;270;-500;-489.1;70;69.7;-18;-18.1;28.8;0.0;
22/07/2019 01:22:43;100;0;232.34;16;-15.85;-4.93;691.2;8.00;69710;4854.711;-13035.922;270;-500;-489.1;70;69.7;-18;-17.1;28.9;0.0;
22/07/2019 01:23:03;100;0;231.85;16;-15.70;-4.87;693.3;8.00;69706;4854.711;-13035.922;270;-500;-487.1;70;69.7;-19;-19.0;28.9;0.0;
22/07/2019 01:23:23;100;0;231.56;16;-15.62;-5.77;695.4;8.00;69712;4854.711;-13035.922;270;-500;-489.1;70;69.9;-19;-19.0;28.9;0.0;
22/07/2019 01:23:43;100;0;231.57;16;-15.78;-5.80;697.3;8.00;69709;4854.711;-13035.922;270;-500;-489.1;70;69.9;-19;-19.0;28.9;0.0;
22/07/2019 01:24:03;100;0;230.34;16;-15.72;-5.82;699.4;7.90;69712;4854.711;-13035.922;270;-500;-489.1;70;69.9;-20;-20.3;28.8;0.0;
22/07/2019 01:24:23;118;0;230.72;16;-15.72;-6.48;701.4;7.90;69696;4854.711;-13035.922;270;150;-473.3;57;56.8;0;0.5;28.8;0.0;
22/07/2019 01:24:33;118;0;122.37;16;2.09;3.44;702.3;7.90;69616;4854.711;-13035.922;270;150;-314.9;57;57.1;0;0.5;27.6;0.0;
22/07/2019 01:24:43;118;0;119.14;16;16.58;3.32;702.0;7.90;69418;4854.711;-13035.922;270;150;-160.4;57;57.1;0;0.5;27.6;-1.0;
22/07/2019 01:24:53;118;0;118.68;16;19.96;3.28;701.5;7.90;69157;4854.711;-13035.922;270;150;-7.9;57;57.1;0;0.5;27.6;-1.0;
22/07/2019 01:25:03;118;0;120.36;16;19.97;3.41;700.7;7.90;68900;4854.711;-13035.922;270;150;148.5;57;57.1;0;0.5;27.6;-1.0;
22/07/2019 01:25:13;118;0;119.08;16;22.30;3.35;699.4;7.90;68653;4854.711;-13035.922;270;150;148.5;57;57.1;0;0.5;27.6;-1.0;
22/07/2019 01:25:23;118;0;219.67;16;24.78;3.29;697.5;7.90;68679;4854.711;-13035.922;270;150;146.5;57;57.1;0;0.5;28.8;-1.0;
22/07/2019 01:25:33;117;0;218.10;16;25.78;3.16;695.4;7.90;68675;4854.711;-13035.922;270;150;146.5;57;57.1;0;0.5;28.8;-1.0;
22/07/2019 01:25:53;117;0;212.41;16;26.59;3.25;690.6;7.90;68682;4854.711;-13035.922;270;150;146.5;57;57.1;30;29.8;28.8;-1.0;
22/07/2019 01:26:13;117;0;222.46;16;25.92;17.76;685.0;7.90;68671;4854.711;-13035.922;270;150;148.5;57;56.9;21;21.2;28.8;-1.0;
22/07/2019 01:26:33;117;0;224.66;16;25.98;12.59;679.9;7.90;68682;4854.711;-13035.922;270;150;146.5;57;57.1;20;19.9;28.9;-1.0;
22/07/2019 01:26:53;117;0;227.83;16;26.21;11.93;674.8;7.90;68687;4854.711;-13035.922;270;150;146.5;57;56.9;18;17.6;28.8;-1.0;
22/07/2019 01:27:13;117;0;229.58;16;26.36;10.78;669.6;7.90;68671;4854.711;-13035.922;270;150;146.5;57;57.1;18;17.1;28.8;-1.0;
22/07/2019 01:27:33;117;0;232.32;16;26.43;10.75;664.4;7.90;68675;4854.711;-13035.922;270;150;146.5;57;57.1;17;17.1;28.8;-1.0;
22/07/2019 01:27:53;117;0;236.14;16;26.26;10.76;659.2;7.80;68673;4854.711;-13035.922;270;150;146.5;57;56.9;15;14.9;28.9;-1.0;
22/07/2019 01:28:13;117;0;239.19;16;26.25;9.41;654.1;7.80;68669;4854.711;-13035.922;270;150;146.5;57;57.1;15;14.4;28.8;-1.0;
22/07/2019 01:28:33;117;0;238.39;16;26.35;9.47;648.9;7.80;68678;4854.711;-13035.922;270;150;146.5;57;57.1;17;17.6;28.8;-1.0;
22/07/2019 01:28:53;117;0;237.80;16;26.36;11.38;643.8;7.80;68668;4854.711;-13035.922;270;150;146.5;57;57.1;18;18.1;28.8;-1.0;
22/07/2019 01:29:13;117;0;240.63;16;26.07;11.71;638.6;7.80;68664;4854.711;-13035.922;270;150;146.5;57;57.1;16;15.8;28.8;-1.0;
22/07/2019 01:29:33;117;0;241.34;16;25.85;9.83;633.7;7.80;68663;4854.711;-13035.922;270;150;146.5;57;57.1;16;15.3;28.8;-1.0;
22/07/2019 01:29:53;117;0;242.64;16;25.82;9.84;628.8;7.80;68661;4854.711;-13035.922;270;150;144.6;57;56.9;16;15.3;28.8;-1.0;
22/07/2019 01:30:13;117;0;245.01;16;25.87;9.84;623.8;7.70;68658;4854.711;-13035.922;270;150;146.5;57;57.1;15;14.9;28.8;-1.0;
22/07/2019 01:30:33;117;0;245.28;16;25.92;9.20;618.6;7.70;68649;4854.711;-13035.922;270;150;146.5;57;57.1;15;14.0;28.8;-1.0;
22/07/2019 01:30:53;117;0;245.34;16;25.88;9.32;613.7;7.70;68660;4854.711;-13035.922;270;150;144.6;57;57.1;16;15.8;28.9;-1.0;
22/07/2019 01:31:13;117;0;246.70;16;25.82;10.51;608.7;7.70;68657;4854.711;-13035.922;270;150;146.5;57;56.9;15;14.4;28.8;-1.0;
22/07/2019 01:31:33;117;0;249.11;16;25.68;9.25;603.7;7.70;68650;4854.711;-13035.922;270;150;146.5;57;56.9;14;14.0;28.8;-1.0;
22/07/2019 01:31:53;117;0;252.04;16;25.69;9.21;598.8;7.70;68651;4854.711;-13035.922;270;150;146.5;57;56.9;13;12.6;28.8;-1.0;
22/07/2019 01:32:13;117;0;255.07;16;25.62;8.38;593.8;7.60;68655;4854.711;-13035.922;270;150;146.5;57;57.1;13;12.2;28.8;-1.0;
22/07/2019 01:32:33;117;0;256.54;16;25.50;8.39;588.9;7.70;68649;4854.711;-13035.922;270;150;146.5;57;56.9;13;12.2;28.8;-1.0;
22/07/2019 01:32:53;117;0;259.87;16;25.25;8.38;584.0;7.60;68656;4854.711;-13035.922;270;150;144.6;57;57.1;11;10.8;28.8;-1.0;
22/07/2019 01:33:13;117;0;259.58;16;25.51;7.47;579.0;7.60;68645;4854.711;-13035.922;270;150;146.5;57;57.1;12;12.6;28.8;-1.0;
22/07/2019 01:33:33;117;0;262.33;16;25.38;8.90;574.0;7.60;68644;4854.711;-13035.922;270;150;146.5;57;56.9;11;10.8;28.8;-1.0;
22/07/2019 01:33:53;117;0;263.93;16;25.33;7.49;569.2;7.60;68634;4854.711;-13035.922;270;150;146.5;57;56.9;10;9.9;28.8;-1.0;
22/07/2019 01:34:13;117;0;260.93;16;25.58;7.21;564.2;7.60;68640;4854.711;-13035.922;270;150;146.5;57;57.1;12;12.6;28.8;-1.0;
22/07/2019 01:34:33;117;0;260.78;16;25.46;8.92;559.2;7.60;68643;4854.711;-13035.922;270;150;146.5;57;57.1;12;13.1;28.8;-1.0;
22/07/2019 01:34:53;117;0;260.43;16;25.42;8.98;554.3;7.60;68645;4854.711;-13035.922;270;150;148.5;57;57.1;12;13.1;28.9;-1.0;
22/07/2019 01:35:13;117;0;260.24;16;25.30;8.92;549.4;7.60;68642;4854.711;-13035.922;270;150;146.5;57;56.9;11;10.8;28.8;-1.0;
22/07/2019 01:35:33;117;0;261.63;16;25.22;7.55;544.6;7.60;68637;4854.711;-13035.922;270;150;146.5;57;56.9;10;9.5;28.9;-1.0;
22/07/2019 01:35:53;117;0;261.07;16;25.19;7.02;539.7;7.60;68642;4854.711;-13035.922;270;150;148.5;57;57.1;10;9.0;28.8;-1.0;
22/07/2019 01:36:13;117;0;257.77;16;25.28;6.94;534.9;7.50;68637;4854.711;-13035.922;270;150;146.5;57;57.1;12;12.6;28.8;-1.0;
22/07/2019 01:36:33;117;0;260.00;16;24.96;8.94;530.1;7.50;68642;4854.711;-13035.922;270;150;146.5;57;57.1;10;9.5;28.8;-1.0;
22/07/2019 01:36:53;117;0;258.74;16;25.12;7.01;525.3;7.50;68629;4854.711;-13035.922;270;150;146.5;57;56.9;11;10.8;28.8;-1.0;
22/07/2019 01:37:13;117;0;260.29;16;24.69;8.13;520.4;7.50;68640;4854.711;-13035.922;270;150;146.5;57;57.1;9;9.0;28.8;-1.0;
22/07/2019 01:37:33;117;0;258.44;16;24.83;6.68;515.8;7.50;68643;4854.711;-13035.922;270;150;146.5;57;56.9;11;10.8;28.8;-1.0;
22/07/2019 01:37:53;117;0;258.46;16;24.74;8.05;511.2;7.50;68635;4854.711;-13035.922;270;150;146.5;57;57.1;10;9.9;28.8;-1.0;
22/07/2019 01:38:13;117;0;259.91;16;24.68;7.31;506.6;7.50;68647;4854.711;-13035.922;270;150;144.6;57;56.9;9;9.0;28.8;-1.0;
22/07/2019 01:38:33;117;0;260.64;16;24.79;6.66;501.9;7.50;68649;4854.711;-13035.922;270;150;146.5;57;57.1;9;8.6;28.8;-1.0;
22/07/2019 01:38:53;117;0;259.66;16;24.76;6.60;497.2;7.50;68648;4854.711;-13035.922;270;150;146.5;57;57.1;9;8.6;28.8;-1.0;
22/07/2019 01:39:13;117;0;259.40;16;24.89;6.71;492.7;7.50;68658;4854.711;-13035.922;270;150;146.5;57;56.9;9;8.6;28.8;-1.0;
22/07/2019 01:39:33;117;0;260.89;16;24.89;6.68;488.0;7.50;68656;4854.711;-13035.922;270;150;148.5;57;57.1;8;7.7;28.8;-1.0;
22/07/2019 01:39:53;117;0;262.03;16;24.90;6.01;483.2;7.50;68658;4854.711;-13035.922;270;150;146.5;57;56.9;7;7.2;28.8;-1.0;
22/07/2019 01:40:13;117;0;261.67;16;24.82;6.04;478.6;7.50;68651;4854.711;-13035.922;270;150;144.6;57;56.9;8;8.1;28.8;-1.0;
22/07/2019 01:40:33;117;0;258.85;16;24.78;6.88;474.0;7.50;68661;4854.711;-13035.922;270;150;146.5;57;56.9;9;9.0;28.8;-1.0;
22/07/2019 01:40:53;117;0;256.37;16;24.78;7.34;469.4;7.50;68661;4854.711;-13035.922;270;150;146.5;57;56.9;10;10.4;28.8;-1.0;
22/07/2019 01:41:13;117;0;253.83;16;24.83;8.01;464.8;7.50;68658;4854.711;-13035.922;270;150;146.5;57;57.1;10;10.8;28.8;-1.0;
22/07/2019 01:41:33;117;0;251.65;16;24.78;7.82;460.2;7.50;68657;4854.711;-13035.922;270;150;148.5;57;56.9;10;10.8;28.8;-1.0;
22/07/2019 01:41:53;117;0;250.46;16;24.50;7.94;455.7;7.50;68657;4854.711;-13035.922;270;150;146.5;57;57.1;11;10.8;28.8;-1.0;
22/07/2019 01:42:13;117;0;251.88;16;24.03;8.00;451.3;7.50;68666;4854.711;-13035.922;270;150;146.5;57;56.9;10;9.9;28.8;-1.0;
22/07/2019 01:42:33;117;0;253.07;16;23.99;7.21;447.0;7.50;68670;4854.711;-13035.922;270;150;146.5;57;56.9;10;9.5;28.8;-1.0;
22/07/2019 01:42:53;117;0;252.58;16;24.26;7.29;442.7;7.50;68666;4854.711;-13035.922;270;150;146.5;57;56.9;10;9.5;28.8;-1.0;
22/07/2019 01:43:13;117;0;251.46;16;24.18;7.24;438.3;7.50;68663;4854.711;-13035.922;270;150;148.5;57;57.1;10;9.5;28.9;-1.0;
22/07/2019 01:43:33;117;0;252.20;16;24.12;7.22;433.8;7.50;68665;4854.711;-13035.922;270;150;146.5;57;57.1;10;9.5;28.9;-1.0;
22/07/2019 01:43:53;117;0;251.11;16;24.04;7.22;429.5;7.50;68658;4854.711;-13035.922;270;150;146.5;57;56.9;10;9.5;28.9;-1.0;
22/07/2019 01:44:13;117;0;252.37;16;24.03;7.25;425.0;7.50;68671;4854.711;-13035.922;270;150;146.5;57;57.1;10;9.5;28.8;-1.0;
22/07/2019 01:44:33;117;0;253.86;16;23.89;7.26;420.7;7.50;68676;4854.711;-13035.922;270;150;146.5;57;57.1;10;9.5;28.8;-1.0;
22/07/2019 01:44:53;117;0;253.20;16;24.02;7.29;416.4;7.50;68692;4854.711;-13035.922;270;150;146.5;57;57.1;10;9.5;28.8;-1.0;
22/07/2019 01:45:13;117;0;251.24;16;24.11;7.28;412.0;7.50;68689;4854.711;-13035.922;270;150;146.5;57;57.1;10;9.5;28.8;-1.0;
22/07/2019 01:45:33;117;0;251.41;16;23.91;7.26;407.6;7.50;68687;4854.711;-13035.922;270;150;146.5;57;57.1;10;9.5;28.8;-1.0;
22/07/2019 01:45:53;117;0;250.61;16;23.82;7.27;403.4;7.50;68697;4854.711;-13035.922;270;150;146.5;57;57.1;11;10.8;28.8;-1.0;
22/07/2019 01:46:13;117;0;249.88;16;23.82;8.39;399.0;7.50;68691;4854.711;-13035.922;270;150;146.5;57;57.1;11;11.7;28.8;-1.0;
22/07/2019 01:46:33;117;0;250.66;16;23.58;8.40;394.7;7.60;68705;4854.711;-13035.922;270;150;146.5;57;56.9;10;9.9;28.8;-1.0;
22/07/2019 01:46:53;117;0;252.14;16;23.49;7.11;390.4;7.50;68703;4854.711;-13035.922;270;150;146.5;57;57.1;9;9.0;28.8;-1.0;
22/07/2019 01:47:13;117;0;251.17;16;23.59;7.10;386.3;7.60;68705;4854.711;-13035.922;270;150;148.5;57;56.9;10;9.9;28.8;-1.0;
22/07/2019 01:47:33;117;0;251.54;16;23.61;7.80;382.0;7.60;68706;4854.711;-13035.922;270;150;146.5;57;57.1;10;10.4;28.8;-1.0;
22/07/2019 01:47:53;117;0;250.38;16;23.67;7.76;377.8;7.60;68708;4854.711;-13035.922;270;150;146.5;57;56.9;11;10.8;28.8;-1.0;
22/07/2019 01:48:13;117;0;250.92;16;23.52;7.98;373.5;7.60;68712;4854.711;-13035.922;270;150;146.5;57;57.1;11;10.8;28.8;-1.0;
22/07/2019 01:48:33;117;0;253.53;16;23.13;8.00;369.4;7.60;68703;4854.711;-13035.922;270;150;146.5;57;56.9;11;10.8;28.8;-1.0;
22/07/2019 01:48:53;117;0;255.12;16;23.12;8.00;365.4;7.60;68719;4854.711;-13035.922;270;150;146.5;57;57.1;11;10.8;28.8;-1.0;
22/07/2019 01:49:13;117;0;255.29;16;23.32;7.96;361.3;7.60;68715;4854.711;-13035.922;270;150;146.5;57;57.1;11;10.8;28.8;-1.0;
22/07/2019 01:49:33;117;0;256.70;16;23.37;7.97;357.1;7.60;68718;4854.711;-13035.922;270;150;144.6;57;57.1;11;10.8;28.8;-1.0;
22/07/2019 01:49:53;117;0;256.83;16;23.58;8.04;353.0;7.60;68718;4854.711;-13035.922;270;150;144.6;57;57.1;11;10.8;28.8;-1.0;
22/07/2019 01:50:13;117;0;255.62;16;23.51;8.01;348.7;7.60;68722;4854.711;-13035.922;270;150;146.5;57;57.1;11;10.8;28.8;-1.0;
22/07/2019 01:50:33;117;0;257.89;16;23.21;7.98;344.4;7.60;68722;4854.711;-13035.922;270;150;146.5;57;56.9;9;8.6;28.8;-1.0;
22/07/2019 01:50:53;117;0;257.51;16;23.09;6.68;340.3;7.60;68735;4854.711;-13035.922;270;150;144.6;57;57.1;9;8.1;28.8;-1.0;
22/07/2019 01:51:13;117;0;256.26;16;23.22;6.66;336.2;7.60;68735;4854.711;-13035.922;270;150;146.5;57;56.9;10;10.4;28.9;-1.0;
22/07/2019 01:51:33;117;0;256.49;16;23.11;7.97;332.2;7.70;68731;4854.711;-13035.922;270;150;146.5;57;56.9;9;8.6;28.9;-1.0;
22/07/2019 01:51:53;117;0;255.56;16;23.16;6.68;328.0;7.70;68728;4854.711;-13035.922;270;150;146.5;57;57.1;10;9.9;28.8;-1.0;
22/07/2019 01:52:13;117;0;257.14;16;22.87;7.77;323.9;7.70;68731;4854.711;-13035.922;270;150;146.5;57;56.9;8;8.1;28.8;-1.0;
22/07/2019 01:52:33;117;0;255.22;16;23.21;6.37;319.8;7.70;68737;4854.711;-13035.922;270;150;146.5;57;56.9;10;9.9;28.9;-1.0;
22/07/2019 01:52:53;117;0;254.94;16;23.15;7.76;315.5;7.70;68740;4854.711;-13035.922;270;150;146.5;57;57.1;10;10.4;28.8;-1.0;
22/07/2019 01:53:13;117;0;254.46;16;23.01;7.73;311.3;7.70;68737;4854.711;-13035.922;270;150;146.5;57;56.9;10;10.4;28.8;-1.0;
22/07/2019 01:53:33;117;0;256.41;16;22.74;7.75;307.2;7.70;68744;4854.711;-13035.922;270;150;146.5;57;56.9;10;10.4;28.8;-1.0;
22/07/2019 01:53:53;117;0;259.67;16;22.50;7.73;303.2;7.70;68752;4854.711;-13035.922;270;150;146.5;57;57.1;7;7.2;28.9;-1.0;
22/07/2019 01:54:13;117;0;259.80;16;22.63;6.13;299.1;7.70;68746;4854.711;-13035.922;270;150;146.5;57;57.1;7;6.8;28.9;-1.0;
22/07/2019 01:54:33;117;0;262.16;16;22.09;6.28;295.0;7.70;68755;4854.711;-13035.922;270;150;148.5;57;57.1;6;5.4;28.8;-1.0;
22/07/2019 01:54:54;117;0;263.57;16;22.41;5.21;290.9;7.80;68765;4854.711;-13035.922;270;150;146.5;57;57.1;5;5.0;28.8;-1.0;
22/07/2019 01:55:14;117;0;261.08;16;22.90;4.97;286.8;7.80;68765;4854.711;-13035.922;270;150;148.5;57;57.1;7;7.2;28.9;-1.0;
22/07/2019 01:55:34;117;0;258.94;16;22.88;6.69;282.6;7.80;68775;4854.711;-13035.922;270;150;148.5;57;57.1;8;8.1;28.8;-1.0;
22/07/2019 01:55:54;117;0;257.84;16;22.74;6.69;278.3;7.80;68772;4854.711;-13035.922;270;150;146.5;57;56.9;8;8.1;28.8;-1.0;
22/07/2019 01:56:14;117;0;257.65;16;22.62;6.78;274.2;7.80;68769;4854.711;-13035.922;270;150;148.5;57;57.1;8;8.1;28.8;-1.0;
22/07/2019 01:56:34;117;0;260.22;16;22.39;6.68;270.1;7.80;68779;4854.711;-13035.922;270;150;148.5;57;56.9;5;5.0;28.8;-1.0;
22/07/2019 01:56:54;117;0;261.94;16;22.34;4.93;266.0;7.80;68784;4854.711;-13035.922;270;150;148.5;57;56.9;5;4.5;28.9;-1.0;
22/07/2019 01:57:14;117;0;259.82;16;22.57;5.02;261.9;7.80;68778;4854.711;-13035.922;270;150;148.5;57;56.9;6;5.9;28.8;-1.0;
22/07/2019 01:57:34;117;0;257.59;16;22.56;5.76;257.8;7.80;68793;4854.711;-13035.922;270;150;146.5;57;56.9;7;7.2;28.8;-1.0;
22/07/2019 01:57:54;117;0;257.52;16;22.32;6.63;253.7;7.90;68792;4854.711;-13035.922;270;150;148.5;57;56.9;7;8.1;28.9;-1.0;
22/07/2019 01:58:14;117;0;254.85;16;22.59;6.62;249.6;7.90;68789;4854.711;-13035.922;270;150;146.5;57;56.9;7;7.7;28.8;-1.0;
22/07/2019 01:58:34;117;0;254.55;16;22.47;6.85;245.6;7.90;68799;4854.711;-13035.922;270;150;146.5;57;56.9;7;7.7;28.9;-1.0;
22/07/2019 01:58:54;117;0;255.03;16;22.39;6.75;241.6;7.90;68803;4854.711;-13035.922;270;150;146.5;57;56.9;7;8.1;28.8;-1.0;
22/07/2019 01:59:14;117;0;257.01;16;22.28;6.75;237.6;7.90;68803;4854.711;-13035.922;270;150;146.5;57;57.1;5;5.0;28.9;-1.0;
22/07/2019 01:59:34;117;0;256.61;16;22.14;4.98;233.7;7.90;68812;4854.711;-13035.922;270;150;146.5;57;56.9;6;5.9;28.8;-1.0;
22/07/2019 01:59:54;117;0;255.30;16;22.06;5.82;229.8;7.90;68812;4854.711;-13035.922;270;150;146.5;57;56.9;7;7.2;28.8;-1.0;
22/07/2019 02:00:14;117;0;254.18;16;22.10;6.69;226.1;7.90;68808;4854.711;-13035.922;270;150;146.5;57;57.1;7;7.7;28.9;-1.0;
22/07/2019 02:00:34;117;0;254.57;16;21.96;6.60;222.1;8.00;68810;4854.711;-13035.922;270;150;146.5;57;57.1;7;7.7;28.9;-1.0;
22/07/2019 02:00:54;117;0;254.53;16;22.03;6.71;218.4;8.00;68811;4854.711;-13035.922;270;150;146.5;57;56.9;7;7.7;28.8;-1.0;
22/07/2019 02:01:14;117;0;255.34;16;21.82;6.65;214.6;8.00;68806;4854.711;-13035.922;270;150;146.5;57;57.1;7;7.7;28.8;-1.0;
22/07/2019 02:01:34;117;0;257.12;16;21.66;6.67;210.9;8.00;68811;4854.711;-13035.922;270;150;146.5;57;56.9;5;5.0;28.9;-1.0;
22/07/2019 02:01:54;117;0;254.79;16;22.09;4.98;207.2;8.00;68810;4854.711;-13035.922;270;150;146.5;57;57.1;5;4.5;28.8;-1.0;
22/07/2019 02:02:14;117;0;252.25;16;22.14;5.00;203.4;8.00;68812;4854.711;-13035.922;270;150;146.5;57;57.1;5;4.5;28.9;-1.0;
22/07/2019 02:02:34;117;0;249.91;16;22.07;4.94;199.7;8.00;68823;4854.711;-13035.922;270;150;148.5;57;56.9;9;9.0;28.8;-1.0;
22/07/2019 02:02:54;117;0;251.52;16;21.80;7.54;195.8;8.00;68822;4854.711;-13035.922;270;150;146.5;57;56.9;7;7.2;28.8;-1.0;
22/07/2019 02:03:14;117;0;249.35;16;22.02;6.30;192.1;8.00;68831;4854.711;-13035.922;270;150;146.5;57;57.1;8;8.1;28.8;-1.0;
22/07/2019 02:03:34;117;0;248.15;16;21.94;6.93;188.3;8.10;68822;4854.711;-13035.922;270;150;146.5;57;57.1;9;9.0;28.9;-1.0;
22/07/2019 02:03:54;117;0;251.35;16;21.47;7.66;184.6;8.10;68832;4854.711;-13035.922;270;150;146.5;57;57.1;7;7.2;28.8;-1.0;
22/07/2019 02:04:14;117;0;253.61;16;21.50;6.12;181.0;8.10;68838;4854.711;-13035.922;270;150;148.5;57;56.9;7;6.8;28.8;-1.0;
22/07/2019 02:04:34;117;0;252.30;16;21.70;6.13;177.3;8.10;68838;4854.711;-13035.922;270;150;146.5;57;56.9;7;7.2;28.9;-1.0;
22/07/2019 02:04:54;117;0;252.84;16;21.52;6.28;173.6;8.10;68848;4854.711;-13035.922;270;150;146.5;57;56.9;7;7.2;28.8;-1.0;
22/07/2019 02:05:14;117;0;253.98;16;21.25;6.28;170.1;8.10;68853;4854.711;-13035.922;270;150;146.5;57;57.1;7;7.2;28.9;-1.0;
22/07/2019 02:05:34;117;0;253.08;16;21.12;6.27;166.7;8.10;68848;4854.711;-13035.922;270;150;148.5;57;56.9;7;6.8;28.8;-1.0;
22/07/2019 02:05:54;117;0;254.61;16;20.90;6.24;163.4;8.10;68857;4854.711;-13035.922;270;150;146.5;57;57.1;7;6.8;28.9;-1.0;
22/07/2019 02:06:14;117;0;249.14;16;21.24;6.31;160.0;8.20;68865;4854.711;-13035.922;270;150;146.5;57;57.1;9;9.0;28.8;-1.0;
22/07/2019 02:06:34;117;0;251.53;16;20.69;7.58;156.5;8.20;68863;4854.711;-13035.922;270;150;148.5;57;56.9;8;8.1;28.8;-1.0;
22/07/2019 02:06:54;117;0;256.87;16;20.39;6.42;153.0;8.20;68868;4854.711;-13035.922;270;150;146.5;57;57.1;8;7.2;28.9;-1.0;
22/07/2019 02:07:14;117;0;254.08;16;20.81;6.40;149.5;8.20;68876;4854.711;-13035.922;270;150;146.5;57;57.1;8;7.2;28.8;-1.0;
22/07/2019 02:07:34;117;0;250.98;16;20.93;6.52;145.8;8.20;68875;4854.711;-13035.922;270;150;146.5;57;56.9;9;9.0;28.8;-1.0;
22/07/2019 02:07:54;117;0;255.45;16;19.84;7.60;142.1;8.20;68881;4854.711;-13035.922;270;150;146.5;57;57.1;9;9.9;28.9;-1.0;
22/07/2019 02:08:14;117;0;256.85;16;19.55;7.74;138.6;8.20;68867;4854.711;-13035.922;270;150;146.5;57;56.9;9;9.9;28.8;-1.0;
22/07/2019 02:08:34;117;0;260.78;16;19.07;7.80;135.3;8.20;68880;4854.711;-13035.922;270;150;146.5;57;57.1;4;3.6;28.8;-1.0;
22/07/2019 02:08:54;117;0;252.78;16;19.50;4.52;131.8;8.30;68873;4854.711;-13035.922;270;150;146.5;57;56.9;4;3.2;28.8;-1.0;
22/07/2019 02:09:14;117;0;245.46;16;19.25;4.55;128.4;8.30;68883;4854.711;-13035.922;270;150;146.5;57;57.1;12;12.2;28.8;-1.0;
22/07/2019 02:09:34;117;0;246.89;16;18.62;8.96;124.9;8.30;68869;4854.711;-13035.922;270;150;146.5;57;57.1;10;9.9;28.8;-1.0;
22/07/2019 02:09:54;117;0;253.90;16;18.02;7.59;121.6;8.30;68866;4854.711;-13035.922;270;150;146.5;57;57.1;10;9.0;28.8;-1.0;
22/07/2019 02:10:14;117;0;256.89;16;18.13;7.33;118.3;8.30;68866;4854.711;-13035.922;270;150;146.5;57;57.1;10;9.0;28.8;-1.0;
22/07/2019 02:10:34;117;0;258.83;16;17.49;7.30;115.0;8.30;68864;4854.711;-13035.922;270;150;146.5;57;56.9;5;5.0;28.8;-1.0;
22/07/2019 02:10:54;117;0;258.87;16;17.12;5.15;111.8;8.30;68864;4854.711;-13035.922;270;150;146.5;57;56.9;6;5.9;28.8;-1.0;
22/07/2019 02:11:14;117;0;261.17;16;16.91;6.31;108.8;8.30;68860;4854.711;-13035.922;270;150;146.5;57;57.1;4;4.1;28.9;-1.0;
22/07/2019 02:11:34;117;0;258.46;16;16.94;4.51;105.6;8.30;68860;4854.711;-13035.922;270;150;146.5;57;56.9;6;5.9;28.9;-1.0;
22/07/2019 02:11:54;117;0;256.29;16;16.66;6.38;102.6;8.40;68856;4854.711;-13035.922;270;150;146.5;57;56.9;7;7.2;28.8;-1.0;
22/07/2019 02:12:14;117;0;261.21;16;16.14;6.96;99.7;8.40;68855;4854.711;-13035.922;270;150;146.5;57;57.1;4;4.1;28.9;-1.0;
22/07/2019 02:12:34;117;0;263.00;16;16.28;4.61;97.0;8.40;68850;4854.711;-13035.922;270;150;146.5;57;57.1;3;3.2;28.9;-1.0;
22/07/2019 02:12:54;117;0;263.24;16;16.02;4.52;94.3;8.40;68850;4854.711;-13035.922;270;150;146.5;57;57.1;3;3.2;28.8;-1.0;
22/07/2019 02:13:14;117;0;258.85;16;15.49;4.44;91.5;8.40;68852;4854.711;-13035.922;270;150;146.5;57;56.9;6;6.3;28.8;-1.0;
22/07/2019 02:13:34;117;0;262.35;16;14.98;6.47;89.0;8.40;68859;4854.711;-13035.922;270;150;146.5;57;56.9;3;3.2;28.8;-1.0;
22/07/2019 02:13:54;117;0;267.30;16;14.56;4.40;86.6;8.40;68875;4854.711;-13035.922;270;150;148.5;57;56.9;0;-0.5;28.8;-1.0;
22/07/2019 02:14:14;117;0;266.21;16;14.35;2.53;84.3;8.40;68878;4854.711;-13035.922;270;150;146.5;57;57.1;1;0.9;28.8;-1.0;
22/07/2019 02:14:34;117;0;266.73;16;14.06;3.86;82.2;8.40;68885;4854.711;-13035.922;270;150;146.5;57;57.1;1;1.8;28.8;-1.0;
22/07/2019 02:14:54;117;0;265.48;16;14.16;3.81;80.1;8.40;68897;4854.711;-13035.922;270;150;146.5;57;57.1;1;1.8;28.8;-1.0;
22/07/2019 02:15:14;117;0;259.33;16;13.83;3.79;78.0;8.50;68914;4854.711;-13035.922;270;150;146.5;57;57.1;4;4.1;28.8;-1.0;
22/07/2019 02:15:34;117;0;256.65;16;13.62;5.17;76.1;8.50;68916;4854.711;-13035.922;270;150;146.5;57;57.1;5;5.0;28.8;-1.0;
22/07/2019 02:15:54;117;0;259.52;16;13.51;5.99;74.1;8.50;68943;4854.711;-13035.922;270;150;146.5;57;56.9;2;1.4;28.8;-1.0;
22/07/2019 02:16:14;117;0;263.39;16;13.38;3.55;72.2;8.50;68943;4854.711;-13035.922;270;150;146.5;57;57.1;0;0.0;28.8;-1.0;
22/07/2019 02:16:34;117;0;263.04;16;13.28;2.73;70.4;8.50;68961;4854.711;-13035.922;270;150;146.5;57;56.9;0;-0.5;28.8;-1.0;
22/07/2019 02:16:54;117;0;258.69;16;13.26;2.71;68.4;8.60;68972;4854.711;-13035.922;270;150;146.5;57;57.1;3;3.2;28.9;-1.0;
22/07/2019 02:17:14;117;0;257.61;16;13.00;4.99;66.6;8.60;68993;4854.711;-13035.922;270;150;146.5;57;56.9;2;1.8;28.8;-1.0;
