Timestamp;NavState;SecurityLevel;Heading;Declination;Pitch;Roll;Depth;Temperature;Pa;Lat;Lon;DesiredH;BallastCmd;BallastPos;LinCmd;LinPos;AngCmd;AngPos;Voltage;Altitude;
22/07/2019 16:38:26;117;0;129.97;16;7.62;3.92;9.3;10.70;69972;4854.474;-13038.632;140;150;162.4;57;56.9;0;0.9;28.7;-1.0;
22/07/2019 16:38:36;115;0;131.17;16;8.94;3.66;8.7;10.80;69977;4854.474;-13038.632;140;300;172.3;100;100.0;0;0.9;28.7;-1.0;
22/07/2019 16:38:46;115;0;120.08;16;-31.46;5.12;8.1;10.80;69917;4854.474;-13038.632;140;300;305.0;100;100.1;0;0.9;28.4;-1.0;
22/07/2019 16:38:56;115;0;106.64;16;-69.45;5.76;8.5;10.90;69761;4854.474;-13038.632;140;300;305.0;100;100.1;0;0.9;28.7;-1.0;
22/07/2019 16:39:06;115;0;120.69;16;-53.79;3.56;6.6;10.90;69776;4854.474;-13038.632;140;300;306.9;100;100.1;0;0.9;28.7;-1.0;
22/07/2019 16:39:16;116;0;148.57;16;-38.40;-2.56;3.6;11.00;69802;4854.474;-13038.632;140;300;310.9;100;100.0;0;0.9;28.7;-1.0;
22/07/2019 16:39:36;116;0;220.75;16;-7.44;0.34;2.5;11.10;69800;4854.474;-13038.632;140;300;310.9;100;99.9;0;0.9;28.7;-1.0;
22/07/2019 16:39:56;116;0;206.61;16;-17.87;1.59;2.7;11.20;69814;4854.474;-13038.632;140;300;310.9;100;99.9;0;0.9;28.7;-1.0;
22/07/2019 16:40:16;116;0;212.35;16;-21.90;5.39;2.6;11.30;69834;4854.474;-13038.632;140;300;310.9;100;99.9;0;0.9;28.7;-1.0;
22/07/2019 16:40:36;116;0;204.74;16;-29.19;0.67;2.8;11.40;69840;4854.474;-13038.632;140;300;310.9;100;100.0;0;0.9;28.7;-1.0;
22/07/2019 16:40:56;116;0;191.96;16;-25.85;5.19;2.8;11.50;69863;4853.781;-13035.854;140;300;312.9;100;99.9;0;0.9;28.7;-1.0;
22/07/2019 16:41:16;116;0;211.07;16;-33.20;3.84;2.8;11.60;69872;4853.780;-13035.834;140;300;310.9;100;100.0;0;0.9;28.7;-1.0;
22/07/2019 16:42:46;116;0;240.80;16;-32.26;0.57;3.0;12.10;69924;4853.780;-13035.834;140;300;310.9;100;100.0;0;0.9;28.7;-1.0;
22/07/2019 16:43:06;116;0;210.43;16;-30.94;-4.05;2.9;12.20;69933;4853.780;-13035.829;140;300;308.9;100;100.0;0;0.9;28.7;-1.0;
22/07/2019 16:43:26;116;0;190.74;16;-16.48;8.04;2.7;12.30;69934;4853.776;-13035.757;140;300;308.9;100;100.0;0;0.9;28.7;-1.0;
22/07/2019 16:49:04;116;0;222.05;16;-16.58;1.63;2.6;13.80;70071;4853.777;-13035.756;140;300;308.9;100;100.0;0;0.9;28.7;-1.0;
22/07/2019 16:49:24;116;0;211.51;16;-4.22;3.46;2.5;13.80;70065;4853.777;-13035.753;140;300;310.9;100;99.9;0;0.9;28.7;-1.0;
22/07/2019 16:49:44;116;0;216.08;16;-16.28;4.10;2.6;13.90;70069;4853.774;-13035.748;140;300;310.9;100;100.0;0;0.9;28.7;-1.0;
22/07/2019 16:50:05;116;0;219.17;16;-35.15;-0.49;2.9;14.00;70088;4853.773;-13035.748;140;300;310.9;100;100.0;0;0.9;28.7;-1.0;
22/07/2019 16:50:25;116;0;221.51;16;-32.11;5.46;2.9;14.10;70092;4853.773;-13035.743;140;300;308.9;100;100.0;0;0.9;28.7;-1.0;
22/07/2019 16:50:45;116;0;224.75;16;-32.02;1.09;2.7;14.10;70098;4853.773;-13035.738;140;300;308.9;100;100.0;0;0.9;28.7;-1.0;
22/07/2019 16:51:05;116;0;234.49;16;-30.09;0.62;2.8;14.20;70110;4853.772;-13035.733;140;300;308.9;100;100.0;0;0.9;28.7;-1.0;
22/07/2019 16:51:25;116;0;223.86;16;-12.08;2.66;2.6;14.30;70109;4853.771;-13035.728;140;300;308.9;100;100.0;0;0.9;28.7;-1.0;
22/07/2019 16:51:45;116;0;223.79;16;-23.02;3.66;2.6;14.30;70107;4853.772;-13035.725;140;300;310.9;100;100.0;0;0.9;28.8;-1.0;
22/07/2019 16:52:05;116;0;218.12;16;-39.06;1.54;3.1;14.40;70116;4853.771;-13035.721;140;300;308.9;100;100.0;0;0.9;28.7;-1.0;
22/07/2019 16:52:25;116;0;204.24;16;-27.11;1.63;2.6;14.50;70126;4853.771;-13035.716;140;300;310.9;100;100.0;0;0.9;28.7;-1.0;
22/07/2019 16:52:45;116;0;230.99;16;-7.44;10.28;2.6;14.50;70126;4853.770;-13035.712;140;300;310.9;100;100.0;0;0.9;28.7;-1.0;
22/07/2019 16:53:05;110;0;202.69;16;-13.19;4.93;2.6;14.60;70127;4853.770;-13035.712;140;-500;205.9;100;99.9;0;0.9;28.7;-1.0;
22/07/2019 16:53:15;110;0;193.89;16;-7.16;0.09;2.5;14.60;70370;4853.770;-13035.712;140;-500;61.4;100;99.9;0;0.9;28.6;-1.0;
22/07/2019 16:53:25;110;0;185.78;16;-16.69;2.44;2.6;14.60;70558;4853.770;-13035.712;140;-500;-99.0;100;100.0;0;0.9;28.6;-1.0;
22/07/2019 16:53:35;110;0;197.86;16;-39.35;-0.47;3.3;14.60;70819;4853.770;-13035.712;140;-500;-297.0;94;94.0;0;0.9;28.7;-1.0;
22/07/2019 16:53:45;110;0;193.35;16;-59.61;1.81;5.2;14.70;71144;4853.770;-13035.712;140;-500;-499.0;82;81.7;0;0.9;28.6;-1.0;
22/07/2019 16:53:55;110;0;211.30;16;-50.16;6.04;8.3;14.70;71472;4853.770;-13035.712;140;-500;-499.0;70;70.0;0;0.9;28.7;-1.0;
22/07/2019 16:54:05;100;0;200.39;16;-39.08;3.93;12.2;14.70;71450;4853.770;-13035.712;140;-500;-499.0;70;69.9;0;0.9;28.6;-1.0;
22/07/2019 16:54:25;100;0;189.48;16;-29.35;3.91;18.6;14.80;71454;4853.770;-13035.712;140;-500;-501.0;70;69.9;37;37.0;28.7;0.0;
22/07/2019 16:54:45;100;0;174.05;16;-23.25;20.50;24.3;14.80;71461;4853.770;-13035.712;140;-500;-499.0;70;69.7;20;19.9;28.7;0.0;
22/07/2019 16:55:05;100;0;160.08;16;-24.71;11.79;28.5;14.80;71410;4853.770;-13035.712;140;-500;-497.0;70;69.7;10;9.5;28.7;0.0;
22/07/2019 16:55:25;100;0;154.37;16;-24.74;7.18;32.9;14.80;71345;4853.770;-13035.712;140;-500;-499.0;70;69.7;8;8.1;28.7;0.0;
22/07/2019 16:55:45;100;0;142.13;16;-23.94;6.49;37.1;14.80;71257;4853.770;-13035.712;140;-500;-497.0;70;69.7;4;4.1;28.7;0.0;
22/07/2019 16:56:05;100;0;129.68;16;-24.26;4.50;40.8;14.70;71163;4853.770;-13035.712;140;-500;-497.0;70;69.7;0;0.0;28.7;0.0;
22/07/2019 16:56:25;100;0;128.79;16;-24.68;2.70;45.0;14.70;71084;4853.770;-13035.712;140;-500;-497.0;70;69.7;3;3.2;28.7;0.0;
22/07/2019 16:56:45;100;0;115.86;16;-23.34;4.75;49.0;14.60;71009;4853.770;-13035.712;140;-500;-497.0;70;69.7;3;3.6;28.7;0.0;
22/07/2019 16:57:05;100;0;106.10;16;-24.13;4.75;52.8;14.60;70933;4853.770;-13035.712;140;-500;-497.0;70;69.7;-4;-4.5;28.7;0.0;
22/07/2019 16:57:25;100;0;99.19;16;-24.10;0.88;56.9;14.50;70885;4853.770;-13035.712;140;-500;-497.0;70;69.7;-5;-5.0;28.7;0.0;
22/07/2019 16:57:45;100;0;91.58;16;-24.15;1.01;60.9;14.40;70828;4853.770;-13035.712;140;-500;-497.0;70;69.7;-7;-7.7;28.8;0.0;
22/07/2019 16:58:05;100;0;82.29;16;-24.04;-0.36;64.9;14.30;70758;4853.770;-13035.712;140;-500;-499.0;70;69.7;-10;-10.4;28.7;0.0;
22/07/2019 16:58:25;100;0;82.84;16;-23.86;-1.80;68.9;14.20;70711;4853.770;-13035.712;140;-500;-499.0;70;69.7;-7;-7.2;28.7;0.0;
22/07/2019 16:58:45;100;0;73.75;16;-23.89;0.41;72.9;14.20;70663;4853.770;-13035.712;140;-500;-497.0;70;69.7;-13;-13.1;28.7;0.0;
22/07/2019 16:59:05;100;0;76.88;16;-23.01;-2.82;76.8;14.10;70607;4853.770;-13035.712;140;-500;-497.0;70;69.7;-10;-9.9;28.7;0.0;
22/07/2019 16:59:25;100;0;77.09;16;-23.17;-0.97;80.7;14.00;70580;4853.770;-13035.712;140;-500;-497.0;70;69.7;-11;-11.3;28.7;0.0;
22/07/2019 16:59:45;100;0;75.55;16;-23.15;-2.04;84.6;13.90;70543;4853.770;-13035.712;140;-500;-497.0;70;69.7;-14;-14.0;28.7;0.0;
22/07/2019 17:00:05;100;0;66.29;16;-23.14;-3.45;88.5;13.80;70504;4853.770;-13035.712;140;-500;-497.0;70;69.7;-21;-21.2;28.7;0.0;
22/07/2019 17:00:25;100;0;69.58;16;-22.28;-6.65;92.3;13.70;70475;4853.770;-13035.712;140;-500;-497.0;70;69.7;-19;-19.0;28.7;0.0;
22/07/2019 17:00:45;100;0;69.74;16;-22.53;-4.95;95.7;13.70;70464;4853.770;-13035.712;140;-500;-495.0;70;69.7;-21;-21.2;28.7;0.0;
22/07/2019 17:01:05;100;0;70.45;16;-22.56;-6.72;99.1;13.60;70438;4853.770;-13035.712;140;-500;-497.0;70;69.7;-23;-23.0;28.7;0.0;
22/07/2019 17:01:25;100;0;73.06;16;-22.46;-7.42;102.4;13.50;70423;4853.770;-13035.712;140;-500;-497.0;70;69.7;-23;-23.5;28.7;0.0;
22/07/2019 17:01:45;100;0;77.07;16;-21.40;-7.25;105.8;13.40;70409;4853.770;-13035.712;140;-500;-495.0;70;69.7;-22;-22.1;28.7;0.0;
22/07/2019 17:02:05;100;0;73.86;16;-21.18;-6.46;109.1;13.40;70391;4853.770;-13035.712;140;-500;-497.0;70;69.7;-25;-24.8;28.7;0.0;
22/07/2019 17:02:25;100;0;69.62;16;-21.52;-8.26;112.4;13.30;70395;4853.770;-13035.712;140;-500;-495.0;70;69.7;-27;-27.5;28.7;0.0;
22/07/2019 17:02:45;100;0;67.66;16;-21.52;-9.48;115.5;13.20;70392;4853.770;-13035.712;140;-500;-495.0;70;69.7;-27;-27.5;28.7;0.0;
22/07/2019 17:03:05;100;0;72.47;16;-21.06;-9.50;118.7;13.10;70385;4853.770;-13035.712;140;-500;-497.0;70;69.7;-24;-23.5;28.7;0.0;
22/07/2019 17:03:25;100;0;71.28;16;-21.07;-7.29;121.9;13.10;70365;4853.770;-13035.712;140;-500;-495.0;70;69.6;-25;-24.8;28.7;0.0;
22/07/2019 17:03:45;100;0;75.73;16;-20.76;-8.33;125.3;13.00;70366;4853.770;-13035.712;140;-500;-495.0;70;69.7;-23;-23.0;28.7;0.0;
22/07/2019 17:04:05;100;0;80.03;16;-20.55;-6.90;128.6;13.00;70356;4853.770;-13035.712;140;-500;-495.0;70;69.7;-21;-20.8;28.7;0.0;
22/07/2019 17:04:25;100;0;85.19;16;-20.08;-6.07;131.8;12.90;70341;4853.770;-13035.712;140;-500;-497.0;70;69.6;-19;-19.0;28.7;0.0;
22/07/2019 17:04:45;100;0;83.56;16;-20.08;-5.09;134.9;12.80;70345;4853.770;-13035.712;140;-500;-495.0;70;69.7;-22;-22.1;28.7;0.0;
22/07/2019 17:05:05;100;0;81.35;16;-20.10;-6.98;138.1;12.80;70334;4853.770;-13035.712;140;-500;-495.0;70;69.6;-23;-23.0;28.7;0.0;
22/07/2019 17:05:25;100;0;80.66;16;-20.03;-7.57;141.0;12.70;70334;4853.770;-13035.712;140;-500;-495.0;70;69.7;-24;-23.9;28.7;0.0;
22/07/2019 17:05:45;100;0;81.90;16;-20.21;-7.89;143.9;12.70;70329;4853.770;-13035.712;140;-500;-497.0;70;69.7;-23;-23.0;28.7;0.0;
22/07/2019 17:06:05;100;0;81.61;16;-20.05;-6.96;146.6;12.60;70322;4853.770;-13035.712;140;-500;-495.0;70;69.7;-23;-22.1;28.7;0.0;
22/07/2019 17:06:25;100;0;81.59;16;-19.86;-7.04;149.4;12.60;70317;4853.770;-13035.712;140;-500;-495.0;70;69.6;-23;-22.1;28.7;0.0;
22/07/2019 17:06:45;100;0;81.17;16;-19.82;-6.95;152.1;12.50;70320;4853.770;-13035.712;140;-500;-495.0;70;69.7;-23;-22.1;28.7;0.0;
22/07/2019 17:07:05;100;0;82.19;16;-19.75;-7.03;154.7;12.50;70310;4853.770;-13035.712;140;-500;-497.0;70;69.6;-22;-22.1;28.7;0.0;
22/07/2019 17:07:25;100;0;83.43;16;-19.66;-7.02;157.5;12.40;70289;4853.770;-13035.712;140;-500;-495.0;70;69.7;-22;-22.1;28.7;0.0;
22/07/2019 17:07:45;100;0;81.04;16;-19.72;-6.99;160.1;12.40;70293;4853.770;-13035.712;140;-500;-495.0;70;69.6;-23;-23.0;28.7;0.0;
22/07/2019 17:08:05;100;0;77.86;16;-20.06;-7.64;162.9;12.30;70293;4853.770;-13035.712;140;-500;-497.0;70;69.7;-26;-26.6;28.7;0.0;
22/07/2019 17:08:25;100;0;78.45;16;-20.07;-9.43;165.7;12.30;70285;4853.770;-13035.712;140;-500;-495.0;70;69.7;-24;-23.5;28.7;0.0;
22/07/2019 17:08:45;100;0;78.67;16;-18.98;-7.37;168.7;12.20;70280;4853.770;-13035.712;140;-500;-495.0;70;69.7;-24;-23.0;28.7;0.0;
22/07/2019 17:09:05;100;0;81.38;16;-19.51;-7.35;171.7;12.20;70278;4853.770;-13035.712;140;-500;-495.0;70;69.7;-22;-21.7;28.7;0.0;
22/07/2019 17:09:25;100;0;82.59;16;-19.86;-6.08;174.5;12.10;70271;4853.770;-13035.712;140;-500;-495.0;70;69.7;-22;-21.2;28.7;0.0;
22/07/2019 17:09:45;100;0;85.57;16;-19.59;-6.48;177.6;12.10;70269;4853.770;-13035.712;140;-500;-497.0;70;69.7;-21;-21.2;28.7;0.0;
22/07/2019 17:10:05;100;0;88.47;16;-19.39;-6.47;180.4;12.00;70263;4853.770;-13035.712;140;-500;-495.0;70;69.7;-20;-19.9;28.7;0.0;
22/07/2019 17:10:25;100;0;89.09;16;-19.31;-5.61;183.4;12.00;70262;4853.770;-13035.712;140;-500;-495.0;70;69.7;-20;-19.4;28.7;0.0;
22/07/2019 17:10:45;100;0;88.99;16;-19.09;-5.61;186.3;11.90;70254;4853.770;-13035.712;140;-500;-495.0;70;69.6;-21;-21.2;28.7;0.0;
22/07/2019 17:11:05;100;0;89.10;16;-18.76;-6.60;189.2;11.90;70240;4853.770;-13035.712;140;-500;-495.0;70;69.7;-21;-21.7;28.7;0.0;
22/07/2019 17:11:25;100;0;89.51;16;-19.12;-6.53;191.9;11.80;70236;4853.770;-13035.712;140;-500;-495.0;70;69.6;-21;-21.2;28.7;0.0;
22/07/2019 17:11:45;100;0;90.84;16;-19.30;-6.70;194.7;11.80;70245;4853.770;-13035.712;140;-500;-495.0;70;69.7;-21;-21.2;28.7;0.0;
22/07/2019 17:12:05;100;0;91.42;16;-19.26;-6.67;197.4;11.70;70231;4853.770;-13035.712;140;-500;-495.0;70;69.7;-20;-19.9;28.7;0.0;
22/07/2019 17:12:25;100;0;90.83;16;-18.84;-5.51;200.1;11.70;70234;4853.770;-13035.712;140;-500;-495.0;70;69.7;-21;-21.7;28.7;0.0;
22/07/2019 17:12:45;100;0;90.66;16;-18.93;-6.86;202.8;11.60;70219;4853.770;-13035.712;140;-500;-495.0;70;69.7;-21;-22.1;28.7;0.0;
22/07/2019 17:13:05;100;0;92.17;16;-19.01;-6.96;205.4;11.60;70212;4853.770;-13035.712;140;-500;-495.0;70;69.6;-20;-19.4;28.7;0.0;
22/07/2019 17:13:25;100;0;93.67;16;-18.94;-5.39;208.1;11.50;70197;4853.770;-13035.712;140;-500;-495.0;70;69.7;-20;-19.0;28.7;0.0;
22/07/2019 17:13:45;100;0;94.36;16;-18.80;-5.41;210.7;11.50;70193;4853.770;-13035.712;140;-500;-495.0;70;69.7;-20;-19.0;28.7;0.0;
22/07/2019 17:14:05;100;0;96.10;16;-18.78;-5.37;213.3;11.50;70195;4853.770;-13035.712;140;-500;-497.0;70;69.7;-19;-19.0;28.7;0.0;
22/07/2019 17:14:25;100;0;97.57;16;-18.87;-5.41;215.7;11.40;70190;4853.770;-13035.712;140;-500;-495.0;70;69.7;-19;-18.5;28.7;0.0;
22/07/2019 17:14:45;100;0;98.39;16;-18.88;-5.39;218.3;11.40;70174;4853.770;-13035.712;140;-500;-495.0;70;69.7;-19;-18.5;28.7;0.0;
22/07/2019 17:15:05;100;0;99.07;16;-18.83;-5.38;220.8;11.30;70172;4853.770;-13035.712;140;-500;-495.0;70;69.7;-18;-17.6;28.7;0.0;
22/07/2019 17:15:25;100;0;98.67;16;-18.84;-4.56;223.2;11.30;70173;4853.770;-13035.712;140;-500;-495.0;70;69.7;-19;-19.0;28.7;0.0;
22/07/2019 17:15:45;100;0;98.30;16;-18.82;-5.68;225.7;11.20;70168;4853.770;-13035.712;140;-500;-497.0;70;69.7;-19;-19.4;28.7;0.0;
22/07/2019 17:16:05;100;0;97.31;16;-18.71;-5.60;228.1;11.20;70157;4853.770;-13035.712;140;-500;-495.0;70;69.6;-20;-19.9;28.7;0.0;
22/07/2019 17:16:25;100;0;96.64;16;-18.73;-6.12;230.6;11.20;70151;4853.770;-13035.712;140;-500;-495.0;70;69.7;-20;-20.3;28.7;0.0;
22/07/2019 17:16:45;100;0;94.40;16;-18.87;-6.15;233.1;11.10;70151;4853.770;-13035.712;140;-500;-495.0;70;69.6;-21;-21.2;28.7;0.0;
22/07/2019 17:17:05;100;0;96.26;16;-18.64;-6.72;235.7;11.10;70149;4853.770;-13035.712;140;-500;-495.0;70;69.6;-20;-19.9;28.7;0.0;
22/07/2019 17:17:25;100;0;95.89;16;-18.66;-5.51;238.1;11.10;70149;4853.770;-13035.712;140;-500;-495.0;70;69.7;-20;-19.4;28.7;0.0;
22/07/2019 17:17:45;100;0;95.09;16;-18.59;-5.58;240.7;11.00;70129;4853.770;-13035.712;140;-500;-495.0;70;69.7;-20;-19.0;28.7;0.0;
22/07/2019 17:18:05;100;0;93.05;16;-18.73;-5.51;243.1;11.00;70129;4853.770;-13035.712;140;-500;-495.0;70;69.7;-21;-21.7;28.7;0.0;
22/07/2019 17:18:25;100;0;92.75;16;-18.63;-6.96;245.7;10.90;70123;4853.770;-13035.712;140;-500;-497.0;70;69.6;-21;-22.1;28.7;0.0;
22/07/2019 17:18:45;100;0;91.56;16;-18.56;-6.87;248.3;10.90;70125;4853.770;-13035.712;140;-500;-495.0;70;69.7;-22;-22.1;28.7;0.0;
22/07/2019 17:19:06;100;0;92.26;16;-18.78;-6.90;250.8;10.90;70121;4853.770;-13035.712;140;-500;-495.0;70;69.7;-21;-20.8;28.7;0.0;
22/07/2019 17:19:26;100;0;91.09;16;-18.74;-5.98;253.4;10.80;70123;4853.770;-13035.712;140;-500;-495.0;70;69.7;-21;-20.3;28.7;0.0;
22/07/2019 17:19:46;100;0;91.28;16;-18.49;-6.07;256.0;10.80;70099;4853.770;-13035.712;140;-500;-495.0;70;69.7;-21;-20.3;28.7;0.0;
22/07/2019 17:20:06;100;0;92.21;16;-18.60;-6.05;258.6;10.80;70098;4853.770;-13035.712;140;-500;-495.0;70;69.7;-20;-19.9;28.7;0.0;
22/07/2019 17:20:26;100;0;91.10;16;-18.64;-6.04;261.0;10.70;70107;4853.770;-13035.712;140;-500;-495.0;70;69.7;-21;-21.2;28.7;0.0;
22/07/2019 17:20:46;100;0;90.93;16;-18.61;-6.79;263.6;10.70;70095;4853.770;-13035.712;140;-500;-495.0;70;69.6;-22;-22.1;28.7;0.0;
22/07/2019 17:21:06;100;0;91.39;16;-18.53;-7.26;266.2;10.70;70088;4853.770;-13035.712;140;-500;-495.0;70;69.6;-21;-20.8;28.7;0.0;
22/07/2019 17:21:26;100;0;91.76;16;-18.53;-6.09;268.6;10.60;70091;4853.770;-13035.712;140;-500;-495.0;70;69.7;-21;-20.3;28.8;0.0;
22/07/2019 17:21:46;100;0;92.22;16;-18.57;-6.06;271.1;10.60;70097;4853.770;-13035.712;140;-500;-495.0;70;69.6;-20;-19.9;28.7;0.0;
22/07/2019 17:22:06;100;0;93.14;16;-18.39;-5.45;273.6;10.60;70086;4853.770;-13035.712;140;-500;-495.0;70;69.6;-20;-19.0;28.7;0.0;
22/07/2019 17:22:26;100;0;93.75;16;-18.41;-5.46;276.1;10.60;70083;4853.770;-13035.712;140;-500;-495.0;70;69.7;-20;-19.0;28.7;0.0;
22/07/2019 17:22:46;100;0;94.17;16;-18.51;-5.43;278.6;10.50;70069;4853.770;-13035.712;140;-500;-495.0;70;69.7;-20;-19.0;28.7;0.0;
22/07/2019 17:23:06;100;0;94.92;16;-18.46;-5.47;281.1;10.50;70073;4853.770;-13035.712;140;-500;-493.1;70;69.6;-20;-19.0;28.7;0.0;
22/07/2019 17:23:26;100;0;95.28;16;-18.50;-5.42;283.5;10.40;70074;4853.770;-13035.712;140;-500;-495.0;70;69.6;-20;-19.0;28.7;0.0;
22/07/2019 17:23:46;100;0;95.71;16;-18.42;-5.51;286.0;10.40;70065;4853.770;-13035.712;140;-500;-495.0;70;69.7;-20;-19.0;28.7;0.0;
22/07/2019 17:24:06;100;0;94.74;16;-18.41;-5.47;288.3;10.40;70070;4853.770;-13035.712;140;-500;-495.0;70;69.7;-21;-21.2;28.7;0.0;
22/07/2019 17:24:26;100;0;95.14;16;-18.40;-6.88;290.9;10.40;70060;4853.770;-13035.712;140;-500;-495.0;70;69.7;-20;-19.9;28.7;0.0;
22/07/2019 17:24:46;100;0;96.61;16;-18.35;-5.67;293.2;10.30;70063;4853.770;-13035.712;140;-500;-495.0;70;69.6;-19;-19.0;28.7;0.0;
22/07/2019 17:25:06;100;0;97.08;16;-18.30;-5.06;295.7;10.30;70052;4853.770;-13035.712;140;-500;-495.0;70;69.6;-19;-18.1;28.7;0.0;
22/07/2019 17:25:26;100;0;97.12;16;-18.26;-5.07;298.0;10.30;70050;4853.770;-13035.712;140;-500;-495.0;70;69.6;-19;-18.1;28.7;0.0;
22/07/2019 17:25:46;100;0;97.12;16;-18.30;-5.07;300.3;10.20;70049;4853.770;-13035.712;140;-500;-495.0;70;69.7;-20;-19.9;28.7;0.0;
22/07/2019 17:26:06;100;0;97.42;16;-18.23;-6.13;302.7;10.20;70048;4853.770;-13035.712;140;-500;-495.0;70;69.6;-20;-20.3;28.7;0.0;
22/07/2019 17:26:26;100;0;97.26;16;-18.28;-6.11;305.0;10.20;70040;4853.770;-13035.712;140;-500;-495.0;70;69.6;-20;-20.3;28.7;0.0;
22/07/2019 17:26:46;100;0;97.96;16;-18.39;-6.15;307.3;10.20;70040;4853.770;-13035.712;140;-500;-495.0;70;69.7;-20;-20.3;28.7;0.0;
22/07/2019 17:27:06;100;0;97.90;16;-18.19;-6.14;309.7;10.20;70045;4853.770;-13035.712;140;-500;-495.0;70;69.7;-20;-20.3;28.7;0.0;
22/07/2019 17:27:26;100;0;99.69;16;-18.18;-6.20;312.0;10.10;70028;4853.770;-13035.712;140;-500;-495.0;70;69.6;-19;-19.0;28.7;0.0;
22/07/2019 17:27:46;100;0;99.74;16;-18.25;-5.31;314.3;10.10;70032;4853.770;-13035.712;140;-500;-495.0;70;69.7;-19;-18.5;28.7;0.0;
22/07/2019 17:28:06;100;0;98.87;16;-18.06;-5.27;316.5;10.10;70031;4853.770;-13035.712;140;-500;-493.1;70;69.7;-20;-19.9;28.7;0.0;
22/07/2019 17:28:26;100;0;97.93;16;-18.02;-6.12;318.7;10.00;70024;4853.770;-13035.712;140;-500;-497.0;70;69.7;-20;-20.3;28.7;0.0;
22/07/2019 17:28:46;100;0;98.15;16;-18.02;-6.16;321.1;10.00;70025;4853.770;-13035.712;140;-500;-495.0;70;69.7;-19;-19.0;28.7;0.0;
22/07/2019 17:29:06;100;0;97.60;16;-18.02;-5.29;323.3;10.00;70008;4853.770;-13035.712;140;-500;-495.0;70;69.7;-20;-19.9;28.7;0.0;
22/07/2019 17:29:26;100;0;97.42;16;-18.03;-6.16;325.6;10.00;70012;4853.770;-13035.712;140;-500;-495.0;70;69.7;-20;-20.3;28.7;0.0;
22/07/2019 17:29:46;100;0;97.71;16;-18.08;-6.08;327.8;9.90;70008;4853.770;-13035.712;140;-500;-495.0;70;69.7;-20;-20.3;28.7;0.0;
22/07/2019 17:30:06;100;0;98.39;16;-18.13;-6.19;330.1;9.90;70000;4853.770;-13035.712;140;-500;-493.1;70;69.7;-19;-19.0;28.7;0.0;
22/07/2019 17:30:26;100;0;98.48;16;-17.99;-5.20;332.3;9.90;70004;4853.770;-13035.712;140;-500;-495.0;70;69.7;-19;-18.5;28.7;0.0;
22/07/2019 17:30:46;100;0;97.41;16;-18.00;-5.21;334.5;9.90;69991;4853.770;-13035.712;140;-500;-495.0;70;69.7;-20;-19.9;28.7;0.0;
22/07/2019 17:31:06;100;0;96.09;16;-17.91;-6.22;336.8;9.80;69987;4853.770;-13035.712;140;-500;-495.0;70;69.6;-20;-20.3;28.7;0.0;
22/07/2019 17:31:26;100;0;96.23;16;-18.06;-6.19;339.1;9.80;69986;4853.770;-13035.712;140;-500;-495.0;70;69.7;-20;-20.8;28.8;0.0;
22/07/2019 17:31:46;100;0;96.30;16;-18.02;-6.24;341.3;9.80;69983;4853.770;-13035.712;140;-500;-495.0;70;69.7;-20;-20.3;28.7;0.0;
22/07/2019 17:32:06;100;0;97.41;16;-18.05;-6.21;343.5;9.80;69981;4853.770;-13035.712;140;-500;-495.0;70;69.7;-19;-18.5;28.7;0.0;
22/07/2019 17:32:26;100;0;97.69;16;-17.85;-5.02;345.8;9.80;69982;4853.770;-13035.712;140;-500;-495.0;70;69.6;-20;-20.3;28.7;0.0;
22/07/2019 17:32:46;100;0;98.15;16;-17.95;-6.32;347.9;9.70;69981;4853.770;-13035.712;140;-500;-495.0;70;69.7;-19;-19.0;28.7;0.0;
22/07/2019 17:33:06;100;0;98.29;16;-17.96;-5.17;350.0;9.70;69980;4853.770;-13035.712;140;-500;-495.0;70;69.7;-19;-18.1;28.7;0.0;
22/07/2019 17:33:26;100;0;97.92;16;-17.93;-5.13;352.2;9.70;69971;4853.770;-13035.712;140;-500;-495.0;70;69.7;-20;-19.9;28.7;0.0;
22/07/2019 17:33:46;100;0;99.04;16;-17.95;-6.22;354.5;9.70;69966;4853.770;-13035.712;140;-500;-497.0;70;69.7;-19;-19.0;28.7;0.0;
22/07/2019 17:34:06;100;0;99.19;16;-17.84;-5.37;356.7;9.60;69971;4853.770;-13035.712;140;-500;-495.0;70;69.7;-19;-18.5;28.7;0.0;
22/07/2019 17:34:26;100;0;98.95;16;-17.87;-5.38;359.0;9.60;69964;4853.770;-13035.712;140;-500;-495.0;70;69.7;-20;-19.9;28.7;0.0;
22/07/2019 17:34:46;100;0;99.54;16;-17.83;-6.20;361.2;9.60;69955;4853.770;-13035.712;140;-500;-495.0;70;69.7;-19;-19.0;28.7;0.0;
22/07/2019 17:35:06;100;0;98.79;16;-17.79;-5.30;363.3;9.60;69957;4853.770;-13035.712;140;-500;-495.0;70;69.7;-20;-19.9;28.7;0.0;
22/07/2019 17:35:26;100;0;99.95;16;-17.93;-6.29;365.6;9.60;69954;4853.770;-13035.712;140;-500;-495.0;70;69.7;-19;-19.0;28.7;0.0;
22/07/2019 17:35:46;100;0;99.41;16;-17.82;-5.33;367.9;9.50;69954;4853.770;-13035.712;140;-500;-495.0;70;69.7;-19;-18.5;28.7;0.0;
22/07/2019 17:36:06;100;0;98.81;16;-17.72;-5.27;370.0;9.50;69940;4853.770;-13035.712;140;-500;-495.0;70;69.7;-20;-19.9;28.7;0.0;
22/07/2019 17:36:26;100;0;99.56;16;-17.77;-6.17;372.4;9.50;69942;4853.770;-13035.712;140;-500;-495.0;70;69.7;-19;-19.0;28.7;0.0;
22/07/2019 17:36:46;100;0;99.29;16;-17.62;-5.23;374.6;9.50;69945;4853.770;-13035.712;140;-500;-495.0;70;69.7;-19;-18.1;28.7;0.0;
22/07/2019 17:37:06;100;0;98.81;16;-17.67;-5.23;376.9;9.40;69929;4853.770;-13035.712;140;-500;-495.0;70;69.7;-20;-20.3;28.7;0.0;
22/07/2019 17:37:26;100;0;99.01;16;-17.65;-6.33;379.1;9.40;69919;4853.770;-13035.712;140;-500;-495.0;70;69.7;-19;-19.0;28.7;0.0;
22/07/2019 17:37:46;100;0;98.58;16;-17.57;-5.12;381.3;9.40;69923;4853.770;-13035.712;140;-500;-493.1;70;69.6;-20;-19.9;28.7;0.0;
22/07/2019 17:38:06;100;0;98.17;16;-17.62;-6.21;383.5;9.40;69929;4853.770;-13035.712;140;-500;-495.0;70;69.7;-20;-20.3;28.7;0.0;
22/07/2019 17:38:26;100;0;98.34;16;-17.66;-6.23;385.9;9.30;69926;4853.770;-13035.712;140;-500;-493.1;70;69.6;-20;-20.3;28.7;0.0;
22/07/2019 17:38:46;100;0;98.71;16;-17.66;-6.28;388.1;9.30;69924;4853.770;-13035.712;140;-500;-495.0;70;69.7;-20;-20.3;28.7;0.0;
22/07/2019 17:39:06;100;0;99.93;16;-17.69;-6.28;390.2;9.30;69929;4853.770;-13035.712;140;-500;-495.0;70;69.7;-19;-19.0;28.7;0.0;
22/07/2019 17:39:26;100;0;99.91;16;-17.51;-5.39;392.5;9.30;69916;4853.770;-13035.712;140;-500;-493.1;70;69.7;-19;-18.5;28.7;0.0;
22/07/2019 17:39:46;100;0;100.80;16;-17.61;-5.37;394.8;9.30;69911;4853.770;-13035.712;140;-500;-493.1;70;69.6;-19;-18.5;28.7;0.0;
22/07/2019 17:40:06;100;0;100.27;16;-17.52;-5.38;397.0;9.30;69910;4853.770;-13035.712;140;-500;-493.1;70;69.7;-19;-18.5;28.7;0.0;
22/07/2019 17:40:26;100;0;99.68;16;-17.52;-5.38;399.2;9.20;69897;4853.770;-13035.712;140;-500;-495.0;70;69.6;-20;-19.9;28.7;0.0;
22/07/2019 17:40:46;100;0;99.34;16;-17.49;-6.15;401.5;9.20;69906;4853.770;-13035.712;140;-500;-495.0;70;69.7;-19;-19.0;28.7;0.0;
22/07/2019 17:41:06;100;0;98.91;16;-17.45;-5.33;403.6;9.20;69903;4853.770;-13035.712;140;-500;-493.1;70;69.7;-20;-19.9;28.7;0.0;
22/07/2019 17:41:26;100;0;99.04;16;-17.46;-6.11;405.9;9.20;69897;4853.770;-13035.712;140;-500;-495.0;70;69.7;-19;-19.0;28.7;0.0;
22/07/2019 17:41:46;100;0;98.94;16;-17.41;-5.25;408.1;9.20;69899;4853.770;-13035.712;140;-500;-493.1;70;69.6;-20;-20.3;28.7;0.0;
22/07/2019 17:42:06;100;0;99.32;16;-17.55;-6.31;410.2;9.10;69896;4853.770;-13035.712;140;-500;-493.1;70;69.6;-19;-19.0;28.7;0.0;
22/07/2019 17:42:26;100;0;98.81;16;-17.56;-5.26;412.3;9.10;69882;4853.770;-13035.712;140;-500;-493.1;70;69.6;-20;-20.3;28.7;0.0;
22/07/2019 17:42:46;100;0;98.64;16;-17.62;-6.31;414.4;9.10;69892;4853.770;-13035.712;140;-500;-493.1;70;69.7;-20;-20.3;28.7;0.0;
22/07/2019 17:43:06;100;0;99.02;16;-17.67;-6.33;416.4;9.10;69888;4853.770;-13035.712;140;-500;-493.1;70;69.7;-19;-19.0;28.7;0.0;
22/07/2019 17:43:26;100;0;99.01;16;-17.69;-5.18;418.5;9.10;69878;4853.770;-13035.712;140;-500;-493.1;70;69.7;-19;-18.1;28.7;0.0;
22/07/2019 17:43:46;100;0;99.16;16;-17.43;-5.14;420.6;9.10;69885;4853.770;-13035.712;140;-500;-493.1;70;69.6;-19;-18.1;28.7;0.0;
22/07/2019 17:44:06;100;0;99.07;16;-17.30;-5.12;422.7;9.00;69880;4853.770;-13035.712;140;-500;-493.1;70;69.7;-19;-18.1;28.7;0.0;
22/07/2019 17:44:26;100;0;98.35;16;-17.20;-5.11;424.8;9.00;69881;4853.770;-13035.712;140;-500;-493.1;70;69.7;-20;-19.9;28.7;0.0;
22/07/2019 17:44:46;100;0;98.71;16;-17.44;-6.26;426.9;9.00;69876;4853.770;-13035.712;140;-500;-493.1;70;69.6;-20;-20.3;28.7;0.0;
22/07/2019 17:45:06;100;0;98.70;16;-17.35;-6.20;429.0;9.00;69872;4853.770;-13035.712;140;-500;-495.0;70;69.7;-20;-20.3;28.7;0.0;
22/07/2019 17:45:26;100;0;98.43;16;-17.44;-6.24;431.1;9.00;69865;4853.770;-13035.712;140;-500;-493.1;70;69.7;-20;-20.3;28.7;0.0;
22/07/2019 17:45:46;100;0;98.08;16;-17.32;-6.23;433.1;8.90;69868;4853.770;-13035.712;140;-500;-493.1;70;69.7;-20;-20.3;28.7;0.0;
22/07/2019 17:46:06;100;0;97.80;16;-17.42;-6.24;435.2;8.90;69855;4853.770;-13035.712;140;-500;-493.1;70;69.6;-20;-20.3;28.7;0.0;
22/07/2019 17:46:26;100;0;98.08;16;-17.34;-6.26;437.3;8.90;69856;4853.770;-13035.712;140;-500;-493.1;70;69.6;-19;-19.0;28.7;0.0;
22/07/2019 17:46:46;100;0;98.81;16;-17.16;-5.42;439.4;8.90;69851;4853.770;-13035.712;140;-500;-493.1;70;69.7;-19;-18.5;28.7;0.0;
22/07/2019 17:47:06;100;0;98.99;16;-17.15;-5.41;441.5;8.90;69852;4853.770;-13035.712;140;-500;-495.0;70;69.7;-19;-18.5;28.7;0.0;
22/07/2019 17:47:26;100;0;99.17;16;-17.27;-5.42;443.6;8.90;69851;4853.770;-13035.712;140;-500;-493.1;70;69.7;-19;-18.5;28.7;0.0;
22/07/2019 17:47:46;100;0;98.38;16;-17.19;-5.36;445.8;8.80;69839;4853.770;-13035.712;140;-500;-493.1;70;69.7;-20;-19.9;28.7;0.0;
22/07/2019 17:48:06;100;0;97.39;16;-17.22;-6.18;447.9;8.80;69843;4853.770;-13035.712;140;-500;-491.1;70;69.6;-20;-20.3;28.7;0.0;
22/07/2019 17:48:26;100;0;97.12;16;-17.24;-6.22;450.0;8.80;69835;4853.770;-13035.712;140;-500;-493.1;70;69.6;-20;-20.3;28.7;0.0;
22/07/2019 17:48:46;100;0;96.48;16;-17.26;-6.23;452.2;8.80;69839;4853.770;-13035.712;140;-500;-493.1;70;69.6;-20;-20.3;28.7;0.0;
22/07/2019 17:49:06;100;0;96.00;16;-17.10;-6.14;454.4;8.80;69840;4853.770;-13035.712;140;-500;-493.1;70;69.6;-20;-20.3;28.7;0.0;
22/07/2019 17:49:26;100;0;95.63;16;-17.29;-6.25;456.7;8.80;69853;4853.770;-13035.712;140;-500;-493.1;70;69.7;-21;-21.7;28.7;0.0;
22/07/2019 17:49:46;100;0;96.57;16;-17.60;-6.95;458.8;8.70;69835;4853.770;-13035.712;140;-500;-495.0;70;69.7;-20;-19.9;28.8;0.0;
22/07/2019 17:50:06;100;0;97.86;16;-17.11;-5.44;461.1;8.70;69825;4853.770;-13035.712;140;-500;-493.1;70;69.7;-19;-19.0;28.7;0.0;
22/07/2019 17:50:26;100;0;99.71;16;-16.91;-5.56;463.4;8.70;69831;4853.770;-13035.712;140;-500;-493.1;70;69.6;-18;-17.6;28.7;0.0;
22/07/2019 17:50:46;100;0;100.52;16;-16.97;-4.72;465.6;8.70;69815;4853.770;-13035.712;140;-500;-493.1;70;69.7;-18;-17.1;28.7;0.0;
22/07/2019 17:51:06;100;0;100.22;16;-16.92;-4.74;467.8;8.70;69820;4853.770;-13035.712;140;-500;-493.1;70;69.6;-19;-19.0;28.7;0.0;
22/07/2019 17:51:26;100;0;100.48;16;-16.87;-5.73;470.1;8.70;69818;4853.770;-13035.712;140;-500;-493.1;70;69.6;-19;-19.4;28.7;0.0;
22/07/2019 17:51:46;100;0;101.44;16;-17.03;-5.74;472.3;8.70;69830;4853.770;-13035.712;140;-500;-493.1;70;69.6;-18;-18.1;28.7;0.0;
22/07/2019 17:52:06;100;0;101.97;16;-16.99;-4.90;474.6;8.60;69818;4853.770;-13035.712;140;-500;-493.1;70;69.6;-19;-19.4;28.7;0.0;
22/07/2019 17:52:26;100;0;101.02;16;-16.99;-5.89;476.8;8.60;69813;4853.770;-13035.712;140;-500;-491.1;70;69.7;-19;-19.9;28.7;0.0;
22/07/2019 17:52:46;100;0;100.49;16;-17.02;-5.92;479.1;8.60;69811;4853.770;-13035.712;140;-500;-493.1;70;69.6;-19;-19.4;28.7;0.0;
22/07/2019 17:53:06;100;0;99.90;16;-16.96;-5.91;481.3;8.60;69802;4853.770;-13035.712;140;-500;-493.1;70;69.7;-20;-19.9;28.7;0.0;
22/07/2019 17:53:26;100;0;99.66;16;-17.06;-5.90;483.5;8.60;69810;4853.770;-13035.712;140;-500;-493.1;70;69.7;-20;-19.9;28.7;0.0;
22/07/2019 17:53:46;100;0;100.62;16;-16.99;-6.02;485.8;8.60;69792;4853.770;-13035.712;140;-500;-493.1;70;69.6;-19;-18.5;28.7;0.0;
22/07/2019 17:54:06;100;0;100.78;16;-16.88;-5.11;488.0;8.50;69806;4853.770;-13035.712;140;-500;-493.1;70;69.7;-19;-17.6;28.7;0.0;
22/07/2019 17:54:27;100;0;99.78;16;-16.90;-5.06;490.3;8.50;69787;4853.770;-13035.712;140;-500;-493.1;70;69.7;-20;-19.9;28.7;0.0;
22/07/2019 17:54:47;100;0;99.59;16;-16.91;-6.12;492.6;8.50;69793;4853.770;-13035.712;140;-500;-491.1;70;69.7;-19;-19.0;28.7;0.0;
22/07/2019 17:55:07;100;0;98.93;16;-16.75;-5.27;494.9;8.50;69778;4853.770;-13035.712;140;-500;-493.1;70;69.6;-20;-20.3;28.7;0.0;
22/07/2019 17:55:27;100;0;99.09;16;-16.92;-6.39;497.1;8.50;69784;4853.770;-13035.712;140;-500;-493.1;70;69.7;-19;-19.0;28.7;0.0;
22/07/2019 17:55:47;100;0;99.25;16;-16.94;-5.25;499.3;8.40;69772;4853.770;-13035.712;140;-500;-493.1;70;69.7;-19;-18.1;28.7;0.0;
22/07/2019 17:56:07;100;0;99.21;16;-16.78;-5.24;501.6;8.40;69776;4853.770;-13035.712;140;-500;-493.1;70;69.6;-19;-18.1;28.7;0.0;
22/07/2019 17:56:27;100;0;99.35;16;-16.78;-5.21;503.7;8.40;69774;4853.770;-13035.712;140;-500;-493.1;70;69.7;-19;-18.1;28.7;0.0;
22/07/2019 17:56:47;100;0;99.45;16;-16.76;-5.26;506.1;8.40;69772;4853.770;-13035.712;140;-500;-493.1;70;69.7;-19;-18.1;28.7;0.0;
22/07/2019 17:57:07;100;0;98.21;16;-16.83;-5.19;508.2;8.40;69776;4853.770;-13035.712;140;-500;-493.1;70;69.7;-20;-20.3;28.7;0.0;
22/07/2019 17:57:27;100;0;98.52;16;-16.81;-6.33;510.4;8.40;69772;4853.770;-13035.712;140;-500;-493.1;70;69.7;-20;-20.3;28.7;0.0;
22/07/2019 17:57:47;100;0;99.89;16;-16.77;-6.32;512.6;8.30;69768;4853.770;-13035.712;140;-500;-493.1;70;69.6;-19;-18.5;28.7;0.0;
22/07/2019 17:58:07;100;0;98.94;16;-16.75;-5.07;514.8;8.30;69765;4853.770;-13035.712;140;-500;-493.1;70;69.6;-20;-19.9;28.7;0.0;
22/07/2019 17:58:27;100;0;98.13;16;-16.73;-6.23;517.1;8.30;69771;4853.770;-13035.712;140;-500;-493.1;70;69.6;-20;-20.3;28.7;0.0;
22/07/2019 17:58:47;100;0;97.98;16;-16.72;-6.24;519.3;8.30;69756;4853.770;-13035.712;140;-500;-491.1;70;69.7;-20;-20.3;28.7;0.0;
22/07/2019 17:59:07;100;0;99.55;16;-16.64;-6.24;521.5;8.30;69762;4853.770;-13035.712;140;-500;-493.1;70;69.6;-19;-19.0;28.7;0.0;
22/07/2019 17:59:27;100;0;102.22;16;-16.58;-5.46;523.6;8.30;69757;4853.770;-13035.712;140;-500;-493.1;70;69.7;-17;-17.1;28.7;0.0;
22/07/2019 17:59:47;100;0;103.27;16;-16.54;-4.62;525.9;8.30;69759;4853.770;-13035.712;140;-500;-491.1;70;69.6;-17;-16.7;28.7;0.0;
22/07/2019 18:00:07;100;0;102.17;16;-16.62;-4.57;528.0;8.30;69762;4853.770;-13035.712;140;-500;-491.1;70;69.7;-19;-19.0;28.7;0.0;
22/07/2019 18:00:27;100;0;102.25;16;-16.48;-5.89;530.1;8.20;69752;4853.770;-13035.712;140;-500;-491.1;70;69.7;-19;-19.4;28.7;0.0;
22/07/2019 18:00:47;100;0;101.77;16;-16.74;-5.81;532.3;8.20;69747;4853.770;-13035.712;140;-500;-493.1;70;69.6;-19;-19.4;28.7;0.0;
22/07/2019 18:01:07;100;0;101.36;16;-16.59;-5.88;534.4;8.20;69743;4853.770;-13035.712;140;-500;-493.1;70;69.6;-19;-19.4;28.7;0.0;
22/07/2019 18:01:27;100;0;100.98;16;-16.62;-5.82;536.5;8.20;69742;4853.770;-13035.712;140;-500;-491.1;70;69.7;-20;-20.3;28.7;0.0;
22/07/2019 18:01:47;100;0;101.68;16;-16.70;-6.43;538.6;8.20;69748;4853.770;-13035.712;140;-500;-493.1;70;69.7;-19;-19.0;28.8;0.0;
22/07/2019 18:02:07;100;0;101.46;16;-16.54;-5.20;540.7;8.20;69741;4853.770;-13035.712;140;-500;-493.1;70;69.6;-19;-18.1;28.7;0.0;
22/07/2019 18:02:27;100;0;100.88;16;-16.55;-5.23;542.7;8.10;69739;4853.770;-13035.712;140;-500;-493.1;70;69.7;-19;-18.1;28.7;0.0;
22/07/2019 18:02:47;100;0;100.03;16;-16.49;-5.20;544.8;8.10;69737;4853.770;-13035.712;140;-500;-493.1;70;69.6;-19;-18.1;28.7;0.0;
22/07/2019 18:03:07;100;0;99.46;16;-16.35;-5.17;546.8;8.10;69741;4853.770;-13035.712;140;-500;-493.1;70;69.6;-20;-19.9;28.7;0.0;
22/07/2019 18:03:27;100;0;99.11;16;-16.33;-6.27;549.0;8.10;69730;4853.770;-13035.712;140;-500;-493.1;70;69.7;-20;-20.3;28.7;0.0;
22/07/2019 18:03:47;100;0;99.08;16;-16.42;-6.34;551.0;8.10;69743;4853.770;-13035.712;140;-500;-493.1;70;69.7;-19;-19.0;28.7;0.0;
22/07/2019 18:04:07;100;0;99.04;16;-16.40;-5.48;553.0;8.10;69734;4853.770;-13035.712;140;-500;-493.1;70;69.7;-19;-18.5;28.7;0.0;
22/07/2019 18:04:27;100;0;97.87;16;-16.34;-5.44;554.9;8.10;69732;4853.770;-13035.712;140;-500;-493.1;70;69.7;-20;-19.9;28.7;0.0;
22/07/2019 18:04:47;100;0;96.98;16;-16.50;-6.20;556.8;8.10;69740;4853.770;-13035.712;140;-500;-491.1;70;69.6;-21;-21.2;28.7;0.0;
22/07/2019 18:05:07;100;0;98.90;16;-16.49;-6.86;558.6;8.00;69724;4853.770;-13035.712;140;-500;-493.1;70;69.6;-19;-19.0;28.7;0.0;
22/07/2019 18:05:27;100;0;100.66;16;-16.48;-5.38;560.5;8.00;69740;4853.770;-13035.712;140;-500;-493.1;70;69.6;-18;-18.1;28.7;0.0;
22/07/2019 18:05:47;100;0;100.22;16;-16.71;-5.20;562.4;8.00;69728;4853.770;-13035.712;140;-500;-491.1;70;69.7;-19;-19.0;28.7;0.0;
22/07/2019 18:06:07;100;0;100.61;16;-16.32;-5.91;564.3;8.00;69726;4853.770;-13035.712;140;-500;-493.1;70;69.6;-19;-19.4;28.7;0.0;
22/07/2019 18:06:27;100;0;101.16;16;-16.34;-5.88;566.1;8.00;69730;4853.770;-13035.712;140;-500;-491.1;70;69.7;-18;-17.6;28.7;0.0;
22/07/2019 18:06:47;100;0;101.17;16;-16.24;-4.73;568.1;8.00;69726;4853.770;-13035.712;140;-500;-493.1;70;69.6;-19;-19.0;28.7;0.0;
22/07/2019 18:07:07;100;0;102.05;16;-16.39;-5.84;569.7;8.00;69709;4853.770;-13035.712;140;-500;-491.1;70;69.6;-18;-18.1;28.7;0.0;
22/07/2019 18:07:27;100;0;102.15;16;-16.29;-5.04;571.5;7.90;69717;4853.770;-13035.712;140;-500;-491.1;70;69.7;-18;-17.6;28.7;0.0;
22/07/2019 18:07:47;100;0;102.17;16;-16.36;-5.05;573.3;7.90;69723;4853.770;-13035.712;140;-500;-491.1;70;69.6;-19;-19.0;28.7;0.0;
22/07/2019 18:08:07;100;0;102.15;16;-16.35;-5.86;574.9;7.90;69711;4853.770;-13035.712;140;-500;-491.1;70;69.7;-19;-19.4;28.7;0.0;
22/07/2019 18:08:27;100;0;102.31;16;-16.39;-5.88;576.6;7.90;69716;4853.770;-13035.712;140;-500;-493.1;70;69.6;-19;-19.4;28.7;0.0;
22/07/2019 18:08:47;100;0;101.91;16;-16.26;-5.84;578.3;7.90;69709;4853.770;-13035.712;140;-500;-491.1;70;69.7;-19;-19.4;28.7;0.0;
22/07/2019 18:09:07;100;0;101.74;16;-16.15;-5.78;579.9;7.90;69702;4853.770;-13035.712;140;-500;-491.1;70;69.6;-19;-19.4;28.7;0.0;
22/07/2019 18:09:27;100;0;100.81;16;-16.24;-5.72;581.7;7.90;69696;4853.770;-13035.712;140;-500;-491.1;70;69.6;-20;-20.3;28.7;0.0;
22/07/2019 18:09:47;100;0;100.75;16;-16.33;-6.41;583.4;7.90;69703;4853.770;-13035.712;140;-500;-491.1;70;69.7;-19;-19.0;28.7;0.0;
22/07/2019 18:10:07;100;0;100.97;16;-16.18;-5.36;585.0;7.80;69689;4853.770;-13035.712;140;-500;-491.1;70;69.6;-19;-18.5;28.7;0.0;
22/07/2019 18:10:27;100;0;100.29;16;-16.21;-5.36;586.6;7.80;69693;4853.770;-13035.712;140;-500;-491.1;70;69.6;-19;-18.5;28.7;0.0;
22/07/2019 18:10:47;100;0;99.61;16;-16.15;-5.32;588.4;7.80;69679;4853.770;-13035.712;140;-500;-491.1;70;69.6;-20;-20.3;28.7;0.0;
22/07/2019 18:11:07;100;0;99.62;16;-16.09;-6.41;590.1;7.80;69691;4853.770;-13035.712;140;-500;-491.1;70;69.7;-20;-20.8;28.7;0.0;
22/07/2019 18:11:27;100;0;101.05;16;-16.07;-6.48;591.9;7.80;69686;4853.770;-13035.712;140;-500;-493.1;70;69.7;-18;-18.1;28.7;0.0;
22/07/2019 18:11:47;100;0;101.67;16;-15.95;-4.98;593.6;7.80;69676;4853.770;-13035.712;140;-500;-493.1;70;69.7;-19;-19.0;28.7;0.0;
22/07/2019 18:12:07;100;0;102.02;16;-16.10;-5.91;595.4;7.80;69677;4853.770;-13035.712;140;-500;-493.1;70;69.6;-18;-18.1;28.7;0.0;
22/07/2019 18:12:27;100;0;101.40;16;-16.12;-5.07;597.1;7.80;69674;4853.770;-13035.712;140;-500;-491.1;70;69.6;-19;-19.0;28.7;0.0;
22/07/2019 18:12:47;100;0;102.44;16;-16.22;-5.99;598.9;7.70;69677;4853.770;-13035.712;140;-500;-493.1;70;69.7;-18;-18.1;28.7;0.0;
22/07/2019 18:13:07;100;0;101.47;16;-16.18;-4.77;600.5;7.70;69668;4853.770;-13035.712;140;-500;-491.1;70;69.7;-19;-19.0;28.7;0.0;
22/07/2019 18:13:27;100;0;100.73;16;-16.09;-5.85;602.3;7.70;69673;4853.770;-13035.712;140;-500;-491.1;70;69.7;-20;-20.3;28.7;0.0;
22/07/2019 18:13:47;100;0;100.59;16;-16.08;-6.33;604.1;7.70;69662;4853.770;-13035.712;140;-500;-491.1;70;69.6;-19;-19.0;28.7;0.0;
22/07/2019 18:14:07;100;0;101.27;16;-16.04;-5.29;605.9;7.70;69672;4853.770;-13035.712;140;-500;-489.1;70;69.7;-19;-18.1;28.7;0.0;
22/07/2019 18:14:27;100;0;100.90;16;-15.95;-5.20;607.7;7.70;69672;4853.770;-13035.712;140;-500;-493.1;70;69.6;-19;-18.1;28.7;0.0;
22/07/2019 18:14:47;100;0;100.36;16;-15.92;-5.18;609.6;7.60;69671;4853.770;-13035.712;140;-500;-491.1;70;69.6;-19;-18.1;28.7;0.0;
22/07/2019 18:15:07;100;0;101.79;16;-15.79;-5.23;611.4;7.60;69669;4853.770;-13035.712;140;-500;-491.1;70;69.6;-19;-18.1;28.7;0.0;
22/07/2019 18:15:27;100;0;101.06;16;-15.77;-5.18;613.3;7.60;69662;4853.770;-13035.712;140;-500;-491.1;70;69.7;-19;-18.1;28.7;0.0;
22/07/2019 18:15:47;100;0;100.93;16;-15.85;-5.20;615.2;7.60;69651;4853.770;-13035.712;140;-500;-489.1;70;69.7;-19;-18.1;28.7;0.0;
22/07/2019 18:16:07;100;0;100.79;16;-15.84;-5.20;617.0;7.60;69662;4853.770;-13035.712;140;-500;-491.1;70;69.7;-19;-18.1;28.7;0.0;
22/07/2019 18:16:27;100;0;101.44;16;-15.79;-5.21;619.0;7.60;69653;4853.770;-13035.712;140;-500;-491.1;70;69.6;-19;-18.1;28.7;0.0;
22/07/2019 18:16:47;100;0;100.56;16;-15.78;-5.17;620.8;7.60;69653;4853.770;-13035.712;140;-500;-489.1;70;69.7;-19;-18.1;28.7;0.0;
22/07/2019 18:17:07;100;0;99.55;16;-15.89;-5.19;622.7;7.60;69643;4853.770;-13035.712;140;-500;-491.1;70;69.7;-20;-19.9;28.7;0.0;
22/07/2019 18:17:27;100;0;100.65;16;-15.87;-6.32;624.6;7.50;69644;4853.770;-13035.712;140;-500;-493.1;70;69.6;-19;-18.5;28.7;0.0;
22/07/2019 18:17:47;100;0;100.14;16;-15.88;-5.14;626.5;7.50;69653;4853.770;-13035.712;140;-500;-491.1;70;69.7;-19;-18.1;28.7;0.0;
22/07/2019 18:18:07;100;0;99.34;16;-15.86;-5.12;628.4;7.50;69635;4853.770;-13035.712;140;-500;-491.1;70;69.6;-20;-19.9;28.7;0.0;
22/07/2019 18:18:27;100;0;99.16;16;-15.92;-6.27;630.3;7.50;69625;4853.770;-13035.712;140;-500;-491.1;70;69.7;-19;-18.5;28.7;0.0;
22/07/2019 18:18:47;100;0;98.94;16;-15.90;-5.22;632.1;7.50;69631;4853.770;-13035.712;140;-500;-491.1;70;69.7;-20;-19.9;28.7;0.0;
22/07/2019 18:19:07;100;0;98.40;16;-15.89;-6.15;634.1;7.50;69636;4853.770;-13035.712;140;-500;-491.1;70;69.6;-20;-19.9;28.7;0.0;
22/07/2019 18:19:27;100;0;98.59;16;-15.96;-6.22;636.0;7.50;69625;4853.770;-13035.712;140;-500;-491.1;70;69.7;-20;-20.3;28.7;0.0;
22/07/2019 18:19:47;100;0;99.60;16;-15.91;-6.25;637.9;7.40;69618;4853.770;-13035.712;140;-500;-491.1;70;69.6;-19;-19.0;28.7;0.0;
22/07/2019 18:20:07;100;0;99.07;16;-15.77;-5.36;639.8;7.40;69624;4853.770;-13035.712;140;-500;-491.1;70;69.7;-19;-18.5;28.7;0.0;
22/07/2019 18:20:27;100;0;98.42;16;-15.76;-5.38;641.7;7.40;69616;4853.770;-13035.712;140;-500;-491.1;70;69.6;-20;-19.9;28.7;0.0;
22/07/2019 18:20:47;100;0;98.57;16;-15.79;-6.34;643.7;7.40;69617;4853.770;-13035.712;140;-500;-491.1;70;69.7;-20;-20.3;28.7;0.0;
22/07/2019 18:21:07;100;0;97.92;16;-15.80;-6.30;645.6;7.40;69626;4853.770;-13035.712;140;-500;-491.1;70;69.7;-20;-20.3;28.7;0.0;
22/07/2019 18:21:27;100;0;98.17;16;-15.75;-6.38;647.5;7.40;69621;4853.770;-13035.712;140;-500;-491.1;70;69.6;-19;-18.5;28.7;0.0;
22/07/2019 18:21:47;100;0;98.47;16;-15.68;-5.18;649.4;7.40;69623;4853.770;-13035.712;140;-500;-491.1;70;69.7;-19;-17.6;28.7;0.0;
22/07/2019 18:22:07;100;0;99.40;16;-15.74;-5.21;651.4;7.40;69623;4853.770;-13035.712;140;-500;-491.1;70;69.6;-19;-17.6;28.7;0.0;
22/07/2019 18:22:27;100;0;98.80;16;-15.65;-5.17;653.3;7.40;69624;4853.770;-13035.712;140;-500;-489.1;70;69.6;-20;-19.9;28.7;0.0;
22/07/2019 18:22:47;100;0;99.09;16;-15.67;-6.27;655.3;7.40;69627;4853.770;-13035.712;140;-500;-491.1;70;69.6;-19;-19.0;28.7;0.0;
22/07/2019 18:23:07;100;0;98.22;16;-15.52;-5.39;657.2;7.30;69622;4853.770;-13035.712;140;-500;-489.1;70;69.6;-20;-19.9;28.7;0.0;
22/07/2019 18:23:27;100;0;98.79;16;-15.53;-6.22;659.1;7.30;69625;4853.770;-13035.712;140;-500;-491.1;70;69.6;-20;-19.9;28.7;0.0;
22/07/2019 18:23:47;100;0;99.08;16;-15.53;-6.24;661.1;7.30;69624;4853.770;-13035.712;140;-500;-491.1;70;69.6;-19;-19.0;28.7;0.0;
22/07/2019 18:24:07;100;0;98.82;16;-15.49;-5.43;663.0;7.30;69624;4853.770;-13035.712;140;-500;-491.1;70;69.7;-20;-20.3;28.7;0.0;
22/07/2019 18:24:27;100;0;99.06;16;-15.43;-6.44;665.0;7.30;69616;4853.770;-13035.712;140;-500;-491.1;70;69.6;-19;-19.0;28.7;0.0;
22/07/2019 18:24:47;100;0;98.60;16;-15.39;-5.25;666.9;7.30;69612;4853.770;-13035.712;140;-500;-491.1;70;69.7;-20;-19.9;28.7;0.0;
22/07/2019 18:25:07;100;0;98.57;16;-15.47;-6.34;668.8;7.30;69615;4853.770;-13035.712;140;-500;-491.1;70;69.6;-20;-20.3;28.7;0.0;
22/07/2019 18:25:27;100;0;98.16;16;-15.45;-6.33;670.9;7.30;69614;4853.770;-13035.712;140;-500;-491.1;70;69.6;-20;-20.3;28.7;0.0;
22/07/2019 18:25:47;100;0;98.74;16;-15.44;-6.34;672.7;7.30;69608;4853.770;-13035.712;140;-500;-489.1;70;69.6;-20;-20.3;28.8;0.0;
22/07/2019 18:26:07;100;0;99.63;16;-15.40;-6.32;674.8;7.30;69611;4853.770;-13035.712;140;-500;-491.1;70;69.6;-19;-19.0;28.7;0.0;
22/07/2019 18:26:27;100;0;100.18;16;-15.37;-5.32;676.8;7.20;69599;4853.770;-13035.712;140;-500;-489.1;70;69.7;-19;-18.1;28.7;0.0;
22/07/2019 18:26:47;100;0;100.05;16;-15.33;-5.34;678.8;7.20;69597;4853.770;-13035.712;140;-500;-491.1;70;69.6;-19;-18.1;28.7;0.0;
22/07/2019 18:27:07;100;0;98.68;16;-15.33;-5.24;680.7;7.20;69609;4853.770;-13035.712;140;-500;-491.1;70;69.7;-20;-19.9;28.7;0.0;
22/07/2019 18:27:27;100;0;97.95;16;-15.35;-6.20;682.8;7.20;69602;4853.770;-13035.712;140;-500;-491.1;70;69.7;-20;-20.3;28.7;0.0;
22/07/2019 18:27:48;100;0;97.51;16;-15.43;-6.27;684.7;7.20;69594;4853.770;-13035.712;140;-500;-491.1;70;69.6;-20;-20.3;28.7;0.0;
22/07/2019 18:28:08;100;0;97.36;16;-15.43;-6.30;686.8;7.20;69598;4853.770;-13035.712;140;-500;-491.1;70;69.6;-20;-20.3;28.7;0.0;
22/07/2019 18:28:28;100;0;96.89;16;-15.39;-6.27;688.7;7.20;69601;4853.770;-13035.712;140;-500;-491.1;70;69.7;-20;-20.3;28.7;0.0;
22/07/2019 18:28:48;100;0;96.76;16;-15.40;-6.30;690.8;7.20;69595;4853.770;-13035.712;140;-500;-491.1;70;69.6;-20;-20.3;28.8;0.0;
22/07/2019 18:29:08;100;0;96.74;16;-15.29;-6.31;692.9;7.10;69582;4853.770;-13035.712;140;-500;-489.1;70;69.6;-20;-20.3;28.7;0.0;
22/07/2019 18:29:28;100;0;96.74;16;-15.40;-6.30;694.8;7.10;69594;4853.770;-13035.712;140;-500;-491.1;70;69.6;-20;-20.3;28.7;0.0;
22/07/2019 18:29:48;100;0;96.78;16;-15.37;-6.32;696.9;7.10;69602;4853.770;-13035.712;140;-500;-489.1;70;69.6;-20;-20.3;28.7;0.0;
22/07/2019 18:30:08;100;0;96.70;16;-15.42;-6.35;698.8;7.10;69584;4853.770;-13035.712;140;-500;-491.1;70;69.6;-20;-20.3;28.7;0.0;
22/07/2019 18:30:28;118;0;96.81;16;-15.53;-6.37;700.9;7.10;69587;4853.770;-13035.712;140;150;-475.2;57;56.8;0;0.9;28.7;0.0;
22/07/2019 18:30:38;118;0;92.24;16;2.46;3.65;701.6;7.10;69490;4853.770;-13035.712;140;150;-316.8;57;57.2;0;0.9;27.4;0.0;
22/07/2019 18:30:48;118;0;88.81;16;16.96;3.43;701.6;7.10;69281;4853.770;-13035.712;140;150;-162.4;57;57.1;0;0.9;27.5;-1.0;
22/07/2019 18:30:58;118;0;88.11;16;19.69;3.43;701.1;7.10;69043;4853.770;-13035.712;140;150;-7.9;57;57.1;0;0.9;27.5;-1.0;
22/07/2019 18:31:08;118;0;87.65;16;19.70;3.61;700.3;7.10;68778;4853.770;-13035.712;140;150;148.5;57;57.1;0;0.9;27.5;-1.0;
22/07/2019 18:31:18;118;0;87.87;16;21.92;3.68;699.1;7.10;68542;4853.770;-13035.712;140;150;158.4;57;57.1;0;0.9;27.3;-1.0;
22/07/2019 18:31:28;118;0;106.44;16;24.32;3.51;697.3;7.10;68542;4853.770;-13035.712;140;150;158.4;57;57.1;0;0.9;28.7;-1.0;
22/07/2019 18:31:38;117;0;106.00;16;25.29;3.49;695.2;7.10;68539;4853.770;-13035.712;140;150;160.4;57;57.2;0;0.9;28.7;-1.0;
22/07/2019 18:31:58;117;0;103.83;16;26.27;3.44;690.4;7.10;68543;4853.770;-13035.712;140;150;160.4;57;57.1;16;16.2;28.7;-1.0;
22/07/2019 18:32:18;117;0;108.46;16;25.98;10.96;685.0;7.10;68539;4853.770;-13035.712;140;150;160.4;57;57.1;14;13.5;28.7;-1.0;
22/07/2019 18:32:38;117;0;111.94;16;25.91;8.85;679.9;7.10;68539;4853.770;-13035.712;140;150;160.4;57;57.1;14;13.1;28.7;-1.0;
22/07/2019 18:32:58;117;0;111.93;16;26.14;9.03;674.8;7.10;68528;4853.770;-13035.712;140;150;160.4;57;57.2;16;15.8;28.7;-1.0;
22/07/2019 18:33:18;117;0;115.03;16;25.87;10.60;669.9;7.10;68541;4853.770;-13035.712;140;150;160.4;57;57.1;14;14.0;28.7;-1.0;
22/07/2019 18:33:38;117;0;117.42;16;25.91;9.24;664.9;7.10;68536;4853.770;-13035.712;140;150;162.4;57;57.1;14;14.0;28.7;-1.0;
22/07/2019 18:33:58;117;0;118.71;16;26.02;9.27;660.0;7.10;68542;4853.770;-13035.712;140;150;160.4;57;57.1;14;13.5;28.7;-1.0;
22/07/2019 18:34:18;117;0;119.97;16;26.00;9.26;655.0;7.10;68545;4853.770;-13035.712;140;150;160.4;57;57.1;14;14.0;28.7;-1.0;
22/07/2019 18:34:38;117;0;120.41;16;26.15;9.22;649.9;7.10;68530;4853.770;-13035.712;140;150;160.4;57;57.1;14;13.5;28.7;-1.0;
22/07/2019 18:34:58;117;0;121.80;16;26.16;9.14;644.8;7.10;68530;4853.770;-13035.712;140;150;160.4;57;57.1;14;14.0;28.7;-1.0;
22/07/2019 18:35:18;117;0;122.12;16;26.18;9.13;639.6;7.10;68531;4853.770;-13035.712;140;150;162.4;57;57.1;14;14.0;28.7;-1.0;
22/07/2019 18:35:38;117;0;123.44;16;26.04;9.16;634.5;7.10;68534;4853.770;-13035.712;140;150;162.4;57;57.1;14;14.0;28.7;-1.0;
22/07/2019 18:35:58;117;0;123.99;16;26.06;9.11;629.4;7.00;68524;4853.770;-13035.712;140;150;160.4;57;57.1;14;13.5;28.7;-1.0;
22/07/2019 18:36:18;117;0;125.27;16;25.71;9.12;624.3;7.00;68528;4853.770;-13035.712;140;150;160.4;57;57.1;14;13.5;28.7;-1.0;
22/07/2019 18:36:38;117;0;126.91;16;25.58;9.18;619.3;7.00;68536;4853.770;-13035.712;140;150;160.4;57;57.1;14;14.0;28.7;-1.0;
22/07/2019 18:36:58;117;0;127.25;16;25.69;9.12;614.3;7.00;68525;4853.770;-13035.712;140;150;160.4;57;57.1;13;13.1;28.7;-1.0;
22/07/2019 18:37:18;117;0;126.37;16;25.80;8.60;609.3;7.00;68528;4853.770;-13035.712;140;150;160.4;57;57.1;14;14.0;28.7;-1.0;
22/07/2019 18:37:38;117;0;127.70;16;25.63;9.73;604.2;7.00;68531;4853.770;-13035.712;140;150;162.4;57;57.1;13;12.6;28.6;-1.0;
22/07/2019 18:37:58;117;0;128.99;16;25.55;8.50;599.0;7.00;68528;4853.770;-13035.712;140;150;160.4;57;57.1;13;12.2;28.7;-1.0;
22/07/2019 18:38:18;117;0;129.10;16;25.68;8.58;594.0;7.00;68531;4853.770;-13035.712;140;150;160.4;57;57.1;12;12.2;28.7;-1.0;
22/07/2019 18:38:38;117;0;128.71;16;25.65;8.47;588.9;7.00;68522;4853.770;-13035.712;140;150;160.4;57;57.1;13;13.1;28.7;-1.0;
22/07/2019 18:38:58;117;0;127.63;16;25.71;9.21;583.7;7.00;68527;4853.770;-13035.712;140;150;160.4;57;57.1;13;13.5;28.7;-1.0;
22/07/2019 18:39:18;117;0;129.59;16;25.23;9.34;578.8;7.00;68524;4853.770;-13035.712;140;150;160.4;57;57.1;12;12.2;28.7;-1.0;
22/07/2019 18:39:38;117;0;131.82;16;25.04;8.21;573.8;6.90;68517;4853.770;-13035.712;140;150;160.4;57;57.1;11;10.8;28.7;-1.0;
22/07/2019 18:39:58;117;0;132.71;16;25.22;7.64;568.9;6.90;68525;4853.770;-13035.712;140;150;160.4;57;57.1;10;9.9;28.7;-1.0;
22/07/2019 18:40:18;117;0;131.46;16;25.53;7.11;563.8;6.90;68521;4853.770;-13035.712;140;150;160.4;57;57.1;11;10.8;28.7;-1.0;
22/07/2019 18:40:38;117;0;130.06;16;25.60;8.36;558.7;6.90;68518;4853.770;-13035.712;140;150;160.4;57;57.1;11;11.7;28.7;-1.0;
22/07/2019 18:40:58;117;0;127.42;16;25.71;8.30;553.9;6.90;68534;4853.770;-13035.712;140;150;160.4;57;57.1;13;13.1;28.7;-1.0;
22/07/2019 18:41:18;117;0;128.78;16;24.99;9.43;548.7;7.00;68538;4853.770;-13035.712;140;150;160.4;57;57.1;11;10.8;28.7;-1.0;
22/07/2019 18:41:38;117;0;128.76;16;25.07;7.59;543.9;6.90;68532;4853.770;-13035.712;140;150;162.4;57;57.1;11;10.4;28.7;-1.0;
22/07/2019 18:41:58;117;0;127.19;16;25.17;7.68;539.0;6.90;68537;4853.770;-13035.712;140;150;160.4;57;57.1;11;10.4;28.7;-1.0;
22/07/2019 18:42:18;117;0;126.92;16;25.17;7.68;534.2;6.90;68532;4853.770;-13035.712;140;150;160.4;57;57.1;12;12.2;28.7;-1.0;
22/07/2019 18:42:38;117;0;125.90;16;25.06;8.82;529.3;6.90;68537;4853.770;-13035.712;140;150;160.4;57;57.1;12;12.6;28.7;-1.0;
22/07/2019 18:42:58;117;0;127.11;16;24.87;8.90;524.5;6.90;68533;4853.770;-13035.712;140;150;162.4;57;57.1;10;9.9;28.7;-1.0;
22/07/2019 18:43:18;117;0;126.68;16;24.95;7.05;519.5;6.90;68533;4853.770;-13035.712;140;150;160.4;57;57.1;11;10.8;28.7;-1.0;
22/07/2019 18:43:38;117;0;127.29;16;24.94;8.26;514.9;6.90;68546;4853.770;-13035.712;140;150;160.4;57;57.1;10;9.5;28.7;-1.0;
22/07/2019 18:43:58;117;0;126.15;16;24.83;7.06;510.0;6.90;68540;4853.770;-13035.712;140;150;160.4;57;57.1;11;11.3;28.7;-1.0;
22/07/2019 18:44:18;117;0;124.94;16;24.89;8.62;505.2;6.90;68545;4853.770;-13035.712;140;150;160.4;57;57.1;11;11.7;28.7;-1.0;
22/07/2019 18:44:38;117;0;125.91;16;24.59;8.44;500.6;6.90;68543;4853.770;-13035.712;140;150;162.4;57;57.1;11;11.7;28.7;-1.0;
22/07/2019 18:44:58;117;0;126.04;16;24.47;8.49;496.0;6.90;68537;4853.770;-13035.712;140;150;160.4;57;57.1;11;11.7;28.7;-1.0;
22/07/2019 18:45:18;117;0;126.23;16;24.55;8.38;491.4;6.90;68543;4853.770;-13035.712;140;150;160.4;57;57.1;11;11.7;28.7;-1.0;
22/07/2019 18:45:38;117;0;128.41;16;24.26;8.40;486.9;6.90;68543;4853.770;-13035.712;140;150;162.4;57;57.1;9;9.0;28.6;-1.0;
22/07/2019 18:45:58;117;0;128.76;16;24.46;6.77;482.4;6.90;68553;4853.770;-13035.712;140;150;160.4;57;57.1;9;8.1;28.7;-1.0;
22/07/2019 18:46:18;117;0;128.18;16;24.67;6.67;477.8;6.90;68554;4853.770;-13035.712;140;150;160.4;57;57.1;9;8.1;28.7;-1.0;
22/07/2019 18:46:38;117;0;127.57;16;24.52;6.86;473.1;6.90;68553;4853.770;-13035.712;140;150;162.4;57;57.1;10;9.9;28.7;-1.0;
22/07/2019 18:46:58;117;0;129.31;16;24.61;7.81;468.5;6.90;68550;4853.770;-13035.712;140;150;160.4;57;57.1;8;8.1;28.7;-1.0;
22/07/2019 18:47:18;117;0;127.63;16;24.39;6.63;463.8;7.00;68550;4853.770;-13035.712;140;150;160.4;57;57.1;10;9.9;28.7;-1.0;
22/07/2019 18:47:38;117;0;128.25;16;24.16;7.87;459.3;7.00;68558;4853.770;-13035.712;140;150;160.4;57;57.1;9;9.0;28.7;-1.0;
22/07/2019 18:47:58;117;0;128.25;16;24.15;6.69;454.8;6.90;68550;4853.770;-13035.712;140;150;160.4;57;57.1;9;8.6;28.7;-1.0;
22/07/2019 18:48:18;117;0;128.46;16;23.95;6.70;450.3;7.00;68555;4853.770;-13035.712;140;150;162.4;57;57.1;9;8.1;28.7;-1.0;
22/07/2019 18:48:38;117;0;129.04;16;23.91;6.77;445.9;7.00;68563;4853.770;-13035.712;140;150;162.4;57;57.1;8;8.1;28.7;-1.0;
22/07/2019 18:48:58;117;0;131.16;16;23.71;6.72;441.6;7.00;68559;4853.770;-13035.712;140;150;162.4;57;57.1;7;7.2;28.7;-1.0;
22/07/2019 18:49:18;117;0;131.81;16;23.93;6.05;437.4;7.00;68555;4853.770;-13035.712;140;150;160.4;57;57.1;7;6.8;28.7;-1.0;
22/07/2019 18:49:38;117;0;131.49;16;24.22;5.98;432.9;7.00;68563;4853.770;-13035.712;140;150;160.4;57;57.1;7;6.8;28.7;-1.0;
22/07/2019 18:49:58;117;0;131.66;16;24.25;5.96;428.5;7.00;68565;4853.770;-13035.712;140;150;162.4;57;57.1;7;6.8;28.7;-1.0;
22/07/2019 18:50:18;117;0;129.25;16;24.49;5.95;424.1;7.00;68571;4853.770;-13035.712;140;150;162.4;57;57.1;8;8.1;28.7;-1.0;
22/07/2019 18:50:38;117;0;127.21;16;24.22;7.16;419.6;7.00;68577;4853.770;-13035.712;140;150;160.4;57;57.1;8;9.0;28.7;-1.0;
22/07/2019 18:50:58;117;0;126.34;16;23.90;7.15;415.2;7.00;68569;4853.770;-13035.712;140;150;160.4;57;57.1;8;9.0;28.7;-1.0;
22/07/2019 18:51:18;117;0;125.71;16;24.01;7.18;410.9;7.00;68576;4853.770;-13035.712;140;150;162.4;57;57.1;8;9.0;28.7;-1.0;
22/07/2019 18:51:38;117;0;124.83;16;23.93;7.17;406.6;7.00;68581;4853.770;-13035.712;140;150;162.4;57;57.1;8;9.0;28.7;-1.0;
22/07/2019 18:51:58;117;0;123.90;16;23.94;7.12;402.2;7.00;68582;4853.770;-13035.712;140;150;160.4;57;57.1;8;9.0;28.7;-1.0;
22/07/2019 18:52:18;117;0;124.34;16;23.69;7.17;397.8;7.00;68589;4853.770;-13035.712;140;150;162.4;57;57.1;8;9.0;28.7;-1.0;
22/07/2019 18:52:38;117;0;124.17;16;23.57;7.23;393.5;7.00;68589;4853.770;-13035.712;140;150;162.4;57;57.1;8;9.0;28.7;-1.0;
22/07/2019 18:52:58;117;0;124.61;16;23.48;7.16;389.2;7.00;68592;4853.770;-13035.712;140;150;162.4;57;57.1;8;9.0;28.7;-1.0;
22/07/2019 18:53:18;117;0;125.49;16;23.48;7.21;384.9;7.10;68596;4853.770;-13035.712;140;150;162.4;57;57.1;8;9.0;28.7;-1.0;
22/07/2019 18:53:38;117;0;125.13;16;23.52;7.18;380.7;7.10;68596;4853.770;-13035.712;140;150;162.4;57;57.1;8;9.0;28.7;-1.0;
22/07/2019 18:53:58;117;0;124.77;16;23.35;7.22;376.5;7.10;68603;4853.770;-13035.712;140;150;160.4;57;57.1;8;9.0;28.7;-1.0;
22/07/2019 18:54:18;117;0;124.16;16;23.35;7.24;372.3;7.10;68603;4853.770;-13035.712;140;150;160.4;57;57.1;8;9.0;28.7;-1.0;
22/07/2019 18:54:38;117;0;124.55;16;23.22;7.23;368.2;7.10;68602;4853.770;-13035.712;140;150;162.4;57;57.1;8;9.0;28.7;-1.0;
22/07/2019 18:54:58;117;0;126.28;16;23.18;7.20;364.2;7.10;68608;4853.770;-13035.712;140;150;162.4;57;57.1;8;9.0;28.7;-1.0;
22/07/2019 18:55:18;117;0;127.81;16;23.08;7.19;360.1;7.10;68610;4853.770;-13035.712;140;150;162.4;57;57.1;6;5.4;28.7;-1.0;
22/07/2019 18:55:38;117;0;126.14;16;23.35;5.16;356.1;7.10;68604;4853.770;-13035.712;140;150;162.4;57;57.1;7;7.2;28.7;-1.0;
22/07/2019 18:55:58;117;0;126.34;16;23.11;6.55;352.1;7.10;68603;4853.770;-13035.712;140;150;162.4;57;57.1;7;7.7;28.7;-1.0;
22/07/2019 18:56:18;117;0;126.22;16;23.04;6.50;348.2;7.10;68611;4853.770;-13035.712;140;150;160.4;57;57.1;7;7.7;28.7;-1.0;
22/07/2019 18:56:38;117;0;126.13;16;23.31;6.55;344.2;7.10;68616;4853.770;-13035.712;140;150;162.4;57;57.2;7;7.2;28.7;-1.0;
22/07/2019 18:56:58;117;0;125.21;16;23.29;6.51;340.1;7.10;68618;4853.770;-13035.712;140;150;162.4;57;57.1;7;7.2;28.7;-1.0;
22/07/2019 18:57:18;117;0;123.59;16;23.32;6.56;336.0;7.20;68623;4853.770;-13035.712;140;150;162.4;57;57.1;7;7.7;28.7;-1.0;
22/07/2019 18:57:38;117;0;121.94;16;23.29;6.70;331.8;7.20;68626;4853.770;-13035.712;140;150;162.4;57;57.1;7;7.7;28.7;-1.0;
22/07/2019 18:57:58;117;0;121.65;16;23.16;6.36;327.5;7.20;68632;4853.770;-13035.712;140;150;162.4;57;57.1;7;7.7;28.7;-1.0;
22/07/2019 18:58:18;117;0;121.40;16;23.13;6.41;323.3;7.20;68632;4853.770;-13035.712;140;150;162.4;57;57.1;7;7.2;28.7;-1.0;
22/07/2019 18:58:38;117;0;120.83;16;23.09;6.44;319.2;7.20;68633;4853.770;-13035.712;140;150;162.4;57;57.1;8;8.1;28.7;-1.0;
22/07/2019 18:58:58;117;0;120.10;16;22.95;7.28;314.9;7.20;68639;4853.770;-13035.712;140;150;160.4;57;57.1;8;8.6;28.6;-1.0;
22/07/2019 18:59:18;117;0;121.21;16;22.72;7.21;310.8;7.20;68641;4853.770;-13035.712;140;150;162.4;57;57.1;8;9.0;28.7;-1.0;
22/07/2019 18:59:38;117;0;121.60;16;23.17;7.26;306.6;7.20;68635;4853.770;-13035.712;140;150;162.4;57;57.1;8;8.6;28.7;-1.0;
22/07/2019 18:59:58;117;0;122.87;16;22.77;7.10;302.4;7.20;68643;4853.770;-13035.712;140;150;162.4;57;57.1;7;7.2;28.7;-1.0;
22/07/2019 19:00:18;117;0;124.92;16;22.72;6.03;298.2;7.30;68646;4853.770;-13035.712;140;150;162.4;57;57.1;7;6.8;28.7;-1.0;
22/07/2019 19:00:39;117;0;126.74;16;22.61;6.14;294.1;7.30;68651;4853.770;-13035.712;140;150;162.4;57;57.1;7;6.8;28.7;-1.0;
22/07/2019 19:00:59;117;0;129.50;16;22.36;6.04;290.0;7.30;68650;4853.770;-13035.712;140;150;160.4;57;57.1;5;5.0;28.7;-1.0;
22/07/2019 19:01:19;117;0;129.68;16;22.56;4.94;285.9;7.30;68638;4853.770;-13035.712;140;150;162.4;57;57.1;5;4.5;28.7;-1.0;
22/07/2019 19:01:39;117;0;127.58;16;22.78;4.89;281.8;7.30;68650;4853.770;-13035.712;140;150;162.4;57;57.1;7;7.7;28.7;-1.0;
22/07/2019 19:01:59;117;0;126.07;16;22.64;6.89;277.5;7.30;68653;4853.770;-13035.712;140;150;160.4;57;57.1;7;8.1;28.7;-1.0;
22/07/2019 19:02:19;117;0;126.55;16;22.48;6.79;273.3;7.30;68649;4853.770;-13035.712;140;150;162.4;57;57.1;7;8.1;28.7;-1.0;
22/07/2019 19:02:39;117;0;126.96;16;22.37;6.84;269.2;7.30;68656;4853.770;-13035.712;140;150;162.4;57;57.1;7;8.1;28.7;-1.0;
22/07/2019 19:02:59;117;0;127.15;16;22.39;6.81;265.0;7.30;68652;4853.770;-13035.712;140;150;162.4;57;57.1;6;5.9;28.7;-1.0;
22/07/2019 19:03:19;117;0;126.67;16;22.47;5.48;260.7;7.40;68661;4853.770;-13035.712;140;150;162.4;57;57.1;6;5.4;28.7;-1.0;
22/07/2019 19:03:39;117;0;125.48;16;22.51;5.50;256.4;7.40;68661;4853.770;-13035.712;140;150;162.4;57;57.1;7;7.7;28.7;-1.0;
22/07/2019 19:03:59;117;0;125.56;16;22.40;6.79;252.1;7.40;68665;4853.770;-13035.712;140;150;162.4;57;57.1;7;8.1;28.7;-1.0;
22/07/2019 19:04:19;117;0;125.82;16;22.60;6.62;247.7;7.40;68667;4853.770;-13035.712;140;150;162.4;57;57.1;6;5.9;28.7;-1.0;
22/07/2019 19:04:39;117;0;125.18;16;22.57;5.33;243.2;7.40;68665;4853.770;-13035.712;140;150;162.4;57;57.1;6;5.4;28.7;-1.0;
22/07/2019 19:04:59;117;0;125.78;16;22.44;5.43;238.9;7.40;68666;4853.770;-13035.712;140;150;162.4;57;57.1;6;5.4;28.7;-1.0;
22/07/2019 19:05:19;117;0;126.45;16;22.09;5.48;234.5;7.40;68681;4853.770;-13035.712;140;150;162.4;57;57.1;6;5.4;28.7;-1.0;
22/07/2019 19:05:39;117;0;127.54;16;22.03;5.50;230.4;7.40;68685;4853.770;-13035.712;140;150;162.4;57;57.1;5;5.0;28.7;-1.0;
22/07/2019 19:05:59;117;0;128.60;16;21.88;4.98;226.3;7.40;68677;4853.770;-13035.712;140;150;162.4;57;57.1;5;4.5;28.7;-1.0;
22/07/2019 19:06:19;117;0;130.20;16;21.81;4.91;222.3;7.40;68683;4853.770;-13035.712;140;150;162.4;57;57.1;4;4.1;28.7;-1.0;
22/07/2019 19:06:39;117;0;130.14;16;21.88;4.91;218.2;7.50;68691;4853.770;-13035.712;140;150;162.4;57;57.1;4;4.1;28.7;-1.0;
22/07/2019 19:06:59;117;0;128.79;16;22.05;5.00;214.3;7.50;68684;4853.770;-13035.712;140;150;162.4;57;57.1;5;5.4;28.7;-1.0;
22/07/2019 19:07:19;117;0;129.32;16;21.76;5.64;210.3;7.50;68692;4853.770;-13035.712;140;150;162.4;57;57.1;4;4.1;28.7;-1.0;
22/07/2019 19:07:39;117;0;127.04;16;21.79;4.59;206.4;7.50;68696;4853.770;-13035.712;140;150;162.4;57;57.1;5;5.0;28.7;-1.0;
22/07/2019 19:07:59;117;0;125.40;16;21.91;5.87;202.5;7.50;68698;4853.770;-13035.712;140;150;162.4;57;57.1;6;5.9;28.7;-1.0;
22/07/2019 19:08:19;117;0;125.85;16;21.81;5.90;198.6;7.50;68703;4853.770;-13035.712;140;150;162.4;57;57.1;5;5.0;28.7;-1.0;
22/07/2019 19:08:39;117;0;122.91;16;21.98;5.08;194.8;7.50;68708;4853.770;-13035.712;140;150;162.4;57;57.1;5;4.5;28.7;-1.0;
22/07/2019 19:08:59;117;0;122.78;16;21.75;5.08;190.9;7.60;68705;4853.770;-13035.712;140;150;162.4;57;57.1;5;4.5;28.7;-1.0;
22/07/2019 19:09:19;117;0;121.43;16;21.76;5.09;186.9;7.60;68703;4853.770;-13035.712;140;150;162.4;57;57.1;5;4.5;28.7;-1.0;
22/07/2019 19:09:39;117;0;121.67;16;21.44;5.09;183.0;7.60;68711;4853.770;-13035.712;140;150;162.4;57;57.1;5;4.5;28.7;-1.0;
22/07/2019 19:09:59;117;0;122.69;16;21.44;5.06;179.2;7.60;68719;4853.770;-13035.712;140;150;164.4;57;57.1;5;4.5;28.7;-1.0;
22/07/2019 19:10:19;117;0;120.90;16;21.65;5.12;175.3;7.60;68720;4853.770;-13035.712;140;150;162.4;57;57.1;7;7.7;28.7;-1.0;
22/07/2019 19:10:39;117;0;120.95;16;21.23;7.03;171.3;7.70;68729;4853.770;-13035.712;140;150;162.4;57;57.1;6;5.9;28.7;-1.0;
22/07/2019 19:10:59;117;0;119.49;16;21.39;5.53;167.4;7.60;68730;4853.770;-13035.712;140;150;162.4;57;57.1;7;7.7;28.7;-1.0;
22/07/2019 19:11:19;117;0;115.42;16;21.78;7.01;163.2;7.70;68735;4853.770;-13035.712;140;150;162.4;57;57.1;9;9.5;28.7;-1.0;
22/07/2019 19:11:39;117;0;113.16;16;21.44;7.75;158.9;7.70;68741;4853.770;-13035.712;140;150;162.4;57;57.1;10;9.9;28.7;-1.0;
22/07/2019 19:11:59;117;0;111.24;16;21.37;7.86;154.7;7.70;68748;4853.770;-13035.712;140;150;164.4;57;57.1;11;10.8;28.7;-1.0;
22/07/2019 19:12:19;117;0;114.29;16;20.49;8.50;150.7;7.70;68744;4853.770;-13035.712;140;150;162.4;57;57.1;9;9.0;28.8;-1.0;
22/07/2019 19:12:39;117;0;118.08;16;20.41;6.99;146.9;7.70;68749;4853.770;-13035.712;140;150;162.4;57;57.1;7;7.2;28.7;-1.0;
22/07/2019 19:12:59;117;0;124.09;16;19.91;6.35;143.0;7.70;68747;4853.770;-13035.712;140;150;164.4;57;57.1;7;6.8;28.7;-1.0;
22/07/2019 19:13:19;117;0;128.78;16;20.09;6.07;139.3;7.80;68759;4853.770;-13035.712;140;150;160.4;57;57.1;4;4.1;28.7;-1.0;
22/07/2019 19:13:39;117;0;130.18;16;20.22;4.78;135.7;7.80;68762;4853.770;-13035.712;140;150;162.4;57;57.1;4;3.6;28.7;-1.0;
22/07/2019 19:13:59;117;0;128.41;16;20.36;4.78;131.9;7.80;68764;4853.770;-13035.712;140;150;162.4;57;57.1;6;5.9;28.7;-1.0;
22/07/2019 19:14:19;117;0;132.81;16;19.98;6.29;128.2;7.80;68760;4853.770;-13035.712;140;150;164.4;57;57.1;3;3.2;28.7;-1.0;
22/07/2019 19:14:39;117;0;135.85;16;19.95;4.40;124.4;7.80;68764;4853.770;-13035.712;140;150;162.4;57;57.1;2;1.8;28.7;-1.0;
22/07/2019 19:14:59;117;0;130.49;16;19.43;3.71;120.8;7.80;68766;4853.770;-13035.712;140;150;162.4;57;57.1;6;5.9;28.7;-1.0;
22/07/2019 19:15:19;117;0;127.04;16;20.01;6.20;117.4;7.90;68776;4853.770;-13035.712;140;150;162.4;57;57.1;7;7.2;28.7;-1.0;
22/07/2019 19:15:39;117;0;122.97;16;19.76;6.84;113.9;7.90;68772;4853.770;-13035.712;140;150;162.4;57;57.1;7;7.7;28.7;-1.0;
22/07/2019 19:15:59;117;0;121.42;16;19.38;6.87;110.6;7.90;68771;4853.770;-13035.712;140;150;162.4;57;57.1;7;7.7;28.7;-1.0;
22/07/2019 19:16:19;117;0;127.33;16;18.80;6.88;107.1;7.90;68776;4853.770;-13035.712;140;150;162.4;57;57.1;4;4.1;28.7;-1.0;
22/07/2019 19:16:39;117;0;128.73;16;19.07;4.88;103.9;7.90;68769;4853.770;-13035.712;140;150;164.4;57;57.1;4;3.6;28.7;-1.0;
22/07/2019 19:16:59;117;0;129.17;16;18.62;4.81;100.5;7.90;68761;4853.770;-13035.712;140;150;162.4;57;57.1;4;4.1;28.7;-1.0;
22/07/2019 19:17:19;117;0;129.87;16;18.44;4.82;97.3;7.90;68770;4853.770;-13035.712;140;150;162.4;57;57.1;4;4.1;28.7;-1.0;
22/07/2019 19:17:39;117;0;127.34;16;18.49;4.60;94.1;8.00;68778;4853.770;-13035.712;140;150;164.4;57;57.1;5;5.0;28.7;-1.0;
22/07/2019 19:17:59;117;0;118.59;16;17.84;5.43;91.1;8.00;68770;4853.770;-13035.712;140;150;162.4;57;57.1;5;5.0;28.7;-1.0;
22/07/2019 19:18:19;117;0;119.44;16;16.99;5.63;88.3;8.00;68776;4853.770;-13035.712;140;150;162.4;57;57.1;8;8.1;28.7;-1.0;
