Timestamp;NavState;SecurityLevel;Heading;Declination;Pitch;Roll;Depth;Temperature;Pa;Lat;Lon;DesiredH;BallastCmd;BallastPos;LinCmd;LinPos;AngCmd;AngPos;Voltage;Altitude;
23/07/2019 06:49:49;117;0;141.89;16;8.18;2.72;9.1;10.70;69987;4849.261;-13021.611;145;150;160.4;57;57.2;-1;-1.4;28.6;-1.0;
23/07/2019 06:49:59;115;0;143.60;16;7.10;2.77;8.4;10.80;69976;4849.261;-13021.611;145;300;158.4;100;96.7;0;0.9;28.6;-1.0;
23/07/2019 06:50:09;115;0;127.73;16;-24.41;4.01;7.8;10.80;69943;4849.261;-13021.611;145;300;305.0;100;100.4;0;1.4;28.2;-1.0;
23/07/2019 06:50:19;115;0;119.85;16;-69.85;0.96;8.1;10.80;69760;4849.261;-13021.611;145;300;305.0;100;100.4;0;0.9;28.6;-1.0;
23/07/2019 06:50:29;115;0;133.19;16;-52.19;0.37;6.3;10.90;69779;4849.261;-13021.611;145;300;306.9;100;100.3;0;0.9;28.6;-1.0;
23/07/2019 06:50:39;116;0;169.01;16;-51.44;-2.47;3.5;11.00;69790;4849.261;-13021.611;145;300;308.9;100;100.3;0;0.9;28.6;-1.0;
23/07/2019 06:50:59;116;0;235.80;16;-20.77;10.11;2.8;11.10;69801;4849.261;-13021.611;145;300;308.9;100;100.3;0;1.4;28.6;-1.0;
23/07/2019 06:51:20;116;0;217.90;16;-12.14;2.33;2.8;11.20;69805;4849.261;-13021.611;145;300;310.9;100;100.3;0;0.9;28.6;-1.0;
23/07/2019 06:51:40;116;0;201.11;16;-47.75;2.39;3.4;11.30;69819;4849.261;-13021.611;145;300;308.9;100;100.3;0;0.9;28.6;-1.0;
23/07/2019 06:51:59;116;0;222.69;16;-31.84;0.33;3.1;11.40;69836;4847.522;-13018.450;145;300;308.9;100;100.3;0;0.9;28.7;-1.0;
23/07/2019 06:52:19;116;0;239.24;16;-40.19;6.53;3.1;11.50;69852;4847.522;-13018.449;145;300;308.9;100;100.4;0;0.9;28.6;-1.0;
23/07/2019 06:52:39;116;0;236.37;16;-41.16;6.35;3.1;11.60;69866;4847.522;-13018.450;145;300;308.9;100;100.4;0;0.9;28.6;-1.0;
23/07/2019 06:52:59;116;0;255.58;16;-33.04;7.57;3.1;11.70;69868;4847.523;-13018.449;145;300;308.9;100;100.3;0;0.9;28.6;-1.0;
23/07/2019 06:53:19;116;0;263.54;16;-33.58;4.83;3.1;11.80;69868;4847.523;-13018.449;145;300;308.9;100;100.3;0;0.9;28.6;-1.0;
23/07/2019 06:53:39;116;0;239.30;16;-40.33;6.59;3.1;11.90;69880;4847.524;-13018.450;145;300;310.9;100;100.3;0;0.9;28.6;-1.0;
23/07/2019 06:53:59;116;0;240.41;16;-30.52;6.65;3.0;12.00;69900;4847.524;-13018.449;145;300;308.9;100;100.3;0;1.4;28.6;-1.0;
23/07/2019 06:54:19;116;0;239.20;16;-36.21;5.19;3.1;12.10;69896;4847.526;-13018.449;145;300;308.9;100;100.3;0;1.4;28.6;-1.0;
23/07/2019 06:54:57;116;0;229.92;16;-33.86;4.53;3.0;12.20;69921;4847.526;-13018.449;145;300;308.9;100;100.3;0;0.9;28.6;-1.0;
23/07/2019 06:55:17;116;0;233.16;16;-38.25;4.77;3.2;12.40;69920;4847.526;-13018.449;145;300;308.9;100;100.3;0;1.4;28.6;-1.0;
23/07/2019 06:55:37;116;0;211.13;16;-39.17;-2.38;3.2;12.40;69932;4847.527;-13018.449;145;300;308.9;100;100.4;0;0.9;28.6;-1.0;
23/07/2019 06:55:57;116;0;215.81;16;-34.57;2.95;3.0;12.50;69935;4847.527;-13018.449;145;300;308.9;100;100.4;0;0.9;28.6;-1.0;
23/07/2019 06:56:17;116;0;226.69;16;-36.36;1.11;3.2;12.60;69937;4847.528;-13018.448;145;300;308.9;100;100.3;0;0.9;28.6;-1.0;
23/07/2019 06:56:37;116;0;221.03;16;-38.37;0.48;3.2;12.70;69949;4847.529;-13018.448;145;300;308.9;100;100.4;0;1.4;28.6;-1.0;
23/07/2019 06:56:57;116;0;230.82;16;-33.66;-3.25;3.1;12.80;69966;4847.529;-13018.447;145;300;308.9;100;100.3;0;0.9;28.6;-1.0;
23/07/2019 06:57:17;116;0;205.56;16;-33.26;2.90;3.1;12.90;69976;4847.530;-13018.447;145;300;308.9;100;100.4;0;1.4;28.6;-1.0;
23/07/2019 06:57:37;116;0;219.42;16;-36.53;-3.30;3.1;13.00;69969;4847.531;-13018.447;145;300;310.9;100;100.4;0;1.4;28.6;-1.0;
23/07/2019 06:57:57;116;0;219.06;16;-35.13;11.83;3.1;13.00;69975;4847.531;-13018.447;145;300;308.9;100;100.4;0;0.9;28.6;-1.0;
23/07/2019 06:58:17;116;0;240.32;16;-30.82;3.63;3.1;13.10;69980;4847.533;-13018.447;145;300;308.9;100;100.3;0;0.9;28.6;-1.0;
23/07/2019 06:58:56;116;0;251.02;16;-36.19;2.23;3.1;13.30;69992;4847.533;-13018.446;145;300;308.9;100;100.4;0;0.9;28.6;-1.0;
23/07/2019 06:59:16;116;0;234.59;16;-39.88;2.41;3.1;13.30;70003;4847.533;-13018.447;145;300;308.9;100;100.4;0;0.9;28.6;-1.0;
23/07/2019 06:59:36;116;0;253.15;16;-33.96;7.52;3.0;13.40;70016;4847.534;-13018.447;145;300;308.9;100;100.4;0;1.4;28.6;-1.0;
23/07/2019 06:59:56;116;0;255.21;16;-39.91;-2.99;3.1;13.50;70010;4847.534;-13018.448;145;300;308.9;100;100.3;0;0.9;28.6;-1.0;
23/07/2019 07:00:16;116;0;247.19;16;-36.73;-0.07;3.2;13.50;70012;4847.535;-13018.449;145;300;308.9;100;100.3;0;1.4;28.6;-1.0;
23/07/2019 07:00:36;116;0;233.29;16;-35.48;8.54;3.1;13.60;70027;4847.536;-13018.449;145;300;308.9;100;100.3;0;1.4;28.6;-1.0;
23/07/2019 07:00:56;116;0;245.33;16;-34.25;13.90;3.2;13.70;70023;4847.536;-13018.450;145;300;306.9;100;100.3;0;1.4;28.6;-1.0;
23/07/2019 07:01:16;116;512;215.45;16;-36.48;4.91;3.1;13.70;70037;4847.536;-13018.450;145;300;308.9;100;100.4;0;0.9;28.6;-1.0;
23/07/2019 07:01:36;118;512;201.74;16;-36.89;6.85;3.1;13.80;70038;4847.536;-13018.450;145;400;322.8;20;57.2;0;0.9;28.6;-1.0;
23/07/2019 07:01:46;118;512;177.73;16;-13.62;4.30;3.1;13.90;69942;4847.536;-13018.450;145;400;405.9;20;19.7;0;0.9;28.2;-1.0;
23/07/2019 07:01:56;118;512;201.75;16;-2.08;4.65;2.9;13.90;69870;4847.536;-13018.450;145;400;405.9;20;19.8;0;1.4;28.6;-1.0;
