Timestamp;NavState;SecurityLevel;Heading;Declination;Pitch;Roll;Depth;Temperature;Pa;Lat;Lon;DesiredH;BallastCmd;BallastPos;LinCmd;LinPos;AngCmd;AngPos;Voltage;Altitude;
22/07/2019 05:24:14;117;0;266.97;16;8.02;4.39;9.5;10.20;69870;4854.678;-13036.411;270;150;156.4;57;57.2;0;-0.5;28.8;-1.0;
22/07/2019 05:24:24;115;0;266.93;16;8.26;2.87;8.9;10.20;69887;4854.678;-13036.411;270;300;168.3;100;99.9;0;-0.9;28.8;-1.0;
22/07/2019 05:24:34;115;0;279.80;16;-33.64;3.73;8.6;10.30;69816;4854.678;-13036.411;270;300;306.9;100;99.9;0;-0.9;28.4;-1.0;
22/07/2019 05:24:44;115;0;283.15;16;-70.26;10.03;8.8;10.30;69656;4854.678;-13036.411;270;300;306.9;100;100.0;0;-0.9;28.8;-1.0;
22/07/2019 05:24:54;115;0;258.75;16;-54.51;4.03;6.9;10.40;69673;4854.678;-13036.411;270;300;306.9;100;99.9;0;-0.9;28.8;-1.0;
22/07/2019 05:25:04;116;0;236.89;16;-44.12;3.83;4.2;10.40;69689;4854.678;-13036.411;270;300;306.9;100;99.9;0;-0.9;28.8;-1.0;
22/07/2019 05:25:24;116;0;148.32;16;-48.91;5.28;3.0;10.60;69693;4854.678;-13036.411;270;300;306.9;100;99.9;0;-0.9;28.8;-1.0;
22/07/2019 05:25:44;116;0;158.48;16;-18.81;2.89;2.5;10.70;69725;4854.512;-13036.983;270;300;310.9;100;99.9;0;-0.9;28.8;-1.0;
22/07/2019 05:26:04;116;0;166.90;16;-25.77;3.35;2.7;10.80;69729;4854.511;-13036.983;270;300;310.9;100;99.9;0;-0.9;28.8;-1.0;
22/07/2019 05:26:24;116;0;146.94;16;-44.66;3.80;3.0;10.90;69744;4854.509;-13036.984;270;300;308.9;100;99.9;0;-0.9;28.8;-1.0;
22/07/2019 05:26:44;116;0;160.37;16;-22.23;5.17;2.5;11.00;69760;4854.509;-13036.982;270;300;308.9;100;99.9;0;-0.9;28.8;-1.0;
22/07/2019 05:27:04;116;0;182.08;16;-27.35;3.04;2.7;11.10;69770;4854.507;-13036.980;270;300;308.9;100;99.9;0;-0.9;28.8;-1.0;
22/07/2019 05:27:24;116;0;167.11;16;-36.29;0.45;2.9;11.20;69798;4854.507;-13036.980;270;300;308.9;100;99.9;0;-0.9;28.8;-1.0;
22/07/2019 05:27:44;116;0;152.78;16;-31.87;-2.10;2.5;11.30;69792;4854.507;-13036.980;270;300;310.9;100;99.9;0;-0.9;28.8;-1.0;
22/07/2019 05:28:04;116;0;142.21;16;-34.45;1.46;2.7;11.40;69809;4854.494;-13036.963;270;300;310.9;100;99.9;0;-0.9;28.8;-1.0;
22/07/2019 05:32:14;116;0;166.64;16;-39.47;-3.51;2.9;12.70;69922;4854.492;-13036.959;270;300;308.9;100;99.9;0;-0.9;28.8;-1.0;
22/07/2019 05:33:43;116;0;170.38;16;-28.83;0.28;2.6;13.10;69948;4854.491;-13036.958;270;300;308.9;100;99.9;0;-0.9;28.7;-1.0;
22/07/2019 05:34:03;116;0;166.24;16;-23.68;2.84;2.6;13.20;69964;4854.491;-13036.958;270;300;308.9;100;99.9;0;-0.9;28.8;-1.0;
22/07/2019 05:34:23;116;0;145.29;16;-45.40;3.53;2.9;13.30;69962;4854.489;-13036.958;270;300;308.9;100;99.9;0;-0.9;28.8;-1.0;
22/07/2019 05:34:43;116;0;166.02;16;-33.86;-0.54;2.6;13.30;69972;4854.489;-13036.958;270;300;308.9;100;99.9;0;-0.9;28.8;-1.0;
22/07/2019 05:40:19;116;0;161.94;16;-32.79;2.73;2.8;14.40;70059;4854.476;-13036.941;270;300;308.9;100;99.9;0;-0.9;28.8;-1.0;
22/07/2019 05:40:39;116;0;152.22;16;-34.59;3.92;2.7;14.40;70057;4854.475;-13036.941;270;300;308.9;100;99.9;0;-0.9;28.8;-1.0;
22/07/2019 05:40:59;116;0;177.60;16;-28.31;-1.47;2.6;14.50;70064;4854.475;-13036.940;270;300;308.9;100;99.9;0;-0.9;28.8;-1.0;
22/07/2019 05:41:19;116;0;164.71;16;-38.13;-1.16;2.8;14.50;70066;4854.473;-13036.939;270;300;308.9;100;99.9;0;-0.9;28.8;-1.0;
22/07/2019 05:41:39;116;0;148.96;16;-38.00;2.42;2.7;14.60;70075;4854.473;-13036.939;270;300;306.9;100;99.9;0;-0.9;28.8;-1.0;
22/07/2019 05:41:59;116;0;131.62;16;-30.36;8.12;2.5;14.60;70077;4854.472;-13036.938;270;300;306.9;100;99.9;0;-0.9;28.8;-1.0;
22/07/2019 05:42:19;116;0;155.97;16;-33.90;-1.26;2.8;14.70;70080;4854.471;-13036.937;270;300;306.9;100;99.9;0;-0.9;28.8;-1.0;
22/07/2019 05:42:39;116;0;145.73;16;-33.73;1.19;2.7;14.70;70089;4854.470;-13036.937;270;300;308.9;100;99.9;0;-0.9;28.8;-1.0;
22/07/2019 05:42:59;116;0;155.48;16;-27.59;3.84;2.5;14.70;70092;4854.470;-13036.936;270;300;306.9;100;99.9;0;-0.9;28.8;-1.0;
22/07/2019 05:43:19;116;0;167.57;16;-34.58;7.88;2.7;14.80;70091;4854.467;-13036.934;270;300;306.9;100;99.9;0;-0.9;28.8;-1.0;
22/07/2019 05:43:57;116;0;168.43;16;-32.92;0.91;2.5;14.80;70095;4854.467;-13036.934;270;300;306.9;100;99.9;0;-0.9;28.8;-1.0;
22/07/2019 05:44:17;116;0;185.30;16;-33.42;-4.58;2.6;14.90;70113;4854.464;-13036.933;270;300;306.9;100;99.9;0;-0.9;28.8;-1.0;
22/07/2019 05:44:38;116;0;164.97;16;-39.72;0.05;2.8;14.90;70112;4854.464;-13036.933;270;300;306.9;100;99.9;0;-0.9;28.8;-1.0;
22/07/2019 05:44:58;116;0;159.44;16;-28.12;-0.76;2.6;14.90;70118;4854.464;-13036.932;270;300;306.9;100;99.9;0;-0.9;28.8;-1.0;
22/07/2019 05:45:18;116;0;148.61;16;-33.91;0.59;2.6;15.00;70116;4854.463;-13036.931;270;300;308.9;100;99.9;0;-0.9;28.8;-1.0;
22/07/2019 05:45:38;116;0;151.53;16;-42.06;7.30;2.8;15.00;70120;4854.461;-13036.930;270;300;306.9;100;99.9;0;-0.9;28.8;-1.0;
22/07/2019 05:45:58;116;0;170.66;16;-27.22;1.78;2.5;15.00;70124;4854.461;-13036.930;270;300;308.9;100;100.0;0;-0.9;28.8;-1.0;
22/07/2019 05:46:18;110;0;182.27;16;-29.04;-1.16;2.6;15.10;70133;4854.461;-13036.930;270;-500;192.1;100;99.9;0;-0.9;28.8;-1.0;
22/07/2019 05:46:28;110;0;166.45;16;-38.54;0.33;2.8;15.10;70397;4854.461;-13036.930;270;-500;19.8;100;100.0;0;-0.9;28.7;-1.0;
22/07/2019 05:46:38;110;0;159.51;16;-58.47;0.90;3.2;15.10;70617;4854.461;-13036.930;270;-500;-166.3;100;100.0;0;-0.9;28.7;-1.0;
22/07/2019 05:46:48;110;0;140.09;16;-68.84;12.92;3.9;15.10;70924;4854.461;-13036.930;270;-500;-368.3;90;89.7;0;-0.9;28.7;-1.0;
22/07/2019 05:46:58;110;0;147.68;16;-54.70;-2.21;5.1;15.10;71260;4854.461;-13036.930;270;-500;-501.0;78;77.8;0;-0.9;28.7;-1.0;
22/07/2019 05:47:08;110;0;147.69;16;-48.38;3.48;7.8;15.10;71452;4854.461;-13036.930;270;-500;-499.0;70;70.0;0;-0.9;28.8;-1.0;
22/07/2019 05:47:18;100;0;146.46;16;-36.15;2.95;11.3;15.10;71445;4854.461;-13036.930;270;-500;-499.0;70;69.9;0;-0.9;28.8;-1.0;
22/07/2019 05:47:38;100;0;145.97;16;-29.15;3.45;17.4;15.20;71460;4854.461;-13036.930;270;-500;-499.0;70;69.9;0;-0.9;28.8;0.0;
22/07/2019 05:47:58;100;0;129.76;16;-26.38;3.09;23.3;15.20;71424;4854.461;-13036.930;270;-500;-497.0;70;69.7;-45;-45.1;28.8;0.0;
22/07/2019 05:48:18;100;0;126.80;16;-27.08;-17.36;28.4;15.20;71353;4854.461;-13036.930;270;-500;-497.0;70;69.7;-45;-45.6;28.8;0.0;
22/07/2019 05:48:38;100;0;127.94;16;-26.84;-17.36;33.6;15.10;71271;4854.461;-13036.930;270;-500;-495.0;70;69.7;-45;-45.6;28.8;0.0;
22/07/2019 05:48:58;100;0;127.07;16;-26.17;-17.45;38.8;15.10;71183;4854.461;-13036.930;270;-500;-497.0;70;69.7;-43;-42.4;28.8;0.0;
22/07/2019 05:49:18;100;0;132.36;16;-24.94;-15.52;43.3;15.10;71087;4854.461;-13036.930;270;-500;-497.0;70;69.7;-39;-38.8;28.8;0.0;
22/07/2019 05:49:38;100;0;132.49;16;-24.69;-13.80;47.8;15.00;70999;4854.461;-13036.930;270;-500;-495.0;70;69.7;-39;-37.9;28.8;0.0;
22/07/2019 05:49:58;100;0;136.46;16;-24.59;-14.01;51.9;14.90;70923;4854.461;-13036.930;270;-500;-495.0;70;69.7;-36;-36.1;28.8;0.0;
22/07/2019 05:50:18;100;0;137.33;16;-24.59;-12.60;56.1;14.80;70848;4854.461;-13036.930;270;-500;-497.0;70;69.7;-37;-37.0;28.8;0.0;
22/07/2019 05:50:38;100;0;137.06;16;-24.76;-13.81;60.3;14.70;70792;4854.461;-13036.930;270;-500;-497.0;70;69.7;-37;-37.9;28.8;0.0;
22/07/2019 05:50:58;100;0;145.19;16;-23.86;-13.91;64.5;14.60;70739;4854.461;-13036.930;270;-500;-497.0;70;69.7;-33;-32.9;28.8;0.0;
22/07/2019 05:51:18;100;0;150.92;16;-24.08;-11.31;68.5;14.50;70700;4854.461;-13036.930;270;-500;-497.0;70;69.7;-32;-32.0;28.8;0.0;
22/07/2019 05:51:38;100;0;150.77;16;-24.71;-11.28;72.7;14.40;70659;4854.461;-13036.930;270;-500;-495.0;70;69.7;-33;-32.9;28.8;0.0;
22/07/2019 05:51:58;100;0;153.37;16;-24.05;-11.84;76.9;14.30;70613;4854.461;-13036.930;270;-500;-495.0;70;69.7;-32;-32.0;28.8;0.0;
22/07/2019 05:52:18;100;0;160.54;16;-23.10;-10.99;80.9;14.30;70576;4854.461;-13036.930;270;-500;-495.0;70;69.7;-29;-28.9;28.8;0.0;
22/07/2019 05:52:38;100;0;158.80;16;-23.51;-9.42;84.9;14.20;70532;4854.461;-13036.930;270;-500;-497.0;70;69.7;-32;-32.0;28.8;0.0;
22/07/2019 05:52:58;100;0;157.03;16;-22.78;-11.37;88.8;14.10;70497;4854.461;-13036.930;270;-500;-497.0;70;69.7;-34;-33.8;28.8;0.0;
22/07/2019 05:53:18;100;0;156.99;16;-22.92;-12.31;92.3;14.00;70472;4854.461;-13036.930;270;-500;-497.0;70;69.7;-34;-34.3;28.8;0.0;
22/07/2019 05:53:38;100;0;156.58;16;-23.04;-12.53;95.9;13.90;70445;4854.461;-13036.930;270;-500;-495.0;70;69.7;-34;-34.3;28.8;0.0;
22/07/2019 05:53:58;100;0;166.06;16;-21.85;-12.44;99.4;13.80;70431;4854.461;-13036.930;270;-500;-495.0;70;69.7;-28;-27.5;28.8;0.0;
22/07/2019 05:54:18;100;0;168.03;16;-22.26;-9.07;102.7;13.70;70419;4854.461;-13036.930;270;-500;-495.0;70;69.7;-29;-28.9;28.8;0.0;
22/07/2019 05:54:38;100;0;167.63;16;-21.67;-10.15;106.1;13.60;70393;4854.461;-13036.930;270;-500;-495.0;70;69.7;-31;-31.1;28.8;0.0;
22/07/2019 05:54:58;100;0;169.50;16;-21.76;-11.08;109.4;13.50;70401;4854.461;-13036.930;270;-500;-497.0;70;69.7;-30;-29.8;28.8;0.0;
22/07/2019 05:55:18;100;0;166.76;16;-21.77;-9.95;112.7;13.50;70378;4854.461;-13036.930;270;-500;-497.0;70;69.6;-32;-32.0;28.8;0.0;
22/07/2019 05:55:38;100;0;163.34;16;-21.15;-11.48;116.1;13.40;70374;4854.461;-13036.930;270;-500;-497.0;70;69.7;-34;-33.8;28.8;0.0;
22/07/2019 05:55:58;100;0;167.81;16;-20.89;-12.36;119.2;13.30;70370;4854.461;-13036.930;270;-500;-495.0;70;69.7;-31;-31.1;28.8;0.0;
22/07/2019 05:56:18;100;0;172.86;16;-20.69;-10.70;122.5;13.30;70365;4854.461;-13036.930;270;-500;-495.0;70;69.7;-28;-28.0;28.8;0.0;
22/07/2019 05:56:38;100;0;177.73;16;-20.46;-9.18;125.5;13.20;70353;4854.461;-13036.930;270;-500;-495.0;70;69.7;-27;-27.1;28.8;0.0;
22/07/2019 05:56:58;100;0;177.25;16;-20.91;-9.21;128.5;13.10;70352;4854.461;-13036.930;270;-500;-495.0;70;69.7;-28;-28.0;28.8;0.0;
22/07/2019 05:57:18;100;0;179.03;16;-20.49;-9.75;131.5;13.10;70338;4854.461;-13036.930;270;-500;-495.0;70;69.7;-28;-28.4;28.8;0.0;
22/07/2019 05:57:38;100;0;180.37;16;-20.10;-9.70;134.5;13.00;70335;4854.461;-13036.930;270;-500;-495.0;70;69.7;-28;-28.4;28.8;0.0;
22/07/2019 05:57:58;100;0;182.30;16;-20.06;-9.74;137.5;12.90;70330;4854.461;-13036.930;270;-500;-495.0;70;69.7;-27;-27.1;28.8;0.0;
22/07/2019 05:58:18;100;0;184.59;16;-19.96;-8.79;140.3;12.90;70317;4854.461;-13036.930;270;-500;-495.0;70;69.7;-27;-26.2;28.8;0.0;
22/07/2019 05:58:38;100;0;187.04;16;-20.03;-8.92;143.2;12.80;70313;4854.461;-13036.930;270;-500;-495.0;70;69.7;-26;-26.2;28.8;0.0;
22/07/2019 05:58:58;100;0;188.02;16;-19.88;-8.84;146.1;12.80;70307;4854.461;-13036.930;270;-500;-495.0;70;69.7;-26;-26.2;28.8;0.0;
22/07/2019 05:59:18;100;0;188.32;16;-19.88;-8.81;149.0;12.70;70301;4854.461;-13036.930;270;-500;-495.0;70;69.7;-27;-27.1;28.8;0.0;
22/07/2019 05:59:38;100;0;188.41;16;-19.93;-9.46;151.7;12.60;70295;4854.461;-13036.930;270;-500;-495.0;70;69.7;-27;-27.5;28.8;0.0;
22/07/2019 05:59:58;100;0;188.63;16;-19.92;-9.42;154.7;12.60;70291;4854.461;-13036.930;270;-500;-495.0;70;69.7;-27;-27.5;28.8;0.0;
22/07/2019 06:00:18;100;0;190.63;16;-19.53;-9.41;157.4;12.50;70291;4854.461;-13036.930;270;-500;-495.0;70;69.7;-26;-26.2;28.8;0.0;
22/07/2019 06:00:38;100;0;191.80;16;-19.70;-8.59;160.0;12.50;70283;4854.461;-13036.930;270;-500;-495.0;70;69.7;-26;-25.7;28.8;0.0;
22/07/2019 06:00:59;100;0;194.43;16;-19.80;-8.55;162.6;12.40;70285;4854.461;-13036.930;270;-500;-493.1;70;69.7;-25;-24.4;28.8;0.0;
22/07/2019 06:01:19;100;0;196.49;16;-19.82;-7.72;165.2;12.40;70278;4854.461;-13036.930;270;-500;-495.0;70;69.7;-24;-23.9;28.8;0.0;
22/07/2019 06:01:39;100;0;197.93;16;-19.76;-7.69;167.7;12.30;70263;4854.461;-13036.930;270;-500;-493.1;70;69.7;-25;-24.8;28.8;0.0;
22/07/2019 06:01:59;100;0;199.36;16;-19.49;-8.29;170.3;12.30;70271;4854.461;-13036.930;270;-500;-495.0;70;69.7;-24;-23.5;28.8;0.0;
22/07/2019 06:02:19;100;0;199.38;16;-19.61;-7.18;172.7;12.20;70258;4854.461;-13036.930;270;-500;-495.0;70;69.7;-25;-24.8;28.8;0.0;
22/07/2019 06:02:39;100;0;202.20;16;-19.65;-8.50;175.4;12.20;70255;4854.461;-13036.930;270;-500;-495.0;70;69.7;-23;-23.0;28.8;0.0;
22/07/2019 06:02:59;100;0;205.85;16;-19.23;-6.82;177.9;12.10;70243;4854.461;-13036.930;270;-500;-495.0;70;69.7;-22;-22.1;28.8;0.0;
22/07/2019 06:03:19;100;0;205.72;16;-19.38;-7.21;180.4;12.10;70235;4854.461;-13036.930;270;-500;-495.0;70;69.7;-23;-23.0;28.8;0.0;
22/07/2019 06:03:39;100;0;207.98;16;-19.40;-7.43;183.0;12.00;70229;4854.461;-13036.930;270;-500;-495.0;70;69.7;-22;-22.1;28.8;0.0;
22/07/2019 06:03:59;100;0;211.47;16;-19.31;-6.59;185.5;12.00;70228;4854.461;-13036.930;270;-500;-495.0;70;69.7;-21;-21.2;28.8;0.0;
22/07/2019 06:04:19;100;0;212.87;16;-19.00;-6.06;188.2;11.90;70227;4854.461;-13036.930;270;-500;-495.0;70;69.7;-21;-20.3;28.8;0.0;
22/07/2019 06:04:39;100;0;213.88;16;-19.08;-6.01;190.8;11.90;70212;4854.461;-13036.930;270;-500;-495.0;70;69.7;-21;-20.3;28.8;0.0;
22/07/2019 06:04:59;100;0;213.34;16;-19.12;-6.03;193.5;11.80;70209;4854.461;-13036.930;270;-500;-495.0;70;69.7;-22;-22.1;28.8;0.0;
22/07/2019 06:05:19;100;0;213.36;16;-19.06;-7.13;196.2;11.80;70193;4854.461;-13036.930;270;-500;-495.0;70;69.7;-22;-22.6;28.8;0.0;
22/07/2019 06:05:39;100;0;212.05;16;-19.17;-7.13;198.8;11.70;70201;4854.461;-13036.930;270;-500;-495.0;70;69.7;-23;-23.5;28.8;0.0;
22/07/2019 06:05:59;100;0;212.77;16;-18.99;-7.57;201.5;11.70;70195;4854.461;-13036.930;270;-500;-495.0;70;69.7;-23;-23.5;28.8;0.0;
22/07/2019 06:06:19;100;0;212.64;16;-19.34;-7.64;204.1;11.60;70188;4854.461;-13036.930;270;-500;-495.0;70;69.7;-23;-23.5;28.8;0.0;
22/07/2019 06:06:39;100;0;212.73;16;-19.15;-7.63;206.8;11.60;70175;4854.461;-13036.930;270;-500;-495.0;70;69.7;-23;-23.5;28.8;0.0;
22/07/2019 06:06:59;100;0;213.26;16;-19.18;-7.65;209.4;11.50;70186;4854.461;-13036.930;270;-500;-493.1;70;69.7;-22;-22.1;28.8;0.0;
22/07/2019 06:07:19;100;0;215.92;16;-18.97;-6.53;212.1;11.50;70172;4854.461;-13036.930;270;-500;-495.0;70;69.7;-21;-21.2;28.8;0.0;
22/07/2019 06:07:39;100;0;215.79;16;-19.08;-6.56;214.8;11.40;70159;4854.461;-13036.930;270;-500;-495.0;70;69.7;-22;-22.1;28.8;0.0;
22/07/2019 06:07:59;100;0;220.58;16;-19.04;-7.08;217.5;11.40;70160;4854.461;-13036.930;270;-500;-495.0;70;69.7;-19;-19.0;28.8;0.0;
22/07/2019 06:08:19;100;0;221.07;16;-18.96;-5.08;220.2;11.30;70148;4854.461;-13036.930;270;-500;-495.0;70;69.6;-19;-18.1;28.8;0.0;
22/07/2019 06:08:39;100;0;221.91;16;-18.90;-5.07;222.9;11.30;70147;4854.461;-13036.930;270;-500;-493.1;70;69.7;-20;-19.9;28.8;0.0;
22/07/2019 06:08:59;100;0;221.64;16;-18.75;-6.12;225.7;11.30;70145;4854.461;-13036.930;270;-500;-493.1;70;69.7;-21;-21.7;28.8;0.0;
22/07/2019 06:09:19;100;0;223.06;16;-18.93;-6.94;228.4;11.20;70132;4854.461;-13036.930;270;-500;-495.0;70;69.6;-20;-19.9;28.8;0.0;
22/07/2019 06:09:39;100;0;225.00;16;-18.72;-5.53;231.2;11.20;70139;4854.461;-13036.930;270;-500;-493.1;70;69.7;-19;-19.0;28.8;0.0;
22/07/2019 06:09:59;100;0;226.84;16;-18.79;-5.50;234.0;11.10;70124;4854.461;-13036.930;270;-500;-493.1;70;69.7;-19;-19.0;28.8;0.0;
22/07/2019 06:10:19;100;0;228.93;16;-18.59;-5.48;236.8;11.10;70126;4854.461;-13036.930;270;-500;-495.0;70;69.7;-18;-17.6;28.8;0.0;
22/07/2019 06:10:39;100;0;229.26;16;-18.56;-4.68;239.6;11.10;70119;4854.461;-13036.930;270;-500;-495.0;70;69.7;-18;-17.1;28.8;0.0;
22/07/2019 06:10:59;100;0;227.36;16;-18.53;-4.66;242.4;11.00;70111;4854.461;-13036.930;270;-500;-495.0;70;69.7;-20;-20.3;28.8;0.0;
22/07/2019 06:11:19;100;0;227.63;16;-18.74;-6.25;245.0;11.00;70110;4854.461;-13036.930;270;-500;-495.0;70;69.7;-20;-20.3;28.8;0.0;
22/07/2019 06:11:39;100;0;229.73;16;-18.74;-6.22;247.7;11.00;70102;4854.461;-13036.930;270;-500;-495.0;70;69.7;-19;-19.0;28.8;0.0;
22/07/2019 06:11:59;100;0;229.96;16;-18.62;-5.06;250.4;10.90;70098;4854.461;-13036.930;270;-500;-495.0;70;69.7;-19;-18.1;28.8;0.0;
22/07/2019 06:12:19;100;0;228.86;16;-18.60;-5.10;253.1;10.90;70091;4854.461;-13036.930;270;-500;-493.1;70;69.7;-20;-19.9;28.8;0.0;
22/07/2019 06:12:39;100;0;229.91;16;-18.51;-6.20;255.8;10.80;70087;4854.461;-13036.930;270;-500;-495.0;70;69.7;-19;-19.0;28.8;0.0;
22/07/2019 06:12:59;100;0;230.21;16;-18.71;-5.36;258.4;10.80;70082;4854.461;-13036.930;270;-500;-493.1;70;69.7;-19;-18.5;28.8;0.0;
22/07/2019 06:13:19;100;0;229.90;16;-18.51;-5.28;261.1;10.80;70077;4854.461;-13036.930;270;-500;-495.0;70;69.7;-19;-18.5;28.8;0.0;
22/07/2019 06:13:39;100;0;230.48;16;-18.58;-5.36;263.7;10.70;70077;4854.461;-13036.930;270;-500;-495.0;70;69.7;-19;-18.5;28.8;0.0;
22/07/2019 06:13:59;100;0;229.72;16;-18.54;-5.30;266.2;10.70;70074;4854.461;-13036.930;270;-500;-495.0;70;69.7;-20;-20.3;28.8;0.0;
22/07/2019 06:14:19;100;0;229.89;16;-18.66;-6.31;268.9;10.70;70070;4854.461;-13036.930;270;-500;-497.0;70;69.7;-19;-18.5;28.8;0.0;
22/07/2019 06:14:39;100;0;229.97;16;-18.67;-4.98;271.6;10.60;70059;4854.461;-13036.930;270;-500;-495.0;70;69.7;-19;-17.6;28.8;0.0;
22/07/2019 06:14:59;100;0;229.62;16;-18.63;-4.93;274.1;10.60;70054;4854.461;-13036.930;270;-500;-495.0;70;69.7;-19;-18.1;28.8;0.0;
22/07/2019 06:15:19;100;0;228.94;16;-18.55;-4.97;276.5;10.60;70054;4854.461;-13036.930;270;-500;-493.1;70;69.7;-20;-19.9;28.8;0.0;
22/07/2019 06:15:39;100;0;228.52;16;-18.68;-6.07;279.2;10.50;70057;4854.461;-13036.930;270;-500;-495.0;70;69.7;-20;-20.3;28.8;0.0;
22/07/2019 06:15:59;100;0;226.67;16;-18.09;-5.86;281.7;10.50;70038;4854.461;-13036.930;270;-500;-493.1;70;69.7;-21;-21.2;28.8;0.0;
22/07/2019 06:16:19;100;0;225.92;16;-18.61;-6.84;284.2;10.50;70048;4854.461;-13036.930;270;-500;-493.1;70;69.7;-21;-21.7;28.8;0.0;
22/07/2019 06:16:39;100;0;227.74;16;-18.49;-6.98;286.9;10.50;70042;4854.461;-13036.930;270;-500;-493.1;70;69.7;-19;-19.0;28.8;0.0;
22/07/2019 06:16:59;100;0;228.33;16;-18.29;-5.35;289.4;10.40;70036;4854.461;-13036.930;270;-500;-495.0;70;69.7;-19;-18.1;28.7;0.0;
22/07/2019 06:17:19;100;0;228.08;16;-18.61;-5.18;291.9;10.40;70028;4854.461;-13036.930;270;-500;-495.0;70;69.7;-19;-18.1;28.8;0.0;
22/07/2019 06:17:39;100;0;227.10;16;-18.43;-5.12;294.4;10.30;70018;4854.461;-13036.930;270;-500;-493.1;70;69.7;-20;-19.9;28.8;0.0;
22/07/2019 06:17:59;100;0;226.15;16;-18.63;-6.24;296.9;10.30;70024;4854.461;-13036.930;270;-500;-495.0;70;69.7;-20;-20.3;28.8;0.0;
22/07/2019 06:18:19;100;0;225.31;16;-18.35;-6.21;299.5;10.30;70022;4854.461;-13036.930;270;-500;-495.0;70;69.7;-21;-21.2;28.8;0.0;
22/07/2019 06:18:39;100;0;224.73;16;-18.49;-6.73;302.0;10.30;70023;4854.461;-13036.930;270;-500;-495.0;70;69.7;-21;-21.7;28.8;0.0;
22/07/2019 06:18:59;100;0;223.90;16;-18.49;-6.70;304.7;10.20;70025;4854.461;-13036.930;270;-500;-493.1;70;69.7;-21;-21.7;28.8;0.0;
22/07/2019 06:19:19;100;0;224.57;16;-18.46;-6.76;307.2;10.20;70008;4854.461;-13036.930;270;-500;-493.1;70;69.7;-20;-19.9;28.8;0.0;
22/07/2019 06:19:39;100;0;224.61;16;-18.48;-5.55;309.7;10.20;70016;4854.461;-13036.930;270;-500;-495.0;70;69.7;-20;-19.0;28.8;0.0;
22/07/2019 06:19:59;100;0;224.92;16;-18.28;-5.63;312.3;10.20;70006;4854.461;-13036.930;270;-500;-495.0;70;69.7;-20;-19.0;28.8;0.0;
22/07/2019 06:20:19;100;0;225.04;16;-18.23;-5.60;315.0;10.10;70008;4854.461;-13036.930;270;-500;-495.0;70;69.7;-20;-19.0;28.8;0.0;
22/07/2019 06:20:39;100;0;224.84;16;-18.24;-5.58;317.5;10.10;69999;4854.461;-13036.930;270;-500;-495.0;70;69.6;-20;-19.0;28.8;0.0;
22/07/2019 06:20:59;100;0;225.47;16;-18.20;-5.65;320.1;10.10;69999;4854.461;-13036.930;270;-500;-493.1;70;69.7;-20;-19.0;28.8;0.0;
22/07/2019 06:21:19;100;0;225.49;16;-18.20;-5.56;322.7;10.00;69989;4854.461;-13036.930;270;-500;-493.1;70;69.6;-20;-19.4;28.8;0.0;
22/07/2019 06:21:39;100;0;225.07;16;-18.15;-5.55;325.2;10.00;69997;4854.461;-13036.930;270;-500;-493.1;70;69.7;-20;-19.0;28.8;0.0;
22/07/2019 06:21:59;100;0;225.20;16;-18.23;-5.59;327.7;10.00;69993;4854.461;-13036.930;270;-500;-493.1;70;69.6;-20;-19.0;28.8;0.0;
22/07/2019 06:22:19;100;0;225.32;16;-18.30;-5.62;330.2;10.00;69992;4854.461;-13036.930;270;-500;-495.0;70;69.7;-20;-19.0;28.8;0.0;
22/07/2019 06:22:39;100;0;222.36;16;-18.31;-5.56;332.8;9.90;69983;4854.461;-13036.930;270;-500;-493.1;70;69.7;-22;-22.1;28.8;0.0;
22/07/2019 06:22:59;100;0;222.07;16;-18.19;-7.20;335.4;9.90;69965;4854.461;-13036.930;270;-500;-493.1;70;69.7;-21;-21.2;28.8;0.0;
22/07/2019 06:23:19;100;0;222.69;16;-18.08;-6.35;338.0;9.90;69974;4854.461;-13036.930;270;-500;-495.0;70;69.7;-21;-20.8;28.8;0.0;
22/07/2019 06:23:39;100;0;222.73;16;-18.07;-6.34;340.6;9.90;69967;4854.461;-13036.930;270;-500;-493.1;70;69.7;-21;-20.8;28.8;0.0;
22/07/2019 06:23:59;100;0;223.08;16;-18.05;-6.31;343.3;9.80;69971;4854.461;-13036.930;270;-500;-493.1;70;69.7;-20;-19.9;28.8;0.0;
22/07/2019 06:24:19;100;0;222.46;16;-17.97;-5.66;345.8;9.80;69971;4854.461;-13036.930;270;-500;-493.1;70;69.7;-21;-21.2;28.8;0.0;
22/07/2019 06:24:39;100;0;224.80;16;-17.96;-6.77;348.5;9.80;69954;4854.461;-13036.930;270;-500;-493.1;70;69.7;-20;-19.9;28.8;0.0;
22/07/2019 06:24:59;100;0;225.19;16;-17.99;-5.49;351.0;9.80;69959;4854.461;-13036.930;270;-500;-493.1;70;69.7;-19;-19.0;28.8;0.0;
22/07/2019 06:25:19;100;0;225.55;16;-17.97;-5.54;353.5;9.70;69949;4854.461;-13036.930;270;-500;-493.1;70;69.6;-20;-19.9;28.8;0.0;
22/07/2019 06:25:39;100;0;225.79;16;-17.98;-6.21;356.0;9.70;69945;4854.461;-13036.930;270;-500;-493.1;70;69.7;-20;-20.3;28.8;0.0;
22/07/2019 06:25:59;100;0;223.88;16;-17.94;-6.20;358.5;9.70;69936;4854.461;-13036.930;270;-500;-493.1;70;69.7;-21;-21.2;28.8;0.0;
22/07/2019 06:26:19;100;0;223.71;16;-17.89;-6.74;361.0;9.70;69930;4854.461;-13036.930;270;-500;-493.1;70;69.7;-21;-21.7;28.8;0.0;
22/07/2019 06:26:39;100;0;226.77;16;-17.92;-6.78;363.5;9.70;69933;4854.461;-13036.930;270;-500;-495.0;70;69.7;-19;-18.5;28.8;0.0;
22/07/2019 06:26:59;100;0;226.22;16;-17.77;-5.08;366.1;9.60;69930;4854.461;-13036.930;270;-500;-493.1;70;69.7;-19;-18.1;28.8;0.0;
22/07/2019 06:27:19;100;0;225.33;16;-17.73;-5.09;368.4;9.60;69926;4854.461;-13036.930;270;-500;-493.1;70;69.7;-20;-19.9;28.8;0.0;
22/07/2019 06:27:39;100;0;226.67;16;-17.76;-6.08;370.9;9.60;69919;4854.461;-13036.930;270;-500;-493.1;70;69.6;-20;-20.3;28.8;0.0;
22/07/2019 06:27:59;100;0;226.32;16;-17.80;-6.03;373.4;9.60;69926;4854.461;-13036.930;270;-500;-493.1;70;69.7;-20;-20.3;28.8;0.0;
22/07/2019 06:28:19;100;0;225.47;16;-17.75;-6.07;375.9;9.50;69911;4854.461;-13036.930;270;-500;-493.1;70;69.7;-20;-20.3;28.8;0.0;
22/07/2019 06:28:39;100;0;223.72;16;-17.80;-6.06;378.4;9.50;69917;4854.461;-13036.930;270;-500;-493.1;70;69.6;-21;-21.2;28.8;0.0;
22/07/2019 06:28:59;100;0;222.89;16;-17.85;-6.91;380.9;9.50;69912;4854.461;-13036.930;270;-500;-493.1;70;69.7;-22;-22.1;28.8;0.0;
22/07/2019 06:29:19;100;0;223.42;16;-17.90;-6.92;383.2;9.50;69907;4854.461;-13036.930;270;-500;-493.1;70;69.7;-21;-21.2;28.8;0.0;
22/07/2019 06:29:39;100;0;223.06;16;-17.93;-6.50;385.7;9.40;69900;4854.461;-13036.930;270;-500;-493.1;70;69.7;-21;-20.3;28.8;0.0;
22/07/2019 06:29:59;100;0;222.53;16;-17.87;-6.33;388.1;9.40;69903;4854.461;-13036.930;270;-500;-493.1;70;69.6;-21;-20.3;28.8;0.0;
22/07/2019 06:30:19;100;0;223.21;16;-17.73;-6.31;390.5;9.40;69896;4854.461;-13036.930;270;-500;-493.1;70;69.7;-20;-19.4;28.8;0.0;
22/07/2019 06:30:39;100;0;222.57;16;-17.65;-5.46;393.0;9.40;69897;4854.461;-13036.930;270;-500;-493.1;70;69.7;-21;-21.2;28.8;0.0;
22/07/2019 06:30:59;100;0;223.07;16;-17.81;-6.89;395.4;9.40;69893;4854.461;-13036.930;270;-500;-493.1;70;69.7;-20;-19.9;28.8;0.0;
22/07/2019 06:31:19;100;0;223.57;16;-17.66;-5.71;397.8;9.30;69891;4854.461;-13036.930;270;-500;-495.0;70;69.7;-20;-19.0;28.8;0.0;
22/07/2019 06:31:39;100;0;223.28;16;-17.80;-5.51;400.3;9.30;69893;4854.461;-13036.930;270;-500;-493.1;70;69.7;-20;-19.0;28.8;0.0;
22/07/2019 06:31:59;100;0;222.25;16;-17.67;-5.70;402.7;9.30;69893;4854.461;-13036.930;270;-500;-493.1;70;69.6;-21;-21.2;28.8;0.0;
22/07/2019 06:32:19;100;0;222.79;16;-17.70;-6.77;405.1;9.30;69889;4854.461;-13036.930;270;-500;-493.1;70;69.7;-21;-21.2;28.8;0.0;
22/07/2019 06:32:39;100;0;225.37;16;-17.78;-6.75;407.4;9.30;69891;4854.461;-13036.930;270;-500;-491.1;70;69.7;-19;-18.5;28.8;0.0;
22/07/2019 06:32:59;100;0;226.27;16;-17.59;-5.02;409.8;9.20;69875;4854.461;-13036.930;270;-500;-493.1;70;69.7;-19;-18.1;28.8;0.0;
22/07/2019 06:33:19;100;0;225.90;16;-17.48;-5.09;412.2;9.20;69875;4854.461;-13036.930;270;-500;-493.1;70;69.6;-20;-19.9;28.8;0.0;
22/07/2019 06:33:39;100;0;225.69;16;-17.58;-6.10;414.6;9.20;69879;4854.461;-13036.930;270;-500;-493.1;70;69.7;-20;-20.3;28.8;0.0;
22/07/2019 06:33:59;100;0;225.12;16;-17.56;-6.07;416.9;9.20;69867;4854.461;-13036.930;270;-500;-493.1;70;69.7;-20;-19.9;28.8;0.0;
22/07/2019 06:34:19;100;0;225.64;16;-17.56;-6.11;419.3;9.10;69871;4854.461;-13036.930;270;-500;-493.1;70;69.7;-20;-19.9;28.8;0.0;
22/07/2019 06:34:39;100;0;226.26;16;-17.49;-6.10;421.8;9.10;69863;4854.461;-13036.930;270;-500;-493.1;70;69.7;-20;-20.3;28.8;0.0;
22/07/2019 06:34:59;100;0;228.34;16;-17.64;-6.13;424.1;9.10;69854;4854.461;-13036.930;270;-500;-493.1;70;69.7;-19;-18.5;28.8;0.0;
22/07/2019 06:35:20;100;0;226.56;16;-17.74;-5.23;426.4;9.10;69858;4854.461;-13036.930;270;-500;-493.1;70;69.6;-20;-20.3;28.8;0.0;
22/07/2019 06:35:40;100;0;224.00;16;-17.34;-6.23;428.9;9.10;69842;4854.461;-13036.930;270;-500;-493.1;70;69.7;-21;-21.7;28.8;0.0;
22/07/2019 06:36:00;100;0;224.26;16;-17.29;-7.01;431.1;9.00;69827;4854.461;-13036.930;270;-500;-493.1;70;69.7;-21;-22.1;28.8;0.0;
22/07/2019 06:36:20;100;0;224.29;16;-17.68;-7.00;433.4;9.00;69835;4854.461;-13036.930;270;-500;-493.1;70;69.7;-21;-22.1;28.8;0.0;
22/07/2019 06:36:40;100;0;225.35;16;-17.67;-7.10;435.7;9.00;69827;4854.461;-13036.930;270;-500;-493.1;70;69.6;-20;-19.9;28.8;0.0;
22/07/2019 06:37:00;100;0;225.21;16;-17.65;-5.62;438.0;9.00;69817;4854.461;-13036.930;270;-500;-493.1;70;69.7;-20;-19.0;28.8;0.0;
22/07/2019 06:37:20;100;0;225.81;16;-17.43;-5.63;440.3;9.00;69818;4854.461;-13036.930;270;-500;-493.1;70;69.7;-20;-19.0;28.8;0.0;
22/07/2019 06:37:40;100;0;225.17;16;-17.44;-5.57;442.6;8.90;69809;4854.461;-13036.930;270;-500;-493.1;70;69.7;-20;-19.0;28.8;0.0;
22/07/2019 06:38:00;100;0;224.05;16;-17.50;-5.56;444.8;8.90;69807;4854.461;-13036.930;270;-500;-493.1;70;69.7;-21;-21.2;28.8;0.0;
22/07/2019 06:38:20;100;0;224.15;16;-17.47;-6.97;447.1;8.90;69800;4854.461;-13036.930;270;-500;-491.1;70;69.6;-20;-19.4;28.8;0.0;
22/07/2019 06:38:40;100;0;223.95;16;-17.21;-5.49;449.3;8.90;69808;4854.461;-13036.930;270;-500;-493.1;70;69.7;-21;-21.2;28.8;0.0;
22/07/2019 06:39:00;100;0;223.99;16;-17.39;-6.86;451.5;8.90;69814;4854.461;-13036.930;270;-500;-493.1;70;69.6;-21;-21.7;28.8;0.0;
22/07/2019 06:39:20;100;0;224.65;16;-17.57;-6.90;453.8;8.80;69798;4854.461;-13036.930;270;-500;-491.1;70;69.7;-20;-19.9;28.8;0.0;
22/07/2019 06:39:40;100;0;224.21;16;-17.35;-5.65;455.9;8.80;69805;4854.461;-13036.930;270;-500;-493.1;70;69.7;-20;-19.0;28.8;0.0;
22/07/2019 06:40:00;100;0;223.51;16;-17.45;-5.49;458.2;8.80;69801;4854.461;-13036.930;270;-500;-493.1;70;69.7;-21;-21.7;28.8;0.0;
22/07/2019 06:40:20;100;0;223.90;16;-17.27;-7.17;460.4;8.80;69796;4854.461;-13036.930;270;-500;-493.1;70;69.7;-21;-22.1;28.8;0.0;
22/07/2019 06:40:40;100;0;225.45;16;-17.24;-6.99;462.7;8.70;69785;4854.461;-13036.930;270;-500;-493.1;70;69.6;-19;-19.0;28.8;0.0;
22/07/2019 06:41:00;100;0;224.27;16;-17.12;-5.32;465.0;8.70;69796;4854.461;-13036.930;270;-500;-493.1;70;69.7;-20;-19.9;28.8;0.0;
22/07/2019 06:41:20;100;0;224.16;16;-16.98;-6.00;467.2;8.70;69788;4854.461;-13036.930;270;-500;-491.1;70;69.7;-20;-20.3;28.8;0.0;
22/07/2019 06:41:40;100;0;224.22;16;-17.12;-6.15;469.6;8.70;69790;4854.461;-13036.930;270;-500;-493.1;70;69.7;-20;-20.3;28.8;0.0;
22/07/2019 06:42:00;100;0;224.53;16;-17.26;-5.91;471.8;8.70;69787;4854.461;-13036.930;270;-500;-493.1;70;69.7;-20;-20.3;28.8;0.0;
22/07/2019 06:42:20;100;0;224.94;16;-17.16;-6.14;474.0;8.70;69785;4854.461;-13036.930;270;-500;-493.1;70;69.7;-20;-20.3;28.8;0.0;
22/07/2019 06:42:40;100;0;223.52;16;-17.12;-6.11;476.2;8.70;69780;4854.461;-13036.930;270;-500;-491.1;70;69.7;-21;-21.2;28.8;0.0;
22/07/2019 06:43:00;100;0;222.87;16;-17.18;-6.94;478.4;8.60;69785;4854.461;-13036.930;270;-500;-493.1;70;69.7;-21;-21.7;28.8;0.0;
22/07/2019 06:43:20;100;0;224.14;16;-17.17;-6.98;480.7;8.60;69773;4854.461;-13036.930;270;-500;-493.1;70;69.7;-20;-19.9;28.8;0.0;
22/07/2019 06:43:40;100;0;224.47;16;-17.06;-5.81;482.8;8.60;69770;4854.461;-13036.930;270;-500;-491.1;70;69.7;-20;-19.4;28.8;0.0;
22/07/2019 06:44:00;100;0;224.93;16;-17.12;-5.79;485.0;8.60;69777;4854.461;-13036.930;270;-500;-493.1;70;69.7;-20;-19.4;28.8;0.0;
22/07/2019 06:44:20;100;0;224.55;16;-17.04;-5.76;487.2;8.60;69777;4854.461;-13036.930;270;-500;-491.1;70;69.7;-20;-19.4;28.8;0.0;
22/07/2019 06:44:40;100;0;224.30;16;-16.94;-5.75;489.5;8.60;69764;4854.461;-13036.930;270;-500;-491.1;70;69.6;-20;-19.4;28.8;0.0;
22/07/2019 06:45:00;100;0;223.36;16;-16.97;-5.78;491.7;8.50;69761;4854.461;-13036.930;270;-500;-493.1;70;69.6;-21;-21.2;28.8;0.0;
22/07/2019 06:45:20;100;0;223.06;16;-16.99;-6.83;493.9;8.50;69759;4854.461;-13036.930;270;-500;-489.1;70;69.6;-21;-21.7;28.7;0.0;
22/07/2019 06:45:40;100;0;224.95;16;-17.12;-6.92;496.1;8.50;69758;4854.461;-13036.930;270;-500;-491.1;70;69.7;-20;-19.9;28.8;0.0;
22/07/2019 06:46:00;100;0;225.48;16;-17.02;-5.68;498.2;8.50;69766;4854.461;-13036.930;270;-500;-493.1;70;69.7;-20;-19.0;28.8;0.0;
22/07/2019 06:46:20;100;0;225.81;16;-16.97;-5.66;500.4;8.40;69747;4854.461;-13036.930;270;-500;-491.1;70;69.7;-20;-19.0;28.8;0.0;
22/07/2019 06:46:40;100;0;226.89;16;-16.93;-5.73;502.5;8.40;69753;4854.461;-13036.930;270;-500;-491.1;70;69.7;-19;-19.0;28.8;0.0;
22/07/2019 06:47:00;100;0;228.23;16;-16.98;-5.76;504.7;8.40;69751;4854.461;-13036.930;270;-500;-491.1;70;69.7;-18;-18.1;28.8;0.0;
22/07/2019 06:47:20;100;0;227.62;16;-17.08;-4.78;506.7;8.40;69755;4854.461;-13036.930;270;-500;-491.1;70;69.6;-20;-19.9;28.8;0.0;
22/07/2019 06:47:40;100;0;228.00;16;-17.12;-6.28;508.9;8.40;69746;4854.461;-13036.930;270;-500;-491.1;70;69.7;-20;-20.3;28.8;0.0;
22/07/2019 06:48:00;100;0;228.15;16;-17.04;-6.24;511.0;8.40;69738;4854.461;-13036.930;270;-500;-491.1;70;69.7;-19;-19.0;28.8;0.0;
22/07/2019 06:48:20;100;0;227.98;16;-17.02;-5.41;513.0;8.40;69752;4854.461;-13036.930;270;-500;-491.1;70;69.6;-20;-20.3;28.8;0.0;
22/07/2019 06:48:40;100;0;229.20;16;-17.05;-6.53;515.1;8.30;69734;4854.461;-13036.930;270;-500;-493.1;70;69.6;-19;-19.0;28.8;0.0;
22/07/2019 06:49:00;100;0;229.09;16;-16.86;-5.33;517.3;8.30;69740;4854.461;-13036.930;270;-500;-491.1;70;69.7;-19;-18.5;28.8;0.0;
22/07/2019 06:49:20;100;0;228.61;16;-17.01;-5.32;519.4;8.30;69726;4854.461;-13036.930;270;-500;-491.1;70;69.7;-20;-20.3;28.8;0.0;
22/07/2019 06:49:40;100;0;228.92;16;-17.03;-6.41;521.4;8.30;69729;4854.461;-13036.930;270;-500;-491.1;70;69.7;-20;-20.3;28.8;0.0;
22/07/2019 06:50:00;100;0;229.64;16;-16.90;-6.33;523.5;8.30;69722;4854.461;-13036.930;270;-500;-491.1;70;69.6;-19;-19.0;28.8;0.0;
22/07/2019 06:50:20;100;0;228.86;16;-16.48;-5.30;525.7;8.30;69724;4854.461;-13036.930;270;-500;-491.1;70;69.7;-20;-19.9;28.8;0.0;
22/07/2019 06:50:40;100;0;228.03;16;-17.20;-6.25;527.6;8.30;69720;4854.461;-13036.930;270;-500;-491.1;70;69.7;-20;-20.3;28.8;0.0;
22/07/2019 06:51:00;100;0;229.31;16;-17.26;-6.27;529.7;8.20;69726;4854.461;-13036.930;270;-500;-493.1;70;69.6;-19;-18.5;28.8;0.0;
22/07/2019 06:51:20;100;0;227.78;16;-16.93;-5.10;531.8;8.20;69716;4854.461;-13036.930;270;-500;-491.1;70;69.6;-20;-19.9;28.8;0.0;
22/07/2019 06:51:40;100;0;228.57;16;-16.92;-6.25;533.8;8.20;69714;4854.461;-13036.930;270;-500;-491.1;70;69.7;-19;-19.0;28.8;0.0;
22/07/2019 06:52:00;100;0;226.99;16;-16.87;-5.37;535.8;8.20;69712;4854.461;-13036.930;270;-500;-491.1;70;69.6;-21;-21.2;28.8;0.0;
22/07/2019 06:52:20;100;0;227.30;16;-16.71;-7.02;537.9;8.20;69705;4854.461;-13036.930;270;-500;-493.1;70;69.7;-20;-19.4;28.8;0.0;
22/07/2019 06:52:40;100;0;227.72;16;-16.63;-5.57;540.0;8.10;69703;4854.461;-13036.930;270;-500;-491.1;70;69.6;-20;-19.0;28.8;0.0;
22/07/2019 06:53:00;100;0;227.08;16;-16.60;-5.59;542.1;8.10;69706;4854.461;-13036.930;270;-500;-491.1;70;69.7;-20;-19.0;28.8;0.0;
22/07/2019 06:53:20;100;0;226.73;16;-16.64;-5.56;544.3;8.10;69702;4854.461;-13036.930;270;-500;-491.1;70;69.6;-20;-19.0;28.8;0.0;
22/07/2019 06:53:40;100;0;225.95;16;-16.63;-5.54;546.4;8.10;69701;4854.461;-13036.930;270;-500;-491.1;70;69.6;-21;-21.2;28.8;0.0;
22/07/2019 06:54:00;100;0;225.72;16;-16.70;-6.98;548.5;8.10;69695;4854.461;-13036.930;270;-500;-491.1;70;69.6;-20;-19.9;28.8;0.0;
22/07/2019 06:54:20;100;0;225.38;16;-16.62;-5.75;550.5;8.10;69699;4854.461;-13036.930;270;-500;-491.1;70;69.6;-20;-19.4;28.8;0.0;
22/07/2019 06:54:40;100;0;224.72;16;-16.64;-5.77;552.5;8.10;69697;4854.461;-13036.930;270;-500;-491.1;70;69.7;-21;-21.2;28.8;0.0;
22/07/2019 06:55:00;100;0;224.88;16;-16.79;-6.87;554.5;8.10;69693;4854.461;-13036.930;270;-500;-491.1;70;69.7;-21;-21.7;28.8;0.0;
22/07/2019 06:55:20;100;0;223.90;16;-16.74;-6.75;556.5;8.00;69696;4854.461;-13036.930;270;-500;-491.1;70;69.7;-21;-21.2;28.8;0.0;
22/07/2019 06:55:40;100;0;224.91;16;-16.81;-6.90;558.6;8.00;69685;4854.461;-13036.930;270;-500;-491.1;70;69.7;-20;-19.9;28.8;0.0;
22/07/2019 06:56:00;100;0;226.71;16;-16.62;-5.72;560.7;8.00;69685;4854.461;-13036.930;270;-500;-491.1;70;69.6;-19;-19.0;28.8;0.0;
22/07/2019 06:56:20;100;0;227.20;16;-16.57;-5.72;562.8;8.00;69688;4854.461;-13036.930;270;-500;-491.1;70;69.7;-19;-19.0;28.8;0.0;
22/07/2019 06:56:40;100;0;226.35;16;-16.42;-5.69;564.9;8.00;69677;4854.461;-13036.930;270;-500;-491.1;70;69.7;-20;-19.9;28.8;0.0;
22/07/2019 06:57:00;100;0;227.17;16;-16.41;-6.27;567.0;8.00;69674;4854.461;-13036.930;270;-500;-491.1;70;69.6;-19;-19.0;28.8;0.0;
22/07/2019 06:57:20;100;0;226.38;16;-16.50;-5.36;569.1;7.90;69668;4854.461;-13036.930;270;-500;-491.1;70;69.7;-20;-20.3;28.8;0.0;
22/07/2019 06:57:40;100;0;225.33;16;-16.62;-6.28;571.1;7.90;69661;4854.461;-13036.930;270;-500;-491.1;70;69.7;-21;-21.2;28.8;0.0;
22/07/2019 06:58:00;100;0;227.30;16;-16.53;-7.08;573.1;7.90;69675;4854.461;-13036.930;270;-500;-491.1;70;69.7;-19;-19.0;28.8;0.0;
22/07/2019 06:58:20;100;0;228.14;16;-16.44;-5.24;575.3;7.90;69661;4854.461;-13036.930;270;-500;-491.1;70;69.6;-19;-18.1;28.8;0.0;
22/07/2019 06:58:40;100;0;227.69;16;-16.53;-5.29;577.2;7.90;69658;4854.461;-13036.930;270;-500;-491.1;70;69.6;-20;-19.9;28.8;0.0;
22/07/2019 06:59:00;100;0;227.42;16;-16.41;-6.36;579.2;7.90;69654;4854.461;-13036.930;270;-500;-491.1;70;69.6;-20;-20.3;28.8;0.0;
22/07/2019 06:59:20;100;0;227.40;16;-16.44;-6.33;581.2;7.90;69662;4854.461;-13036.930;270;-500;-491.1;70;69.6;-20;-20.3;28.8;0.0;
22/07/2019 06:59:40;100;0;227.44;16;-16.51;-6.34;583.2;7.90;69659;4854.461;-13036.930;270;-500;-491.1;70;69.7;-20;-20.3;28.8;0.0;
22/07/2019 07:00:00;100;0;227.26;16;-16.28;-6.31;585.2;7.80;69655;4854.461;-13036.930;270;-500;-491.1;70;69.7;-20;-20.3;28.8;0.0;
22/07/2019 07:00:20;100;0;227.36;16;-16.34;-6.29;587.3;7.80;69653;4854.461;-13036.930;270;-500;-491.1;70;69.7;-20;-20.3;28.8;0.0;
22/07/2019 07:00:40;100;0;227.91;16;-16.29;-6.36;589.2;7.80;69658;4854.461;-13036.930;270;-500;-491.1;70;69.7;-20;-20.3;28.8;0.0;
22/07/2019 07:01:00;100;0;228.16;16;-16.34;-6.40;591.2;7.80;69656;4854.461;-13036.930;270;-500;-491.1;70;69.7;-19;-18.5;28.8;0.0;
22/07/2019 07:01:20;100;0;228.06;16;-16.30;-5.18;593.3;7.80;69643;4854.461;-13036.930;270;-500;-491.1;70;69.7;-19;-18.1;28.8;0.0;
22/07/2019 07:01:40;100;0;226.75;16;-16.19;-5.14;595.2;7.80;69652;4854.461;-13036.930;270;-500;-491.1;70;69.7;-21;-21.7;28.7;0.0;
22/07/2019 07:02:00;100;0;226.26;16;-16.30;-7.09;597.3;7.70;69655;4854.461;-13036.930;270;-500;-491.1;70;69.7;-20;-19.9;28.8;0.0;
22/07/2019 07:02:20;100;0;226.41;16;-16.13;-5.63;599.3;7.70;69642;4854.461;-13036.930;270;-500;-491.1;70;69.6;-20;-19.0;28.8;0.0;
22/07/2019 07:02:40;100;0;225.76;16;-16.11;-5.66;601.3;7.70;69652;4854.461;-13036.930;270;-500;-491.1;70;69.6;-21;-21.2;28.8;0.0;
22/07/2019 07:03:00;100;0;225.31;16;-16.15;-6.99;603.3;7.70;69638;4854.461;-13036.930;270;-500;-491.1;70;69.6;-20;-19.9;28.8;0.0;
22/07/2019 07:03:20;100;0;225.76;16;-16.24;-5.76;605.2;7.70;69643;4854.461;-13036.930;270;-500;-491.1;70;69.7;-20;-19.0;28.8;0.0;
22/07/2019 07:03:40;100;0;225.64;16;-16.15;-5.71;607.1;7.70;69639;4854.461;-13036.930;270;-500;-491.1;70;69.7;-20;-19.0;28.8;0.0;
22/07/2019 07:04:00;100;0;226.27;16;-16.00;-5.73;609.0;7.70;69623;4854.461;-13036.930;270;-500;-491.1;70;69.7;-20;-19.0;28.8;0.0;
22/07/2019 07:04:20;100;0;226.99;16;-16.08;-5.73;610.9;7.70;69637;4854.461;-13036.930;270;-500;-491.1;70;69.7;-20;-19.0;28.8;0.0;
22/07/2019 07:04:40;100;0;226.67;16;-16.04;-5.70;612.8;7.60;69636;4854.461;-13036.930;270;-500;-491.1;70;69.7;-20;-19.0;28.8;0.0;
22/07/2019 07:05:00;100;0;226.10;16;-16.17;-5.78;614.7;7.60;69631;4854.461;-13036.930;270;-500;-491.1;70;69.6;-20;-19.0;28.8;0.0;
22/07/2019 07:05:20;100;0;225.22;16;-16.17;-5.74;616.5;7.60;69634;4854.461;-13036.930;270;-500;-491.1;70;69.7;-20;-19.0;28.8;0.0;
22/07/2019 07:05:40;100;0;225.36;16;-16.15;-5.60;618.4;7.60;69630;4854.461;-13036.930;270;-500;-491.1;70;69.7;-20;-19.0;28.8;0.0;
22/07/2019 07:06:00;100;0;225.97;16;-16.11;-5.72;620.2;7.60;69633;4854.461;-13036.930;270;-500;-491.1;70;69.7;-20;-19.0;28.8;0.0;
22/07/2019 07:06:20;100;0;225.16;16;-16.13;-5.78;622.0;7.60;69631;4854.461;-13036.930;270;-500;-489.1;70;69.7;-20;-19.0;28.8;0.0;
22/07/2019 07:06:40;100;0;224.29;16;-16.16;-5.74;623.8;7.60;69619;4854.461;-13036.930;270;-500;-491.1;70;69.7;-21;-21.7;28.8;0.0;
22/07/2019 07:07:00;100;0;224.31;16;-16.23;-7.12;625.6;7.50;69627;4854.461;-13036.930;270;-500;-491.1;70;69.6;-20;-19.4;28.8;0.0;
22/07/2019 07:07:20;100;0;224.20;16;-16.12;-5.69;627.4;7.50;69641;4854.461;-13036.930;270;-500;-491.1;70;69.7;-20;-19.0;28.8;0.0;
22/07/2019 07:07:40;100;0;223.63;16;-16.11;-5.66;629.2;7.50;69632;4854.461;-13036.930;270;-500;-491.1;70;69.6;-21;-21.2;28.8;0.0;
22/07/2019 07:08:00;100;0;223.36;16;-16.10;-7.01;631.1;7.50;69621;4854.461;-13036.930;270;-500;-491.1;70;69.6;-21;-21.7;28.8;0.0;
22/07/2019 07:08:20;100;0;224.09;16;-16.06;-7.07;632.9;7.50;69617;4854.461;-13036.930;270;-500;-491.1;70;69.7;-20;-19.9;28.8;0.0;
22/07/2019 07:08:40;100;0;225.23;16;-16.08;-5.91;634.8;7.50;69625;4854.461;-13036.930;270;-500;-491.1;70;69.6;-20;-19.4;28.8;0.0;
22/07/2019 07:09:00;100;0;225.07;16;-15.90;-5.83;636.6;7.50;69614;4854.461;-13036.930;270;-500;-491.1;70;69.6;-20;-19.4;28.8;0.0;
22/07/2019 07:09:20;100;0;225.07;16;-15.87;-5.89;638.6;7.50;69617;4854.461;-13036.930;270;-500;-491.1;70;69.7;-20;-19.4;28.8;0.0;
22/07/2019 07:09:40;100;0;224.94;16;-15.84;-5.85;640.4;7.50;69615;4854.461;-13036.930;270;-500;-489.1;70;69.7;-21;-21.2;28.8;0.0;
22/07/2019 07:10:00;100;0;223.45;16;-15.94;-6.95;642.3;7.50;69622;4854.461;-13036.930;270;-500;-491.1;70;69.6;-21;-21.7;28.8;0.0;
22/07/2019 07:10:20;100;0;223.21;16;-15.99;-6.92;644.1;7.40;69607;4854.461;-13036.930;270;-500;-489.1;70;69.6;-21;-21.7;28.8;0.0;
22/07/2019 07:10:41;100;0;223.01;16;-15.84;-6.93;645.9;7.40;69604;4854.461;-13036.930;270;-500;-491.1;70;69.7;-21;-21.7;28.8;0.0;
22/07/2019 07:11:01;100;0;223.43;16;-15.77;-7.00;647.8;7.40;69610;4854.461;-13036.930;270;-500;-491.1;70;69.7;-21;-21.7;28.8;0.0;
22/07/2019 07:11:21;100;0;224.51;16;-15.83;-7.01;649.6;7.40;69604;4854.461;-13036.930;270;-500;-489.1;70;69.6;-20;-19.9;28.8;0.0;
22/07/2019 07:11:41;100;0;224.68;16;-15.77;-5.68;651.4;7.40;69605;4854.461;-13036.930;270;-500;-489.1;70;69.7;-20;-19.0;28.8;0.0;
22/07/2019 07:12:01;100;0;224.25;16;-15.79;-5.71;653.1;7.40;69617;4854.461;-13036.930;270;-500;-491.1;70;69.7;-20;-19.0;28.8;0.0;
22/07/2019 07:12:21;100;0;222.50;16;-15.79;-5.67;654.9;7.40;69601;4854.461;-13036.930;270;-500;-491.1;70;69.6;-21;-21.7;28.8;0.0;
22/07/2019 07:12:41;100;0;222.07;16;-15.75;-7.16;656.7;7.40;69599;4854.461;-13036.930;270;-500;-491.1;70;69.6;-21;-21.7;28.7;0.0;
22/07/2019 07:13:01;100;0;222.68;16;-15.77;-7.11;658.4;7.30;69605;4854.461;-13036.930;270;-500;-491.1;70;69.7;-21;-22.1;28.8;0.0;
22/07/2019 07:13:21;100;0;224.17;16;-15.66;-7.15;660.0;7.30;69601;4854.461;-13036.930;270;-500;-489.1;70;69.6;-20;-19.4;28.8;0.0;
22/07/2019 07:13:41;100;0;225.00;16;-15.70;-5.74;661.8;7.30;69609;4854.461;-13036.930;270;-500;-491.1;70;69.6;-20;-19.0;28.8;0.0;
22/07/2019 07:14:01;100;0;223.79;16;-15.75;-5.67;663.4;7.30;69596;4854.461;-13036.930;270;-500;-491.1;70;69.6;-21;-21.2;28.8;0.0;
22/07/2019 07:14:21;100;0;223.84;16;-15.75;-7.10;665.1;7.30;69602;4854.461;-13036.930;270;-500;-491.1;70;69.6;-21;-21.7;28.8;0.0;
22/07/2019 07:14:41;100;0;224.46;16;-15.78;-7.06;666.7;7.30;69591;4854.461;-13036.930;270;-500;-489.1;70;69.7;-20;-19.4;28.8;0.0;
22/07/2019 07:15:01;100;0;225.23;16;-15.64;-5.64;668.3;7.30;69601;4854.461;-13036.930;270;-500;-491.1;70;69.6;-20;-18.5;28.8;0.0;
22/07/2019 07:15:21;100;0;226.14;16;-15.52;-5.61;670.0;7.30;69590;4854.461;-13036.930;270;-500;-489.1;70;69.6;-19;-19.0;28.8;0.0;
22/07/2019 07:15:41;100;0;225.65;16;-15.53;-5.92;671.7;7.30;69590;4854.461;-13036.930;270;-500;-489.1;70;69.7;-20;-19.9;28.8;0.0;
22/07/2019 07:16:01;100;0;225.63;16;-15.59;-6.45;673.3;7.30;69594;4854.461;-13036.930;270;-500;-491.1;70;69.7;-20;-20.3;28.8;0.0;
22/07/2019 07:16:21;100;0;225.79;16;-15.63;-6.42;675.0;7.20;69587;4854.461;-13036.930;270;-500;-489.1;70;69.7;-20;-20.3;28.8;0.0;
22/07/2019 07:16:41;100;0;226.19;16;-15.58;-6.38;676.7;7.20;69587;4854.461;-13036.930;270;-500;-491.1;70;69.7;-20;-20.3;28.8;0.0;
22/07/2019 07:17:01;100;0;225.29;16;-15.57;-6.39;678.2;7.20;69575;4854.461;-13036.930;270;-500;-491.1;70;69.7;-20;-20.3;28.8;0.0;
22/07/2019 07:17:21;100;0;225.24;16;-15.45;-6.35;679.9;7.20;69589;4854.461;-13036.930;270;-500;-491.1;70;69.7;-20;-20.3;28.8;0.0;
22/07/2019 07:17:41;100;0;224.90;16;-15.53;-6.44;681.5;7.20;69576;4854.461;-13036.930;270;-500;-489.1;70;69.7;-21;-21.7;28.8;0.0;
22/07/2019 07:18:01;100;0;226.49;16;-15.57;-7.21;683.2;7.20;69582;4854.461;-13036.930;270;-500;-489.1;70;69.6;-19;-19.0;28.8;0.0;
22/07/2019 07:18:21;100;0;226.87;16;-15.60;-5.54;684.7;7.20;69588;4854.461;-13036.930;270;-500;-489.1;70;69.7;-20;-19.9;28.8;0.0;
22/07/2019 07:18:41;100;0;226.50;16;-15.60;-6.34;686.4;7.20;69578;4854.461;-13036.930;270;-500;-489.1;70;69.6;-20;-19.9;28.8;0.0;
22/07/2019 07:19:01;100;0;225.95;16;-15.58;-6.35;688.1;7.20;69576;4854.461;-13036.930;270;-500;-491.1;70;69.7;-20;-19.9;28.8;0.0;
22/07/2019 07:19:21;100;0;225.63;16;-15.51;-6.32;689.7;7.20;69581;4854.461;-13036.930;270;-500;-491.1;70;69.7;-20;-20.3;28.8;0.0;
22/07/2019 07:19:41;100;0;225.12;16;-15.48;-6.29;691.4;7.10;69571;4854.461;-13036.930;270;-500;-489.1;70;69.7;-20;-19.9;28.8;0.0;
22/07/2019 07:20:01;100;0;225.13;16;-15.48;-6.32;693.0;7.10;69575;4854.461;-13036.930;270;-500;-489.1;70;69.7;-20;-20.3;28.8;0.0;
22/07/2019 07:20:21;100;0;225.21;16;-15.45;-6.34;694.7;7.10;69574;4854.461;-13036.930;270;-500;-491.1;70;69.6;-20;-20.3;28.8;0.0;
22/07/2019 07:20:41;100;0;225.67;16;-15.46;-6.29;696.3;7.10;69571;4854.461;-13036.930;270;-500;-491.1;70;69.7;-20;-20.3;28.8;0.0;
22/07/2019 07:21:01;100;0;225.66;16;-15.48;-6.32;697.9;7.10;69569;4854.461;-13036.930;270;-500;-491.1;70;69.6;-20;-19.9;28.8;0.0;
22/07/2019 07:21:21;100;0;225.04;16;-15.43;-6.27;699.6;7.10;69573;4854.461;-13036.930;270;-500;-491.1;70;69.7;-20;-20.3;28.8;0.0;
22/07/2019 07:21:41;118;0;224.42;16;-15.38;-6.27;701.3;7.10;69559;4854.461;-13036.930;270;150;-475.2;57;56.8;0;0.5;28.8;0.0;
22/07/2019 07:21:51;118;0;121.56;16;2.33;3.44;702.1;7.10;69470;4854.461;-13036.930;270;150;-314.9;57;57.1;0;0.5;27.4;0.0;
22/07/2019 07:22:01;118;0;119.17;16;16.52;3.31;701.7;7.10;69264;4854.461;-13036.930;270;150;-160.4;57;57.2;0;0.5;27.5;-1.0;
22/07/2019 07:22:11;118;0;118.32;16;19.67;3.35;701.1;7.10;69025;4854.461;-13036.930;270;150;-5.9;57;57.2;0;0.5;27.6;-1.0;
22/07/2019 07:22:21;118;0;118.37;16;19.71;3.47;700.1;7.10;68764;4854.461;-13036.930;270;150;148.5;57;57.1;0;0.5;27.4;-1.0;
22/07/2019 07:22:31;118;0;117.49;16;22.10;3.53;698.7;7.10;68513;4854.461;-13036.930;270;150;146.5;57;57.1;0;0.9;27.4;-1.0;
22/07/2019 07:22:41;118;0;219.23;16;24.50;3.24;696.7;7.10;68557;4854.461;-13036.930;270;150;146.5;57;57.1;0;0.5;28.7;-1.0;
22/07/2019 07:22:51;117;0;217.64;16;25.45;3.26;694.5;7.10;68546;4854.461;-13036.930;270;150;148.5;57;57.1;0;0.9;28.8;-1.0;
22/07/2019 07:23:11;117;0;214.51;16;26.04;3.07;689.5;7.10;68555;4854.461;-13036.930;270;150;146.5;57;57.1;26;26.2;28.8;-1.0;
22/07/2019 07:23:31;117;0;224.26;16;25.28;15.93;683.9;7.10;68552;4854.461;-13036.930;270;150;148.5;57;57.1;19;19.0;28.8;-1.0;
22/07/2019 07:23:51;117;0;227.42;16;25.37;11.49;678.6;7.10;68551;4854.461;-13036.930;270;150;146.5;57;57.1;18;18.1;28.8;-1.0;
22/07/2019 07:24:11;117;0;232.27;16;25.25;11.46;673.5;7.10;68552;4854.461;-13036.930;270;150;146.5;57;57.1;16;15.8;28.8;-1.0;
22/07/2019 07:24:31;117;0;233.56;16;25.50;10.02;668.5;7.10;68536;4854.461;-13036.930;270;150;146.5;57;57.1;17;17.1;28.8;-1.0;
22/07/2019 07:24:51;117;0;237.44;16;25.57;11.40;663.4;7.10;68543;4854.461;-13036.930;270;150;146.5;57;57.1;15;14.9;28.7;-1.0;
22/07/2019 07:25:11;117;0;238.27;16;25.77;9.36;658.3;7.10;68551;4854.461;-13036.930;270;150;146.5;57;57.1;16;16.2;28.8;-1.0;
22/07/2019 07:25:31;117;0;241.56;16;25.55;10.76;653.2;7.10;68539;4854.461;-13036.930;270;150;146.5;57;57.1;15;14.9;28.7;-1.0;
22/07/2019 07:25:51;117;0;243.87;16;25.44;9.51;648.2;7.10;68546;4854.461;-13036.930;270;150;146.5;57;57.2;15;14.4;28.8;-1.0;
22/07/2019 07:26:11;117;0;246.79;16;25.39;9.50;643.2;7.10;68531;4854.461;-13036.930;270;150;148.5;57;57.1;14;14.0;28.8;-1.0;
22/07/2019 07:26:31;117;0;249.97;16;25.26;8.95;638.2;7.10;68545;4854.461;-13036.930;270;150;148.5;57;57.1;13;13.1;28.8;-1.0;
22/07/2019 07:26:51;117;0;249.84;16;25.53;8.93;633.3;7.00;68546;4854.461;-13036.930;270;150;146.5;57;57.1;14;14.0;28.8;-1.0;
22/07/2019 07:27:11;117;0;250.57;16;25.63;9.65;628.3;7.00;68544;4854.461;-13036.930;270;150;148.5;57;57.1;14;14.4;28.8;-1.0;
22/07/2019 07:27:31;117;0;253.62;16;25.54;9.65;623.3;7.00;68547;4854.461;-13036.930;270;150;146.5;57;57.1;14;14.4;28.7;-1.0;
22/07/2019 07:27:51;117;0;257.07;16;25.51;9.60;618.2;7.00;68542;4854.461;-13036.930;270;150;146.5;57;57.1;12;12.2;28.8;-1.0;
22/07/2019 07:28:11;117;0;257.64;16;25.61;8.23;613.1;7.00;68537;4854.461;-13036.930;270;150;146.5;57;57.1;13;13.1;28.8;-1.0;
22/07/2019 07:28:31;117;0;259.77;16;25.57;9.21;608.1;7.00;68536;4854.461;-13036.930;270;150;146.5;57;57.1;12;12.2;28.8;-1.0;
22/07/2019 07:28:51;117;0;258.06;16;25.37;8.14;603.1;7.00;68537;4854.461;-13036.930;270;150;148.5;57;57.1;13;13.1;28.8;-1.0;
22/07/2019 07:29:11;117;0;261.01;16;25.21;9.21;598.2;7.00;68529;4854.461;-13036.930;270;150;148.5;57;57.1;11;10.4;28.8;-1.0;
22/07/2019 07:29:31;117;0;261.83;16;25.13;7.40;593.4;7.00;68526;4854.461;-13036.930;270;150;146.5;57;57.1;11;9.9;28.8;-1.0;
22/07/2019 07:29:51;117;0;261.82;16;25.35;7.39;588.5;7.00;68525;4854.461;-13036.930;270;150;146.5;57;57.1;11;9.9;28.8;-1.0;
22/07/2019 07:30:11;117;0;260.80;16;25.46;7.48;583.6;7.00;68530;4854.461;-13036.930;270;150;148.5;57;57.1;12;12.2;28.8;-1.0;
22/07/2019 07:30:31;117;0;261.85;16;25.48;8.79;578.7;6.90;68517;4854.461;-13036.930;270;150;146.5;57;57.1;11;10.4;28.8;-1.0;
22/07/2019 07:30:51;117;0;263.36;16;25.19;7.48;573.9;6.90;68518;4854.461;-13036.930;270;150;146.5;57;57.1;9;8.6;28.8;-1.0;
22/07/2019 07:31:11;117;0;264.73;16;25.10;6.49;569.0;6.90;68517;4854.461;-13036.930;270;150;146.5;57;57.1;9;8.1;28.8;-1.0;
22/07/2019 07:31:31;117;0;261.06;16;25.27;6.60;564.2;6.90;68508;4854.461;-13036.930;270;150;146.5;57;57.1;11;10.8;28.8;-1.0;
22/07/2019 07:31:51;117;0;260.36;16;24.95;8.27;559.4;6.90;68513;4854.461;-13036.930;270;150;148.5;57;57.1;11;11.7;28.8;-1.0;
22/07/2019 07:32:11;117;0;261.60;16;25.07;8.37;554.6;6.90;68524;4854.461;-13036.930;270;150;148.5;57;57.1;10;9.9;28.8;-1.0;
22/07/2019 07:32:31;117;0;262.57;16;24.96;7.15;549.7;6.90;68516;4854.461;-13036.930;270;150;148.5;57;57.1;9;9.0;28.8;-1.0;
22/07/2019 07:32:51;117;0;264.96;16;25.04;7.16;544.8;6.90;68509;4854.461;-13036.930;270;150;146.5;57;57.1;7;6.8;28.8;-1.0;
22/07/2019 07:33:11;117;0;263.10;16;24.93;5.79;539.9;6.90;68523;4854.461;-13036.930;270;150;148.5;57;57.1;8;8.6;28.7;-1.0;
22/07/2019 07:33:31;117;0;263.33;16;24.88;7.11;535.2;6.90;68507;4854.461;-13036.930;270;150;146.5;57;57.1;8;9.0;28.8;-1.0;
22/07/2019 07:33:51;117;0;259.91;16;24.94;7.20;530.4;6.90;68512;4854.461;-13036.930;270;150;146.5;57;57.1;10;9.9;28.8;-1.0;
22/07/2019 07:34:11;117;0;261.35;16;24.83;7.77;525.5;6.90;68528;4854.461;-13036.930;270;150;146.5;57;57.1;8;8.1;28.8;-1.0;
22/07/2019 07:34:31;117;0;260.81;16;24.85;6.34;520.6;6.90;68530;4854.461;-13036.930;270;150;146.5;57;57.1;8;7.7;28.8;-1.0;
22/07/2019 07:34:51;117;0;258.77;16;25.14;6.35;515.6;6.90;68523;4854.461;-13036.930;270;150;146.5;57;57.1;9;9.5;28.8;-1.0;
22/07/2019 07:35:11;117;0;257.68;16;25.15;7.48;510.6;6.90;68544;4854.461;-13036.930;270;150;148.5;57;57.1;9;9.9;28.8;-1.0;
22/07/2019 07:35:31;117;0;258.67;16;24.93;7.40;505.5;6.90;68536;4854.461;-13036.930;270;150;148.5;57;57.2;8;8.1;28.8;-1.0;
22/07/2019 07:35:51;117;0;256.23;16;24.94;6.35;500.5;6.90;68536;4854.461;-13036.930;270;150;146.5;57;57.1;9;9.0;28.8;-1.0;
22/07/2019 07:36:11;117;0;253.68;16;24.82;7.54;495.6;6.90;68526;4854.461;-13036.930;270;150;148.5;57;57.1;9;9.9;28.8;-1.0;
22/07/2019 07:36:31;117;0;253.15;16;24.78;7.52;490.5;6.90;68545;4854.461;-13036.930;270;150;148.5;57;57.1;9;9.9;28.8;-1.0;
22/07/2019 07:36:51;117;0;255.89;16;24.24;7.52;485.7;6.90;68538;4854.461;-13036.930;270;150;146.5;57;57.1;9;9.9;28.8;-1.0;
22/07/2019 07:37:11;117;0;255.95;16;24.25;7.56;480.9;6.90;68541;4854.461;-13036.930;270;150;146.5;57;57.1;9;9.9;28.8;-1.0;
22/07/2019 07:37:31;117;0;255.01;16;24.38;7.55;476.1;6.90;68538;4854.461;-13036.930;270;150;148.5;57;57.1;9;9.9;28.7;-1.0;
22/07/2019 07:37:51;117;0;255.45;16;24.19;7.57;471.4;6.90;68541;4854.461;-13036.930;270;150;146.5;57;57.1;9;9.9;28.8;-1.0;
22/07/2019 07:38:11;117;0;258.39;16;23.90;7.48;466.6;6.90;68541;4854.461;-13036.930;270;150;146.5;57;57.1;6;5.9;28.8;-1.0;
22/07/2019 07:38:31;117;0;256.95;16;24.16;5.30;462.1;6.90;68534;4854.461;-13036.930;270;150;146.5;57;57.1;8;8.1;28.8;-1.0;
22/07/2019 07:38:51;117;0;257.65;16;24.02;7.06;457.4;6.90;68538;4854.461;-13036.930;270;150;148.5;57;57.1;7;7.2;28.8;-1.0;
22/07/2019 07:39:11;117;0;257.10;16;24.07;5.77;452.7;6.90;68536;4854.461;-13036.930;270;150;146.5;57;57.1;7;6.8;28.8;-1.0;
22/07/2019 07:39:31;117;0;256.03;16;23.89;5.83;448.2;6.90;68538;4854.461;-13036.930;270;150;146.5;57;57.1;7;6.3;28.8;-1.0;
22/07/2019 07:39:51;117;0;253.47;16;24.10;5.98;443.6;6.90;68530;4854.461;-13036.930;270;150;146.5;57;57.1;7;6.3;28.8;-1.0;
22/07/2019 07:40:11;117;0;254.30;16;23.99;5.80;439.1;6.90;68533;4854.461;-13036.930;270;150;148.5;57;57.1;7;6.8;28.8;-1.0;
22/07/2019 07:40:31;117;0;253.48;16;23.94;5.80;434.4;6.90;68535;4854.461;-13036.930;270;150;148.5;57;57.1;7;6.3;28.8;-1.0;
22/07/2019 07:40:51;117;0;253.55;16;24.08;5.87;429.9;6.90;68532;4854.461;-13036.930;270;150;146.5;57;57.1;7;6.3;28.8;-1.0;
22/07/2019 07:41:11;117;0;252.79;16;24.02;5.86;425.3;6.90;68543;4854.461;-13036.930;270;150;148.5;57;57.1;7;6.3;28.8;-1.0;
22/07/2019 07:41:31;117;0;250.87;16;23.90;5.93;420.8;6.90;68543;4854.461;-13036.930;270;150;146.5;57;57.1;9;9.0;28.8;-1.0;
22/07/2019 07:41:51;117;0;250.75;16;23.83;7.30;416.3;6.90;68543;4854.461;-13036.930;270;150;148.5;57;57.1;9;9.5;28.8;-1.0;
22/07/2019 07:42:11;117;0;249.46;16;23.84;7.29;411.8;6.90;68543;4854.461;-13036.930;270;150;146.5;57;57.1;9;9.5;28.8;-1.0;
22/07/2019 07:42:31;117;0;252.19;16;23.54;7.29;407.3;6.90;68540;4854.461;-13036.930;270;150;146.5;57;57.1;7;7.2;28.8;-1.0;
22/07/2019 07:42:51;117;0;251.79;16;23.67;5.96;402.9;7.00;68555;4854.461;-13036.930;270;150;146.5;57;57.1;9;9.5;28.8;-1.0;
22/07/2019 07:43:11;117;0;250.26;16;23.69;7.62;398.4;7.00;68561;4854.461;-13036.930;270;150;146.5;57;57.1;9;9.9;28.8;-1.0;
22/07/2019 07:43:31;117;0;249.23;16;23.82;7.61;394.0;7.00;68565;4854.461;-13036.930;270;150;148.5;57;57.1;10;9.9;28.8;-1.0;
22/07/2019 07:43:51;117;0;250.08;16;23.56;7.61;389.5;7.00;68579;4854.461;-13036.930;270;150;146.5;57;57.1;9;9.0;28.8;-1.0;
22/07/2019 07:44:12;117;0;250.63;16;23.47;6.83;385.0;7.00;68574;4854.461;-13036.930;270;150;146.5;57;57.1;9;8.6;28.8;-1.0;
22/07/2019 07:44:32;117;0;251.25;16;23.46;6.84;380.6;7.00;68579;4854.461;-13036.930;270;150;146.5;57;57.1;9;8.6;28.8;-1.0;
22/07/2019 07:44:52;117;0;253.08;16;23.09;6.85;376.3;7.00;68579;4854.461;-13036.930;270;150;146.5;57;57.1;9;8.6;28.8;-1.0;
22/07/2019 07:45:12;117;0;254.88;16;23.17;6.80;372.0;7.00;68581;4854.461;-13036.930;270;150;148.5;57;57.1;9;8.6;28.8;-1.0;
22/07/2019 07:45:32;117;0;255.35;16;23.07;6.83;367.7;7.00;68587;4854.461;-13036.930;270;150;144.6;57;57.1;9;8.6;28.8;-1.0;
22/07/2019 07:45:52;117;0;253.52;16;23.39;6.86;363.4;7.00;68586;4854.461;-13036.930;270;150;146.5;57;57.1;9;8.6;28.8;-1.0;
22/07/2019 07:46:12;117;0;252.31;16;23.36;6.84;359.2;7.00;68595;4854.461;-13036.930;270;150;146.5;57;57.1;9;8.6;28.8;-1.0;
22/07/2019 07:46:32;117;0;253.48;16;23.02;6.89;354.9;7.00;68600;4854.461;-13036.930;270;150;146.5;57;57.1;9;8.6;28.8;-1.0;
22/07/2019 07:46:52;117;0;254.51;16;22.96;6.84;350.7;7.00;68603;4854.461;-13036.930;270;150;146.5;57;57.1;9;8.6;28.8;-1.0;
22/07/2019 07:47:12;117;0;255.42;16;22.94;6.87;346.6;7.10;68598;4854.461;-13036.930;270;150;148.5;57;57.1;9;8.6;28.8;-1.0;
22/07/2019 07:47:32;117;0;254.92;16;23.02;6.89;342.4;7.10;68609;4854.461;-13036.930;270;150;146.5;57;57.1;9;8.6;28.8;-1.0;
22/07/2019 07:47:52;117;0;255.68;16;22.95;6.91;338.2;7.10;68611;4854.461;-13036.930;270;150;148.5;57;57.1;9;8.6;28.8;-1.0;
22/07/2019 07:48:12;117;0;256.60;16;22.93;6.94;334.0;7.10;68621;4854.461;-13036.930;270;150;146.5;57;57.1;9;8.6;28.8;-1.0;
22/07/2019 07:48:32;117;0;258.56;16;22.75;6.89;329.8;7.10;68608;4854.461;-13036.930;270;150;144.6;57;57.1;7;7.2;28.8;-1.0;
22/07/2019 07:48:52;117;0;260.66;16;22.79;5.98;325.7;7.10;68604;4854.461;-13036.930;270;150;148.5;57;57.1;6;5.9;28.8;-1.0;
22/07/2019 07:49:12;117;0;258.63;16;22.86;5.51;321.5;7.10;68614;4854.461;-13036.930;270;150;148.5;57;57.1;7;7.2;28.8;-1.0;
22/07/2019 07:49:32;117;0;258.22;16;22.66;6.69;317.3;7.10;68622;4854.461;-13036.930;270;150;146.5;57;57.1;7;7.7;28.8;-1.0;
22/07/2019 07:49:52;117;0;258.19;16;22.73;6.63;313.2;7.10;68618;4854.461;-13036.930;270;150;146.5;57;57.1;7;7.7;28.8;-1.0;
22/07/2019 07:50:12;117;0;258.06;16;22.82;6.61;309.1;7.10;68629;4854.461;-13036.930;270;150;146.5;57;57.1;7;7.7;28.8;-1.0;
22/07/2019 07:50:32;117;0;257.50;16;22.89;6.61;304.8;7.20;68632;4854.461;-13036.930;270;150;146.5;57;57.1;7;7.7;28.8;-1.0;
22/07/2019 07:50:52;117;0;256.15;16;22.72;6.59;300.6;7.20;68630;4854.461;-13036.930;270;150;146.5;57;57.1;8;8.1;28.8;-1.0;
22/07/2019 07:51:12;117;0;255.40;16;22.71;7.24;296.4;7.20;68638;4854.461;-13036.930;270;150;146.5;57;57.1;8;9.0;28.8;-1.0;
22/07/2019 07:51:32;117;0;255.59;16;22.75;7.19;292.3;7.20;68628;4854.461;-13036.930;270;150;148.5;57;57.1;7;7.2;28.8;-1.0;
22/07/2019 07:51:52;117;0;253.92;16;22.77;6.01;288.1;7.20;68629;4854.461;-13036.930;270;150;148.5;57;57.1;7;6.8;28.8;-1.0;
22/07/2019 07:52:12;117;0;251.79;16;22.85;6.10;284.0;7.20;68633;4854.461;-13036.930;270;150;146.5;57;57.1;7;6.8;28.8;-1.0;
22/07/2019 07:52:32;117;0;250.58;16;22.61;6.04;279.8;7.20;68637;4854.461;-13036.930;270;150;144.6;57;57.1;9;9.0;28.8;-1.0;
22/07/2019 07:52:52;117;0;250.91;16;22.49;7.51;275.8;7.20;68643;4854.461;-13036.930;270;150;148.5;57;57.1;9;9.5;28.8;-1.0;
22/07/2019 07:53:12;117;0;253.43;16;22.24;7.46;271.7;7.30;68654;4854.461;-13036.930;270;150;148.5;57;57.1;9;9.5;28.8;-1.0;
22/07/2019 07:53:32;117;0;254.44;16;22.19;7.44;267.7;7.30;68660;4854.461;-13036.930;270;150;146.5;57;57.1;9;9.5;28.8;-1.0;
22/07/2019 07:53:52;117;0;253.67;16;22.06;7.50;263.8;7.30;68646;4854.461;-13036.930;270;150;146.5;57;57.1;9;9.5;28.8;-1.0;
22/07/2019 07:54:12;117;0;255.80;16;21.81;7.44;260.0;7.30;68662;4854.461;-13036.930;270;150;148.5;57;57.1;9;9.5;28.8;-1.0;
22/07/2019 07:54:32;117;0;257.72;16;21.93;7.41;256.1;7.30;68677;4854.461;-13036.930;270;150;146.5;57;57.1;6;5.9;28.8;-1.0;
22/07/2019 07:54:52;117;0;255.06;16;22.21;5.66;252.1;7.30;68672;4854.461;-13036.930;270;150;146.5;57;57.1;7;7.2;28.8;-1.0;
22/07/2019 07:55:12;117;0;254.58;16;22.06;6.74;248.2;7.30;68678;4854.461;-13036.930;270;150;146.5;57;57.1;7;7.7;28.8;-1.0;
22/07/2019 07:55:32;117;0;253.36;16;22.07;6.68;244.3;7.30;68676;4854.461;-13036.930;270;150;146.5;57;57.1;7;7.7;28.8;-1.0;
22/07/2019 07:55:52;117;0;254.44;16;21.83;6.72;240.4;7.30;68680;4854.461;-13036.930;270;150;146.5;57;57.1;7;7.7;28.8;-1.0;
22/07/2019 07:56:12;117;0;256.46;16;21.74;6.71;236.5;7.40;68690;4854.461;-13036.930;270;150;146.5;57;57.1;7;7.7;28.8;-1.0;
22/07/2019 07:56:32;117;0;257.55;16;21.72;6.79;232.7;7.40;68676;4854.461;-13036.930;270;150;148.5;57;57.1;6;5.9;28.8;-1.0;
22/07/2019 07:56:52;117;0;255.09;16;21.94;5.63;229.0;7.40;68691;4854.461;-13036.930;270;150;146.5;57;57.1;7;7.2;28.8;-1.0;
22/07/2019 07:57:12;117;0;253.85;16;21.78;6.77;225.1;7.40;68702;4854.461;-13036.930;270;150;148.5;57;57.1;7;7.7;28.8;-1.0;
22/07/2019 07:57:32;117;0;252.40;16;21.91;6.83;221.3;7.40;68697;4854.461;-13036.930;270;150;146.5;57;57.1;7;7.7;28.8;-1.0;
22/07/2019 07:57:52;117;0;254.22;16;21.57;6.78;217.6;7.50;68706;4854.461;-13036.930;270;150;146.5;57;57.1;7;7.7;28.8;-1.0;
22/07/2019 07:58:12;117;0;255.75;16;21.51;6.73;213.5;7.40;68702;4854.461;-13036.930;270;150;148.5;57;57.1;7;7.7;28.8;-1.0;
22/07/2019 07:58:32;117;0;256.10;16;21.55;6.77;209.7;7.50;68709;4854.461;-13036.930;270;150;148.5;57;57.1;7;7.7;28.8;-1.0;
22/07/2019 07:58:52;117;0;256.66;16;21.47;6.82;206.0;7.50;68702;4854.461;-13036.930;270;150;146.5;57;57.1;7;7.7;28.8;-1.0;
22/07/2019 07:59:12;117;0;259.54;16;21.39;6.75;202.1;7.50;68712;4854.461;-13036.930;270;150;146.5;57;57.1;5;5.0;28.8;-1.0;
22/07/2019 07:59:32;117;0;258.73;16;21.50;5.04;198.2;7.50;68724;4854.461;-13036.930;270;150;146.5;57;57.1;6;5.9;28.8;-1.0;
22/07/2019 07:59:52;117;0;260.25;16;21.16;6.14;194.5;7.50;68731;4854.461;-13036.930;270;150;146.5;57;57.1;4;4.1;28.8;-1.0;
22/07/2019 08:00:12;117;0;256.36;16;21.47;4.44;190.7;7.50;68726;4854.461;-13036.930;270;150;146.5;57;57.1;7;7.2;28.8;-1.0;
22/07/2019 08:00:32;117;0;255.38;16;21.30;6.77;186.8;7.60;68736;4854.461;-13036.930;270;150;148.5;57;57.1;7;7.7;28.8;-1.0;
22/07/2019 08:00:52;117;0;255.61;16;21.18;6.77;183.1;7.60;68723;4854.461;-13036.930;270;150;146.5;57;57.1;6;5.9;28.8;-1.0;
22/07/2019 08:01:12;117;0;254.30;16;21.30;5.42;179.2;7.60;68732;4854.461;-13036.930;270;150;146.5;57;57.1;6;5.0;28.8;-1.0;
22/07/2019 08:01:32;117;0;251.61;16;21.37;5.40;175.2;7.60;68739;4854.461;-13036.930;270;150;148.5;57;57.1;6;5.4;28.8;-1.0;
22/07/2019 08:01:52;117;0;249.93;16;21.45;5.39;171.4;7.60;68748;4854.461;-13036.930;270;150;146.5;57;57.1;9;9.0;28.8;-1.0;
22/07/2019 08:02:12;117;0;250.33;16;21.10;7.65;167.3;7.60;68752;4854.461;-13036.930;270;150;146.5;57;57.1;7;7.2;28.8;-1.0;
22/07/2019 08:02:32;117;0;252.54;16;20.84;6.24;163.4;7.70;68753;4854.461;-13036.930;270;150;148.5;57;57.1;6;5.9;28.8;-1.0;
22/07/2019 08:02:52;117;0;250.24;16;21.10;5.34;159.4;7.70;68748;4854.461;-13036.930;270;150;148.5;57;57.1;8;8.1;28.8;-1.0;
22/07/2019 08:03:12;117;0;252.98;16;20.38;7.31;155.5;7.70;68767;4854.461;-13036.930;270;150;146.5;57;57.1;6;5.9;28.8;-1.0;
22/07/2019 08:03:32;117;0;254.36;16;20.28;5.51;151.8;7.70;68774;4854.461;-13036.930;270;150;148.5;57;57.1;6;5.4;28.8;-1.0;
22/07/2019 08:03:52;117;0;255.86;16;20.39;5.52;148.2;7.70;68768;4854.461;-13036.930;270;150;146.5;57;57.1;6;5.4;28.8;-1.0;
22/07/2019 08:04:12;117;0;255.14;16;20.28;5.42;144.5;7.80;68771;4854.461;-13036.930;270;150;146.5;57;57.1;6;5.4;28.8;-1.0;
22/07/2019 08:04:32;117;0;257.03;16;20.30;5.53;140.8;7.80;68766;4854.461;-13036.930;270;150;148.5;57;57.2;5;5.0;28.8;-1.0;
22/07/2019 08:04:52;117;0;256.03;16;20.26;5.13;137.0;7.80;68768;4854.461;-13036.930;270;150;146.5;57;57.1;6;5.9;28.8;-1.0;
22/07/2019 08:05:12;117;0;254.82;16;19.97;6.07;133.3;7.80;68772;4854.461;-13036.930;270;150;146.5;57;57.1;6;6.3;28.8;-1.0;
22/07/2019 08:05:32;117;0;256.51;16;19.78;6.00;129.6;7.80;68768;4854.461;-13036.930;270;150;146.5;57;57.1;6;6.3;28.8;-1.0;
22/07/2019 08:05:52;117;0;256.00;16;19.92;5.99;126.1;7.80;68775;4854.461;-13036.930;270;150;146.5;57;57.1;6;6.3;28.8;-1.0;
22/07/2019 08:06:12;117;0;259.01;16;19.62;5.91;122.4;7.80;68774;4854.461;-13036.930;270;150;148.5;57;57.1;4;4.1;28.8;-1.0;
22/07/2019 08:06:32;117;0;251.05;16;19.92;4.68;118.8;7.90;68781;4854.461;-13036.930;270;150;146.5;57;57.1;4;3.6;28.8;-1.0;
22/07/2019 08:06:52;117;0;253.55;16;18.85;4.71;115.3;7.90;68775;4854.461;-13036.930;270;150;146.5;57;57.2;4;3.6;28.8;-1.0;
22/07/2019 08:07:12;117;0;257.30;16;18.08;4.65;112.3;7.90;68772;4854.461;-13036.930;270;150;148.5;57;57.1;5;5.0;28.8;-1.0;
22/07/2019 08:07:32;117;0;261.28;16;17.80;6.02;109.3;7.90;68770;4854.461;-13036.930;270;150;148.5;57;57.1;2;1.8;28.8;-1.0;
