Timestamp;NavState;SecurityLevel;Heading;Declination;Pitch;Roll;Depth;Temperature;Pa;Lat;Lon;DesiredH;BallastCmd;BallastPos;LinCmd;LinPos;AngCmd;AngPos;Voltage;Altitude;
23/07/2019 01:14:40;117;0;127.48;16;8.32;0.54;9.4;10.50;69909;4851.605;-13028.190;145;150;162.4;57;57.1;-6;-6.3;28.7;-1.0;
23/07/2019 01:14:50;115;0;124.40;16;7.72;-0.03;8.7;10.50;69916;4851.605;-13028.190;145;300;174.3;100;99.9;0;0.9;28.7;-1.0;
23/07/2019 01:15:00;115;0;108.83;16;-33.79;4.59;8.2;10.60;69855;4851.605;-13028.190;145;300;305.0;100;100.0;0;1.4;28.3;-1.0;
23/07/2019 01:15:10;115;0;92.46;16;-74.78;-2.35;8.5;10.60;69688;4851.605;-13028.190;145;300;305.0;100;100.1;0;1.4;28.6;-1.0;
23/07/2019 01:15:20;115;0;87.50;16;-51.14;3.26;6.5;10.70;69723;4851.605;-13028.190;145;300;306.9;100;100.0;0;1.4;28.7;-1.0;
23/07/2019 01:15:30;116;0;101.40;16;-37.57;1.33;3.6;10.70;69723;4851.605;-13028.190;145;300;310.9;100;100.0;0;1.4;28.7;-1.0;
23/07/2019 01:15:50;116;0;183.07;16;-27.92;2.34;2.8;10.80;69749;4851.605;-13028.190;145;300;310.9;100;100.0;0;1.4;28.7;-1.0;
23/07/2019 01:16:10;116;0;272.55;16;-41.14;6.21;3.3;11.00;69761;4851.605;-13028.190;145;300;310.9;100;100.0;0;1.4;28.7;-1.0;
23/07/2019 01:16:30;116;0;240.32;16;-41.81;-5.80;2.9;11.10;69779;4851.605;-13028.190;145;300;308.9;100;100.0;0;1.4;28.6;-1.0;
23/07/2019 01:16:50;116;0;221.84;16;-11.99;2.59;2.7;11.20;69793;4851.605;-13028.190;145;300;310.9;100;99.9;0;1.4;28.6;-1.0;
23/07/2019 01:17:10;116;0;231.61;16;-9.12;1.15;2.7;11.30;69790;4851.605;-13028.190;145;300;310.9;100;99.9;0;1.4;28.7;-1.0;
23/07/2019 01:17:30;116;0;208.94;16;-6.35;5.85;2.7;11.40;69807;4850.641;-13024.918;145;300;312.9;100;99.9;0;1.4;28.7;-1.0;
23/07/2019 01:17:50;116;0;234.33;16;-10.96;8.19;2.8;11.50;69816;4850.637;-13024.930;145;300;310.9;100;99.9;0;1.4;28.6;-1.0;
23/07/2019 01:18:12;116;0;265.53;16;-20.16;3.14;2.9;11.60;69831;4850.643;-13024.911;145;300;308.9;100;100.0;0;1.4;28.6;-1.0;
23/07/2019 01:18:37;116;0;237.89;16;-41.23;-2.29;3.2;11.70;69851;4850.645;-13024.908;145;300;308.9;100;100.0;0;1.4;28.7;-1.0;
23/07/2019 01:18:57;116;0;203.52;16;-15.67;6.88;2.7;11.80;69860;4850.646;-13024.906;145;300;310.9;100;99.9;0;1.4;28.6;-1.0;
23/07/2019 01:19:17;116;0;252.56;16;-24.91;1.82;2.9;11.90;69867;4850.645;-13024.910;145;300;312.9;100;99.9;0;1.4;28.7;-1.0;
23/07/2019 01:19:37;116;0;191.61;16;-41.95;9.68;3.1;12.00;69880;4850.645;-13024.910;145;300;310.9;100;100.0;0;1.4;28.6;-1.0;
23/07/2019 01:19:57;116;0;208.58;16;-17.97;-1.91;2.8;12.10;69884;4850.645;-13024.910;145;300;310.9;100;99.9;0;1.4;28.7;-1.0;
23/07/2019 01:20:17;116;0;223.67;16;-12.75;3.54;2.8;12.20;69889;4850.644;-13024.913;145;300;310.9;100;99.9;0;1.4;28.7;-1.0;
23/07/2019 01:20:37;116;0;248.04;16;-23.94;6.32;3.0;12.30;69911;4850.644;-13024.913;145;300;310.9;100;99.9;0;1.4;28.6;-1.0;
23/07/2019 01:20:57;116;0;248.91;16;-36.91;-0.93;3.2;12.40;69914;4850.644;-13024.916;145;300;306.9;100;100.0;0;1.4;28.7;-1.0;
23/07/2019 01:21:17;116;0;258.71;16;-23.38;4.51;2.8;12.50;69920;4850.644;-13024.916;145;300;308.9;100;100.0;0;1.4;28.5;-1.0;
23/07/2019 01:21:37;116;0;257.51;16;-10.44;8.69;2.7;12.60;69915;4850.644;-13024.914;145;300;310.9;100;99.9;0;1.4;28.6;-1.0;
23/07/2019 01:21:57;116;0;246.00;16;-6.60;6.29;2.7;12.70;69927;4850.644;-13024.916;145;300;312.9;100;99.9;0;1.4;28.6;-1.0;
23/07/2019 01:22:17;116;0;238.06;16;-24.75;0.17;2.9;12.80;69940;4850.644;-13024.917;145;300;310.9;100;99.9;0;1.4;28.6;-1.0;
23/07/2019 01:22:37;116;0;259.38;16;-44.50;0.28;3.3;12.90;69948;4850.643;-13024.920;145;300;308.9;100;100.0;0;1.4;28.7;-1.0;
23/07/2019 01:22:57;116;0;274.40;16;-24.01;3.59;2.8;13.00;69955;4850.641;-13024.921;145;300;308.9;100;99.9;0;1.4;28.6;-1.0;
23/07/2019 01:23:35;116;0;256.73;16;-36.63;-3.83;3.1;13.10;69971;4850.641;-13024.922;145;300;308.9;100;100.0;0;1.4;28.6;-1.0;
23/07/2019 01:23:55;116;0;231.45;16;-29.85;-5.70;2.9;13.20;69986;4850.642;-13024.922;145;300;308.9;100;100.0;0;1.4;28.6;-1.0;
23/07/2019 01:24:15;116;0;253.14;16;-34.54;0.38;3.0;13.30;69982;4850.642;-13024.920;145;300;308.9;100;99.9;0;1.4;28.7;-1.0;
23/07/2019 01:24:35;116;0;262.02;16;-38.01;9.12;3.1;13.30;69986;4850.642;-13024.922;145;300;308.9;100;100.0;0;1.4;28.6;-1.0;
23/07/2019 01:24:55;116;0;223.61;16;-29.07;0.01;3.0;13.40;69999;4850.642;-13024.923;145;300;308.9;100;100.0;0;1.4;28.7;-1.0;
23/07/2019 01:25:15;116;0;267.88;16;-27.40;2.69;2.9;13.50;70010;4850.641;-13024.922;145;300;308.9;100;100.0;0;1.4;28.6;-1.0;
23/07/2019 01:25:35;116;0;259.41;16;-43.53;0.99;3.1;13.60;70015;4850.641;-13024.924;145;300;308.9;100;100.0;0;1.4;28.6;-1.0;
23/07/2019 01:25:55;116;0;241.37;16;-27.42;-7.30;2.9;13.60;70016;4850.641;-13024.924;145;300;308.9;100;99.9;0;1.4;28.6;-1.0;
23/07/2019 01:26:15;110;0;268.15;16;-36.56;10.58;3.1;13.70;70031;4850.641;-13024.924;145;-500;186.1;100;100.0;0;1.4;28.6;-1.0;
23/07/2019 01:26:25;110;0;217.23;16;-59.39;26.49;3.4;13.70;70291;4850.641;-13024.924;145;-500;17.8;100;100.0;0;1.4;28.5;-1.0;
23/07/2019 01:26:35;110;0;270.49;16;-49.34;4.05;3.5;13.80;70518;4850.641;-13024.924;145;-500;-162.4;100;100.0;0;1.4;28.6;-1.0;
23/07/2019 01:26:45;110;0;265.17;16;-58.63;4.09;3.9;13.80;70815;4850.641;-13024.924;145;-500;-358.4;90;89.9;0;1.4;28.5;-1.0;
23/07/2019 01:26:55;110;0;244.15;16;-56.93;1.01;5.1;13.80;71131;4850.641;-13024.924;145;-500;-499.0;78;77.8;0;1.4;28.5;-1.0;
23/07/2019 01:27:05;110;0;234.64;16;-44.90;3.84;7.9;13.90;71339;4850.641;-13024.924;145;-500;-499.0;70;70.0;0;1.4;28.6;-1.0;
23/07/2019 01:27:15;100;0;225.13;16;-36.64;3.60;11.3;13.90;71341;4850.641;-13024.924;145;-500;-499.0;70;69.9;0;1.4;28.6;-1.0;
23/07/2019 01:27:35;100;0;217.51;16;-29.48;4.68;17.5;14.00;71350;4850.641;-13024.924;145;-500;-497.0;70;69.9;45;45.6;28.7;0.0;
23/07/2019 01:27:55;100;0;197.50;16;-22.87;25.28;23.5;14.00;71343;4850.641;-13024.924;145;-500;-499.0;70;69.9;29;28.9;28.7;0.0;
23/07/2019 01:28:15;100;0;178.86;16;-21.69;16.01;27.9;14.00;71236;4850.641;-13024.924;145;-500;-497.0;70;69.9;15;14.9;28.7;0.0;
23/07/2019 01:28:35;100;0;156.58;16;-23.61;9.82;31.6;14.00;71133;4850.641;-13024.924;145;-500;-495.0;70;69.9;4;4.1;28.6;0.0;
23/07/2019 01:28:55;100;0;141.44;16;-24.34;4.56;35.6;14.00;71067;4850.641;-13024.924;145;-500;-495.0;70;69.7;1;0.5;28.7;0.0;
23/07/2019 01:29:15;100;0;131.79;16;-24.50;3.04;39.7;13.90;70993;4850.641;-13024.924;145;-500;-497.0;70;69.7;1;0.0;28.7;0.0;
23/07/2019 01:29:35;100;0;118.51;16;-24.86;3.06;43.6;13.90;70956;4850.641;-13024.924;145;-500;-495.0;70;69.7;1;0.0;28.7;0.0;
23/07/2019 01:29:55;100;0;109.89;16;-24.39;3.02;47.6;13.80;70899;4850.641;-13024.924;145;-500;-497.0;70;69.7;-2;-1.8;28.7;0.0;
23/07/2019 01:30:15;100;0;97.93;16;-24.69;2.01;51.6;13.80;70832;4850.641;-13024.924;145;-500;-495.0;70;69.7;-6;-5.9;28.7;0.0;
23/07/2019 01:30:35;100;0;89.27;16;-24.55;0.34;55.7;13.70;70782;4850.641;-13024.924;145;-500;-495.0;70;69.7;-7;-7.2;28.7;0.0;
23/07/2019 01:30:55;100;0;89.95;16;-23.92;-0.41;59.9;13.70;70714;4850.641;-13024.924;145;-500;-497.0;70;69.7;-4;-4.1;28.6;0.0;
23/07/2019 01:31:15;100;0;86.99;16;-24.11;1.68;63.8;13.60;70659;4850.641;-13024.924;145;-500;-495.0;70;69.7;-4;-3.2;28.7;0.0;
23/07/2019 01:31:35;100;0;82.49;16;-23.72;1.84;68.0;13.50;70621;4850.641;-13024.924;145;-500;-497.0;70;69.7;-7;-7.2;28.6;0.0;
23/07/2019 01:31:55;100;0;75.21;16;-24.01;-0.30;71.9;13.40;70581;4850.641;-13024.924;145;-500;-497.0;70;69.7;-12;-12.2;28.6;0.0;
23/07/2019 01:32:15;100;0;69.88;16;-24.29;-2.59;76.1;13.40;70544;4850.641;-13024.924;145;-500;-495.0;70;69.6;-16;-16.2;28.7;0.0;
23/07/2019 01:32:35;100;0;65.32;16;-24.27;-4.16;80.3;13.30;70489;4850.641;-13024.924;145;-500;-495.0;70;69.7;-18;-18.5;28.7;0.0;
23/07/2019 01:32:55;100;0;59.93;16;-23.94;-5.16;84.7;13.30;70470;4850.641;-13024.924;145;-500;-495.0;70;69.7;-23;-23.5;28.6;0.0;
23/07/2019 01:33:15;100;0;58.62;16;-23.80;-7.54;88.8;13.20;70446;4850.641;-13024.924;145;-500;-495.0;70;69.7;-24;-24.4;28.7;0.0;
23/07/2019 01:33:35;100;0;62.73;16;-23.09;-8.00;92.8;13.10;70414;4850.641;-13024.924;145;-500;-495.0;70;69.7;-23;-23.0;28.6;0.0;
23/07/2019 01:33:55;100;0;60.99;16;-23.59;-7.15;96.5;13.10;70388;4850.641;-13024.924;145;-500;-495.0;70;69.7;-27;-27.1;28.7;0.0;
23/07/2019 01:34:15;100;0;68.47;16;-22.68;-9.39;100.5;13.00;70368;4850.641;-13024.924;145;-500;-495.0;70;69.7;-24;-23.9;28.7;0.0;
23/07/2019 01:34:35;100;0;75.63;16;-22.19;-7.30;104.2;12.90;70351;4850.641;-13024.924;145;-500;-495.0;70;69.7;-21;-21.2;28.7;0.0;
23/07/2019 01:34:55;100;0;67.08;16;-22.58;-5.81;108.1;12.80;70336;4850.641;-13024.924;145;-500;-495.0;70;69.7;-28;-28.4;28.7;0.0;
23/07/2019 01:35:15;100;0;73.28;16;-21.14;-9.85;111.8;12.80;70323;4850.641;-13024.924;145;-500;-495.0;70;69.7;-24;-23.9;28.6;0.0;
23/07/2019 01:35:35;100;0;73.36;16;-21.60;-7.47;115.2;12.70;70311;4850.641;-13024.924;145;-500;-497.0;70;69.7;-25;-25.3;28.7;0.0;
23/07/2019 01:35:55;100;0;82.91;16;-21.03;-8.55;118.5;12.70;70306;4850.641;-13024.924;145;-500;-495.0;70;69.7;-20;-19.4;28.7;0.0;
23/07/2019 01:36:15;100;0;86.33;16;-21.04;-5.35;121.7;12.60;70293;4850.641;-13024.924;145;-500;-495.0;70;69.7;-19;-19.0;28.6;0.0;
23/07/2019 01:36:35;100;0;85.21;16;-20.91;-5.36;125.1;12.50;70290;4850.641;-13024.924;145;-500;-495.0;70;69.7;-22;-22.1;28.7;0.0;
23/07/2019 01:36:55;100;0;77.80;16;-21.01;-7.02;128.2;12.50;70286;4850.641;-13024.924;145;-500;-495.0;70;69.7;-27;-27.1;28.7;0.0;
23/07/2019 01:37:15;100;0;82.19;16;-19.87;-9.40;131.3;12.40;70273;4850.641;-13024.924;145;-500;-493.1;70;69.7;-23;-22.6;28.7;0.0;
23/07/2019 01:37:35;100;0;84.25;16;-20.17;-6.91;134.2;12.40;70272;4850.641;-13024.924;145;-500;-495.0;70;69.7;-22;-22.1;28.6;0.0;
23/07/2019 01:37:55;100;0;84.21;16;-20.27;-6.81;137.1;12.30;70267;4850.641;-13024.924;145;-500;-493.1;70;69.7;-23;-23.0;28.6;0.0;
23/07/2019 01:38:15;100;0;84.13;16;-20.57;-7.73;140.0;12.20;70256;4850.641;-13024.924;145;-500;-495.0;70;69.7;-23;-23.9;28.6;0.0;
23/07/2019 01:38:35;100;0;86.61;16;-19.70;-7.67;142.8;12.20;70249;4850.641;-13024.924;145;-500;-495.0;70;69.7;-22;-21.7;28.7;0.0;
23/07/2019 01:38:55;100;0;86.66;16;-19.67;-6.47;145.7;12.20;70248;4850.641;-13024.924;145;-500;-495.0;70;69.7;-22;-21.2;28.7;0.0;
23/07/2019 01:39:15;100;0;85.93;16;-19.44;-6.45;148.7;12.10;70246;4850.641;-13024.924;145;-500;-493.1;70;69.7;-23;-23.0;28.7;0.0;
23/07/2019 01:39:35;100;0;86.48;16;-19.59;-7.54;151.4;12.10;70235;4850.641;-13024.924;145;-500;-495.0;70;69.7;-23;-23.5;28.7;0.0;
23/07/2019 01:39:55;100;0;84.94;16;-19.92;-7.56;154.3;12.00;70225;4850.641;-13024.924;145;-500;-495.0;70;69.7;-24;-24.4;28.6;0.0;
23/07/2019 01:40:15;100;0;86.10;16;-19.64;-8.11;157.2;12.00;70211;4850.641;-13024.924;145;-500;-493.1;70;69.7;-22;-22.1;28.6;0.0;
23/07/2019 01:40:35;100;0;86.29;16;-19.60;-6.61;160.1;11.90;70213;4850.641;-13024.924;145;-500;-495.0;70;69.7;-23;-23.5;28.7;0.0;
23/07/2019 01:40:55;100;0;87.08;16;-19.66;-7.72;163.1;11.90;70206;4850.641;-13024.924;145;-500;-497.0;70;69.7;-22;-22.1;28.7;0.0;
23/07/2019 01:41:15;100;0;86.19;16;-19.58;-6.54;166.0;11.80;70198;4850.641;-13024.924;145;-500;-497.0;70;69.7;-23;-23.0;28.7;0.0;
23/07/2019 01:41:35;100;0;86.54;16;-19.53;-7.63;169.1;11.80;70189;4850.641;-13024.924;145;-500;-493.1;70;69.7;-23;-23.5;28.7;0.0;
23/07/2019 01:41:55;100;0;87.01;16;-19.46;-7.66;172.1;11.70;70186;4850.641;-13024.924;145;-500;-493.1;70;69.7;-22;-21.7;28.7;0.0;
23/07/2019 01:42:15;100;0;87.13;16;-19.29;-6.47;175.1;11.70;70184;4850.641;-13024.924;145;-500;-495.0;70;69.7;-23;-23.0;28.6;0.0;
23/07/2019 01:42:35;100;0;89.20;16;-19.32;-7.55;178.0;11.60;70180;4850.641;-13024.924;145;-500;-495.0;70;69.7;-22;-22.1;28.6;0.0;
23/07/2019 01:42:55;100;0;89.92;16;-19.42;-6.70;180.9;11.60;70174;4850.641;-13024.924;145;-500;-493.1;70;69.7;-22;-21.7;28.6;0.0;
23/07/2019 01:43:15;100;0;90.17;16;-19.40;-6.69;183.7;11.50;70169;4850.641;-13024.924;145;-500;-495.0;70;69.7;-22;-21.7;28.7;0.0;
23/07/2019 01:43:35;100;0;89.22;16;-19.36;-6.68;186.4;11.50;70167;4850.641;-13024.924;145;-500;-495.0;70;69.7;-22;-21.7;28.7;0.0;
23/07/2019 01:43:55;100;0;88.98;16;-19.33;-6.68;189.1;11.40;70155;4850.641;-13024.924;145;-500;-495.0;70;69.7;-23;-23.0;28.7;0.0;
23/07/2019 01:44:15;100;0;89.89;16;-19.35;-7.54;191.6;11.40;70155;4850.641;-13024.924;145;-500;-495.0;70;69.7;-22;-22.1;28.7;0.0;
23/07/2019 01:44:35;100;0;90.77;16;-19.39;-6.66;194.2;11.40;70149;4850.641;-13024.924;145;-500;-495.0;70;69.7;-22;-21.7;28.7;0.0;
23/07/2019 01:44:55;100;0;92.14;16;-19.38;-6.67;196.7;11.30;70155;4850.641;-13024.924;145;-500;-495.0;70;69.7;-21;-21.2;28.7;0.0;
23/07/2019 01:45:15;100;0;92.71;16;-19.41;-6.67;199.1;11.30;70140;4850.641;-13024.924;145;-500;-495.0;70;69.7;-21;-21.2;28.6;0.0;
23/07/2019 01:45:35;100;0;94.28;16;-19.33;-6.73;201.5;11.20;70132;4850.641;-13024.924;145;-500;-495.0;70;69.7;-20;-19.9;28.6;0.0;
23/07/2019 01:45:55;100;0;95.49;16;-19.18;-5.61;204.0;11.20;70133;4850.641;-13024.924;145;-500;-495.0;70;69.7;-20;-19.4;28.6;0.0;
23/07/2019 01:46:15;100;0;97.12;16;-19.23;-5.75;206.4;11.20;70124;4850.641;-13024.924;145;-500;-495.0;70;69.7;-20;-19.4;28.7;0.0;
23/07/2019 01:46:35;100;0;98.07;16;-19.17;-5.61;208.8;11.10;70122;4850.641;-13024.924;145;-500;-493.1;70;69.7;-20;-19.4;28.6;0.0;
23/07/2019 01:46:55;100;0;97.78;16;-19.19;-5.63;211.2;11.10;70119;4850.641;-13024.924;145;-500;-493.1;70;69.7;-21;-21.2;28.6;0.0;
23/07/2019 01:47:15;100;0;99.89;16;-19.04;-6.62;213.6;11.00;70108;4850.641;-13024.924;145;-500;-493.1;70;69.7;-19;-18.5;28.7;0.0;
23/07/2019 01:47:35;100;0;99.64;16;-19.00;-4.99;216.1;11.00;70106;4850.641;-13024.924;145;-500;-495.0;70;69.7;-20;-19.9;28.6;0.0;
23/07/2019 01:47:55;100;0;98.58;16;-19.10;-5.96;218.5;11.00;70100;4850.641;-13024.924;145;-500;-493.1;70;69.7;-21;-21.2;28.6;0.0;
23/07/2019 01:48:15;100;0;96.89;16;-19.03;-6.76;221.0;10.90;70095;4850.641;-13024.924;145;-500;-493.1;70;69.7;-22;-22.1;28.7;0.0;
23/07/2019 01:48:35;100;0;96.17;16;-18.91;-6.82;223.6;10.90;70093;4850.641;-13024.924;145;-500;-495.0;70;69.7;-21;-21.2;28.7;0.0;
23/07/2019 01:48:55;100;0;95.98;16;-19.01;-6.19;225.9;10.80;70083;4850.641;-13024.924;145;-500;-495.0;70;69.7;-22;-22.6;28.7;0.0;
23/07/2019 01:49:15;100;0;97.49;16;-18.85;-7.24;228.5;10.80;70084;4850.641;-13024.924;145;-500;-493.1;70;69.7;-20;-19.9;28.7;0.0;
23/07/2019 01:49:35;100;0;97.48;16;-18.89;-5.56;231.0;10.80;70073;4850.641;-13024.924;145;-500;-495.0;70;69.7;-20;-19.0;28.7;0.0;
23/07/2019 01:49:55;100;0;96.64;16;-18.80;-5.53;233.5;10.70;70075;4850.641;-13024.924;145;-500;-495.0;70;69.7;-21;-21.2;28.6;0.0;
23/07/2019 01:50:16;100;0;97.02;16;-18.89;-6.66;236.0;10.70;70067;4850.641;-13024.924;145;-500;-495.0;70;69.7;-20;-19.9;28.7;0.0;
23/07/2019 01:50:36;100;0;96.13;16;-18.92;-5.45;238.5;10.70;70073;4850.641;-13024.924;145;-500;-495.0;70;69.7;-21;-21.7;28.7;0.0;
23/07/2019 01:50:56;100;0;97.19;16;-18.95;-6.82;240.8;10.60;70071;4850.641;-13024.924;145;-500;-495.0;70;69.7;-20;-19.4;28.7;0.0;
23/07/2019 01:51:16;100;0;96.23;16;-18.97;-5.25;243.3;10.60;70062;4850.641;-13024.924;145;-500;-495.0;70;69.7;-21;-21.2;28.6;0.0;
23/07/2019 01:51:36;100;0;97.28;16;-18.95;-6.79;245.7;10.50;70054;4850.641;-13024.924;145;-500;-495.0;70;69.7;-20;-19.9;28.7;0.0;
23/07/2019 01:51:56;100;0;97.86;16;-18.82;-5.57;248.2;10.50;70068;4850.641;-13024.924;145;-500;-495.0;70;69.7;-21;-21.2;28.7;0.0;
23/07/2019 01:52:16;100;0;98.13;16;-18.85;-6.67;250.6;10.50;70043;4850.641;-13024.924;145;-500;-495.0;70;69.7;-20;-19.9;28.6;0.0;
23/07/2019 01:52:36;100;0;96.93;16;-18.82;-5.45;253.0;10.50;70045;4850.641;-13024.924;145;-500;-495.0;70;69.7;-21;-21.7;28.7;0.0;
23/07/2019 01:52:56;100;0;98.11;16;-18.83;-6.83;255.5;10.40;70050;4850.641;-13024.924;145;-500;-495.0;70;69.7;-20;-19.4;28.7;0.0;
23/07/2019 01:53:16;100;0;97.74;16;-18.79;-5.36;258.0;10.40;70040;4850.641;-13024.924;145;-500;-493.1;70;69.7;-21;-21.2;28.7;0.0;
23/07/2019 01:53:36;100;0;97.72;16;-18.85;-6.77;260.4;10.40;70045;4850.641;-13024.924;145;-500;-495.0;70;69.7;-21;-21.7;28.7;0.0;
23/07/2019 01:53:56;100;0;98.95;16;-18.68;-6.77;262.9;10.30;70041;4850.641;-13024.924;145;-500;-493.1;70;69.7;-20;-19.9;28.7;0.0;
23/07/2019 01:54:16;100;0;99.50;16;-18.68;-5.58;265.5;10.30;70043;4850.641;-13024.924;145;-500;-493.1;70;69.7;-20;-19.4;28.7;0.0;
23/07/2019 01:54:36;100;0;99.62;16;-18.56;-5.57;267.9;10.30;70030;4850.641;-13024.924;145;-500;-495.0;70;69.7;-20;-19.0;28.7;0.0;
23/07/2019 01:54:56;100;0;99.98;16;-18.53;-5.61;270.4;10.30;70023;4850.641;-13024.924;145;-500;-493.1;70;69.7;-20;-19.4;28.6;0.0;
23/07/2019 01:55:16;100;0;100.14;16;-18.58;-5.58;272.8;10.20;70033;4850.641;-13024.924;145;-500;-495.0;70;69.7;-20;-19.4;28.7;0.0;
23/07/2019 01:55:36;100;0;99.51;16;-18.67;-5.52;275.3;10.20;70024;4850.641;-13024.924;145;-500;-495.0;70;69.7;-20;-19.0;28.7;0.0;
23/07/2019 01:55:56;100;0;99.04;16;-18.67;-5.57;277.8;10.20;70020;4850.641;-13024.924;145;-500;-495.0;70;69.7;-20;-19.4;28.7;0.0;
23/07/2019 01:56:16;100;0;99.46;16;-18.65;-5.50;280.3;10.20;70022;4850.641;-13024.924;145;-500;-495.0;70;69.7;-20;-19.0;28.7;0.0;
23/07/2019 01:56:36;100;0;100.42;16;-18.59;-5.52;282.7;10.10;70019;4850.641;-13024.924;145;-500;-493.1;70;69.7;-20;-19.4;28.6;0.0;
23/07/2019 01:56:56;100;0;100.47;16;-18.58;-5.62;285.2;10.10;70015;4850.641;-13024.924;145;-500;-495.0;70;69.7;-20;-19.0;28.6;0.0;
23/07/2019 01:57:16;100;0;101.00;16;-18.60;-5.56;287.7;10.10;70011;4850.641;-13024.924;145;-500;-495.0;70;69.7;-19;-19.0;28.6;0.0;
23/07/2019 01:57:36;100;0;101.46;16;-18.72;-5.09;290.1;10.00;70011;4850.641;-13024.924;145;-500;-495.0;70;69.7;-20;-19.9;28.6;0.0;
23/07/2019 01:57:56;100;0;101.76;16;-18.48;-6.19;292.5;10.00;70011;4850.641;-13024.924;145;-500;-497.0;70;69.7;-20;-20.3;28.6;0.0;
23/07/2019 01:58:16;100;0;102.38;16;-18.52;-6.24;295.0;10.00;70004;4850.641;-13024.924;145;-500;-493.1;70;69.6;-19;-19.0;28.6;0.0;
23/07/2019 01:58:36;100;0;102.63;16;-18.51;-5.08;297.5;10.00;70003;4850.641;-13024.924;145;-500;-495.0;70;69.7;-19;-18.1;28.7;0.0;
23/07/2019 01:58:56;100;0;102.39;16;-18.48;-5.08;299.9;9.90;69987;4850.641;-13024.924;145;-500;-493.1;70;69.7;-20;-19.9;28.7;0.0;
23/07/2019 01:59:16;100;0;103.28;16;-18.48;-6.14;302.4;9.90;69997;4850.641;-13024.924;145;-500;-497.0;70;69.7;-19;-19.0;28.7;0.0;
23/07/2019 01:59:36;100;0;103.86;16;-18.39;-5.26;304.9;9.90;69992;4850.641;-13024.924;145;-500;-493.1;70;69.7;-19;-18.5;28.6;0.0;
23/07/2019 01:59:56;100;0;103.79;16;-18.39;-5.28;307.4;9.90;69993;4850.641;-13024.924;145;-500;-495.0;70;69.7;-19;-18.5;28.7;0.0;
23/07/2019 02:00:16;100;0;102.75;16;-18.33;-5.31;309.8;9.90;69987;4850.641;-13024.924;145;-500;-495.0;70;69.7;-20;-19.9;28.6;0.0;
23/07/2019 02:00:36;100;0;103.71;16;-18.27;-6.18;312.3;9.80;69993;4850.641;-13024.924;145;-500;-493.1;70;69.7;-19;-19.0;28.6;0.0;
23/07/2019 02:00:56;100;0;104.03;16;-18.38;-5.29;314.7;9.80;69980;4850.641;-13024.924;145;-500;-495.0;70;69.7;-19;-18.5;28.7;0.0;
23/07/2019 02:01:16;100;0;103.19;16;-18.39;-5.27;317.2;9.80;69985;4850.641;-13024.924;145;-500;-493.1;70;69.7;-20;-20.3;28.7;0.0;
23/07/2019 02:01:36;100;0;104.32;16;-18.42;-6.30;319.6;9.80;69983;4850.641;-13024.924;145;-500;-495.0;70;69.7;-19;-19.0;28.7;0.0;
23/07/2019 02:01:56;100;0;104.19;16;-18.29;-5.12;322.1;9.70;69974;4850.641;-13024.924;145;-500;-495.0;70;69.7;-19;-18.1;28.6;0.0;
23/07/2019 02:02:16;100;0;104.16;16;-18.29;-5.16;324.5;9.70;69973;4850.641;-13024.924;145;-500;-493.1;70;69.7;-19;-18.1;28.7;0.0;
23/07/2019 02:02:36;100;0;103.33;16;-18.24;-5.14;326.9;9.70;69971;4850.641;-13024.924;145;-500;-493.1;70;69.7;-20;-19.9;28.7;0.0;
23/07/2019 02:02:56;100;0;103.22;16;-18.25;-6.23;329.4;9.70;69971;4850.641;-13024.924;145;-500;-493.1;70;69.7;-20;-20.8;28.7;0.0;
23/07/2019 02:03:16;100;0;103.53;16;-18.16;-6.23;331.8;9.60;69970;4850.641;-13024.924;145;-500;-495.0;70;69.7;-20;-20.3;28.7;0.0;
23/07/2019 02:03:36;100;0;103.35;16;-18.20;-6.24;334.3;9.60;69964;4850.641;-13024.924;145;-500;-493.1;70;69.7;-20;-20.3;28.7;0.0;
23/07/2019 02:03:56;100;0;103.47;16;-18.21;-6.25;336.5;9.60;69952;4850.641;-13024.924;145;-500;-493.1;70;69.7;-20;-20.3;28.7;0.0;
23/07/2019 02:04:16;100;0;103.51;16;-18.14;-6.24;339.0;9.60;69967;4850.641;-13024.924;145;-500;-495.0;70;69.7;-20;-20.8;28.7;0.0;
23/07/2019 02:04:36;100;0;104.22;16;-18.14;-6.22;341.3;9.60;69955;4850.641;-13024.924;145;-500;-495.0;70;69.7;-19;-19.0;28.6;0.0;
23/07/2019 02:04:56;100;0;104.74;16;-18.11;-5.08;343.7;9.60;69956;4850.641;-13024.924;145;-500;-493.1;70;69.7;-19;-18.1;28.7;0.0;
23/07/2019 02:05:16;100;0;104.50;16;-18.17;-5.09;345.9;9.50;69961;4850.641;-13024.924;145;-500;-495.0;70;69.7;-19;-18.1;28.7;0.0;
23/07/2019 02:05:36;100;0;105.20;16;-18.21;-5.09;348.3;9.50;69955;4850.641;-13024.924;145;-500;-495.0;70;69.7;-19;-18.1;28.7;0.0;
23/07/2019 02:05:56;100;0;106.21;16;-18.16;-5.10;350.5;9.50;69955;4850.641;-13024.924;145;-500;-493.1;70;69.7;-18;-18.1;28.7;0.0;
23/07/2019 02:06:16;100;0;106.52;16;-18.13;-5.10;352.9;9.50;69945;4850.641;-13024.924;145;-500;-495.0;70;69.7;-19;-19.0;28.6;0.0;
23/07/2019 02:06:36;100;0;105.96;16;-18.11;-5.59;355.1;9.50;69945;4850.641;-13024.924;145;-500;-493.1;70;69.7;-19;-19.0;28.7;0.0;
23/07/2019 02:06:56;100;0;106.21;16;-18.13;-5.61;357.5;9.40;69932;4850.641;-13024.924;145;-500;-495.0;70;69.7;-19;-19.4;28.7;0.0;
23/07/2019 02:07:16;100;0;105.73;16;-18.08;-5.62;359.8;9.40;69933;4850.641;-13024.924;145;-500;-495.0;70;69.7;-19;-19.0;28.7;0.0;
23/07/2019 02:07:36;100;0;106.20;16;-18.01;-5.64;362.0;9.40;69936;4850.641;-13024.924;145;-500;-495.0;70;69.7;-19;-19.0;28.6;0.0;
23/07/2019 02:07:56;100;0;106.37;16;-18.04;-5.64;364.3;9.40;69934;4850.641;-13024.924;145;-500;-493.1;70;69.7;-19;-19.0;28.6;0.0;
23/07/2019 02:08:16;100;0;106.10;16;-17.99;-5.58;366.6;9.40;69923;4850.641;-13024.924;145;-500;-493.1;70;69.7;-19;-19.4;28.7;0.0;
23/07/2019 02:08:36;100;0;106.34;16;-17.92;-5.68;368.9;9.30;69924;4850.641;-13024.924;145;-500;-493.1;70;69.7;-19;-19.4;28.6;0.0;
23/07/2019 02:08:56;100;0;106.62;16;-18.06;-5.67;371.2;9.30;69917;4850.641;-13024.924;145;-500;-497.0;70;69.7;-19;-19.0;28.6;0.0;
23/07/2019 02:09:16;100;0;106.58;16;-18.09;-5.70;373.4;9.30;69915;4850.641;-13024.924;145;-500;-493.1;70;69.7;-19;-19.0;28.7;0.0;
23/07/2019 02:09:36;100;0;107.07;16;-18.03;-5.63;375.6;9.30;69916;4850.641;-13024.924;145;-500;-495.0;70;69.7;-18;-18.1;28.7;0.0;
23/07/2019 02:09:56;100;0;106.18;16;-17.98;-4.84;377.8;9.30;69914;4850.641;-13024.924;145;-500;-495.0;70;69.7;-19;-19.4;28.6;0.0;
23/07/2019 02:10:16;100;0;104.74;16;-17.99;-5.85;380.1;9.30;69922;4850.641;-13024.924;145;-500;-493.1;70;69.7;-20;-19.9;28.6;0.0;
23/07/2019 02:10:36;100;0;104.12;16;-17.91;-5.86;382.5;9.20;69914;4850.641;-13024.924;145;-500;-495.0;70;69.7;-20;-19.9;28.7;0.0;
23/07/2019 02:10:56;100;0;103.72;16;-17.89;-5.89;384.7;9.20;69905;4850.641;-13024.924;145;-500;-493.1;70;69.7;-20;-19.9;28.6;0.0;
23/07/2019 02:11:16;100;0;102.96;16;-17.88;-5.89;387.0;9.20;69914;4850.641;-13024.924;145;-500;-493.1;70;69.7;-20;-19.9;28.7;0.0;
23/07/2019 02:11:36;100;0;102.48;16;-17.85;-5.87;389.3;9.20;69908;4850.641;-13024.924;145;-500;-493.1;70;69.7;-20;-19.9;28.7;0.0;
23/07/2019 02:11:56;100;0;101.70;16;-17.88;-5.88;391.6;9.20;69897;4850.641;-13024.924;145;-500;-491.1;70;69.7;-20;-19.4;28.6;0.0;
23/07/2019 02:12:16;100;0;101.26;16;-17.75;-5.91;393.8;9.20;69906;4850.641;-13024.924;145;-500;-495.0;70;69.7;-20;-19.9;28.6;0.0;
23/07/2019 02:12:36;100;0;99.72;16;-17.87;-5.87;396.0;9.10;69897;4850.641;-13024.924;145;-500;-493.1;70;69.7;-21;-21.7;28.7;0.0;
23/07/2019 02:12:56;100;0;100.24;16;-17.81;-6.93;398.3;9.10;69900;4850.641;-13024.924;145;-500;-493.1;70;69.7;-20;-19.4;28.7;0.0;
23/07/2019 02:13:16;100;0;100.87;16;-17.72;-5.43;400.5;9.10;69890;4850.641;-13024.924;145;-500;-493.1;70;69.7;-20;-19.0;28.7;0.0;
23/07/2019 02:13:36;100;0;99.68;16;-17.84;-5.42;402.8;9.10;69889;4850.641;-13024.924;145;-500;-493.1;70;69.7;-21;-21.2;28.7;0.0;
23/07/2019 02:13:56;100;0;99.95;16;-17.83;-6.86;405.1;9.10;69894;4850.641;-13024.924;145;-500;-493.1;70;69.7;-21;-21.7;28.6;0.0;
23/07/2019 02:14:16;100;0;100.27;16;-17.75;-6.76;407.3;9.10;69888;4850.641;-13024.924;145;-500;-495.0;70;69.7;-20;-19.9;28.6;0.0;
23/07/2019 02:14:36;100;0;99.86;16;-17.85;-5.61;409.5;9.00;69884;4850.641;-13024.924;145;-500;-493.1;70;69.7;-21;-21.2;28.6;0.0;
23/07/2019 02:14:56;100;0;100.93;16;-17.81;-6.74;411.8;9.00;69876;4850.641;-13024.924;145;-500;-493.1;70;69.7;-20;-19.9;28.6;0.0;
23/07/2019 02:15:16;100;0;101.43;16;-17.69;-5.54;414.1;9.00;69869;4850.641;-13024.924;145;-500;-493.1;70;69.7;-19;-19.0;28.7;0.0;
23/07/2019 02:15:36;100;0;101.97;16;-17.77;-5.59;416.3;9.00;69865;4850.641;-13024.924;145;-500;-493.1;70;69.6;-20;-19.9;28.7;0.0;
23/07/2019 02:15:56;100;0;102.37;16;-17.69;-6.09;418.5;9.00;69865;4850.641;-13024.924;145;-500;-493.1;70;69.7;-19;-18.5;28.7;0.0;
23/07/2019 02:16:16;100;0;103.60;16;-17.76;-5.32;420.7;8.90;69862;4850.641;-13024.924;145;-500;-493.1;70;69.7;-19;-18.1;28.7;0.0;
23/07/2019 02:16:36;100;0;104.14;16;-17.45;-5.23;422.9;8.90;69858;4850.641;-13024.924;145;-500;-493.1;70;69.7;-19;-18.5;28.7;0.0;
23/07/2019 02:16:56;100;0;102.68;16;-17.59;-5.16;425.1;8.90;69864;4850.641;-13024.924;145;-500;-493.1;70;69.7;-20;-19.9;28.6;0.0;
23/07/2019 02:17:16;100;0;102.81;16;-17.70;-6.21;427.3;8.90;69861;4850.641;-13024.924;145;-500;-493.1;70;69.7;-20;-20.3;28.6;0.0;
23/07/2019 02:17:36;100;0;103.24;16;-17.71;-6.21;429.5;8.90;69855;4850.641;-13024.924;145;-500;-493.1;70;69.7;-19;-19.0;28.6;0.0;
23/07/2019 02:17:56;100;0;102.22;16;-17.65;-5.20;431.8;8.80;69863;4850.641;-13024.924;145;-500;-493.1;70;69.7;-20;-20.3;28.7;0.0;
23/07/2019 02:18:16;100;0;101.48;16;-17.64;-6.22;434.0;8.80;69861;4850.641;-13024.924;145;-500;-493.1;70;69.7;-20;-20.3;28.6;0.0;
23/07/2019 02:18:36;100;0;101.85;16;-17.63;-6.30;436.3;8.80;69856;4850.641;-13024.924;145;-500;-495.0;70;69.7;-20;-20.3;28.7;0.0;
23/07/2019 02:18:56;100;0;101.86;16;-17.64;-6.22;438.5;8.80;69844;4850.641;-13024.924;145;-500;-493.1;70;69.7;-20;-20.8;28.6;0.0;
23/07/2019 02:19:16;100;0;103.36;16;-17.59;-6.32;440.8;8.80;69847;4850.641;-13024.924;145;-500;-493.1;70;69.7;-19;-19.0;28.6;0.0;
23/07/2019 02:19:36;100;0;102.50;16;-17.51;-5.10;443.2;8.80;69860;4850.641;-13024.924;145;-500;-493.1;70;69.7;-20;-19.9;28.7;0.0;
23/07/2019 02:19:56;100;0;101.67;16;-17.54;-6.18;445.4;8.80;69844;4850.641;-13024.924;145;-500;-493.1;70;69.7;-20;-20.3;28.7;0.0;
23/07/2019 02:20:16;100;0;100.80;16;-17.56;-6.16;447.7;8.80;69844;4850.641;-13024.924;145;-500;-493.1;70;69.7;-21;-21.2;28.7;0.0;
23/07/2019 02:20:36;100;0;99.88;16;-17.63;-6.67;450.0;8.70;69842;4850.641;-13024.924;145;-500;-493.1;70;69.7;-21;-21.2;28.7;0.0;
23/07/2019 02:20:56;100;0;99.94;16;-17.60;-6.75;452.3;8.70;69843;4850.641;-13024.924;145;-500;-493.1;70;69.7;-21;-21.7;28.6;0.0;
23/07/2019 02:21:16;100;0;99.80;16;-17.62;-6.73;454.5;8.70;69841;4850.641;-13024.924;145;-500;-495.0;70;69.7;-20;-19.9;28.7;0.0;
23/07/2019 02:21:36;100;0;99.24;16;-17.56;-5.57;457.0;8.70;69845;4850.641;-13024.924;145;-500;-493.1;70;69.7;-20;-19.0;28.6;0.0;
23/07/2019 02:21:56;100;0;99.55;16;-17.44;-5.59;459.2;8.70;69836;4850.641;-13024.924;145;-500;-493.1;70;69.7;-20;-19.0;28.6;0.0;
23/07/2019 02:22:16;100;0;97.76;16;-17.41;-5.58;461.7;8.70;69837;4850.641;-13024.924;145;-500;-493.1;70;69.7;-21;-21.2;28.7;0.0;
23/07/2019 02:22:36;100;0;97.50;16;-17.40;-6.97;464.1;8.70;69838;4850.641;-13024.924;145;-500;-493.1;70;69.7;-21;-21.7;28.7;0.0;
23/07/2019 02:22:56;100;0;97.59;16;-17.38;-7.00;466.4;8.60;69826;4850.641;-13024.924;145;-500;-493.1;70;69.7;-21;-21.7;28.6;0.0;
23/07/2019 02:23:16;100;0;97.92;16;-17.31;-6.95;468.7;8.60;69832;4850.641;-13024.924;145;-500;-493.1;70;69.7;-21;-21.7;28.6;0.0;
23/07/2019 02:23:37;100;0;99.49;16;-17.02;-6.96;471.2;8.60;69833;4850.641;-13024.924;145;-500;-493.1;70;69.7;-20;-19.4;28.6;0.0;
23/07/2019 02:23:57;100;0;100.49;16;-17.25;-5.46;473.5;8.60;69825;4850.641;-13024.924;145;-500;-493.1;70;69.7;-19;-19.0;28.6;0.0;
23/07/2019 02:24:17;100;0;100.83;16;-17.02;-5.86;475.8;8.60;69825;4850.641;-13024.924;145;-500;-493.1;70;69.7;-20;-19.9;28.6;0.0;
23/07/2019 02:24:37;100;0;101.05;16;-17.15;-6.11;478.2;8.60;69810;4850.641;-13024.924;145;-500;-493.1;70;69.7;-19;-18.5;28.7;0.0;
23/07/2019 02:24:57;100;0;101.56;16;-17.27;-5.39;480.5;8.50;69826;4850.641;-13024.924;145;-500;-493.1;70;69.7;-20;-19.9;28.7;0.0;
23/07/2019 02:25:17;100;0;102.48;16;-16.96;-6.31;482.8;8.50;69815;4850.641;-13024.924;145;-500;-493.1;70;69.6;-19;-19.0;28.6;0.0;
23/07/2019 02:25:37;100;0;102.14;16;-17.22;-5.39;485.1;8.50;69822;4850.641;-13024.924;145;-500;-493.1;70;69.6;-19;-18.5;28.6;0.0;
23/07/2019 02:25:57;100;0;102.13;16;-17.33;-5.40;487.3;8.50;69817;4850.641;-13024.924;145;-500;-493.1;70;69.7;-20;-20.3;28.7;0.0;
23/07/2019 02:26:17;100;0;102.74;16;-17.39;-6.42;489.7;8.50;69824;4850.641;-13024.924;145;-500;-493.1;70;69.7;-20;-20.8;28.6;0.0;
23/07/2019 02:26:37;100;0;103.45;16;-17.08;-6.46;491.8;8.50;69816;4850.641;-13024.924;145;-500;-493.1;70;69.7;-19;-19.0;28.7;0.0;
23/07/2019 02:26:57;100;0;103.55;16;-17.07;-5.22;494.1;8.50;69811;4850.641;-13024.924;145;-500;-493.1;70;69.7;-19;-18.1;28.6;0.0;
23/07/2019 02:27:17;100;0;102.99;16;-17.15;-5.21;496.3;8.40;69803;4850.641;-13024.924;145;-500;-491.1;70;69.6;-20;-20.3;28.7;0.0;
23/07/2019 02:27:37;100;0;103.49;16;-17.26;-6.32;498.4;8.40;69803;4850.641;-13024.924;145;-500;-493.1;70;69.7;-19;-19.0;28.6;0.0;
23/07/2019 02:27:57;100;0;103.59;16;-17.14;-5.48;500.6;8.40;69804;4850.641;-13024.924;145;-500;-493.1;70;69.6;-19;-18.5;28.6;0.0;
23/07/2019 02:28:17;100;0;103.32;16;-17.26;-5.42;502.7;8.40;69791;4850.641;-13024.924;145;-500;-491.1;70;69.7;-19;-18.5;28.6;0.0;
23/07/2019 02:28:37;100;0;102.03;16;-17.20;-5.43;504.9;8.40;69792;4850.641;-13024.924;145;-500;-493.1;70;69.7;-20;-19.9;28.7;0.0;
23/07/2019 02:28:57;100;0;100.79;16;-17.24;-6.12;507.0;8.40;69789;4850.641;-13024.924;145;-500;-491.1;70;69.7;-21;-21.7;28.7;0.0;
23/07/2019 02:29:17;100;0;100.53;16;-17.21;-7.01;509.0;8.40;69794;4850.641;-13024.924;145;-500;-491.1;70;69.7;-21;-21.7;28.7;0.0;
23/07/2019 02:29:37;100;0;101.09;16;-17.22;-7.05;511.1;8.40;69784;4850.641;-13024.924;145;-500;-495.0;70;69.7;-20;-19.9;28.7;0.0;
23/07/2019 02:29:57;100;0;103.00;16;-17.00;-5.85;513.3;8.30;69784;4850.641;-13024.924;145;-500;-491.1;70;69.7;-19;-19.0;28.6;0.0;
23/07/2019 02:30:17;100;0;102.85;16;-16.95;-5.23;515.5;8.30;69788;4850.641;-13024.924;145;-500;-493.1;70;69.7;-20;-19.9;28.7;0.0;
23/07/2019 02:30:37;100;0;102.91;16;-16.96;-6.28;517.6;8.30;69773;4850.641;-13024.924;145;-500;-493.1;70;69.7;-20;-20.3;28.6;0.0;
23/07/2019 02:30:57;100;0;103.48;16;-16.96;-6.33;519.7;8.30;69781;4850.641;-13024.924;145;-500;-493.1;70;69.7;-19;-19.0;28.6;0.0;
23/07/2019 02:31:17;100;0;103.30;16;-16.79;-5.16;521.8;8.30;69779;4850.641;-13024.924;145;-500;-493.1;70;69.6;-19;-18.1;28.6;0.0;
23/07/2019 02:31:37;100;0;103.56;16;-16.95;-5.14;523.9;8.30;69773;4850.641;-13024.924;145;-500;-491.1;70;69.7;-19;-18.1;28.6;0.0;
23/07/2019 02:31:57;100;0;103.20;16;-16.95;-5.12;526.0;8.30;69773;4850.641;-13024.924;145;-500;-493.1;70;69.7;-19;-18.1;28.7;0.0;
23/07/2019 02:32:17;100;0;102.78;16;-16.98;-5.16;528.0;8.30;69773;4850.641;-13024.924;145;-500;-491.1;70;69.7;-20;-19.9;28.7;0.0;
23/07/2019 02:32:37;100;0;103.08;16;-16.98;-6.20;530.1;8.20;69772;4850.641;-13024.924;145;-500;-491.1;70;69.7;-19;-19.0;28.6;0.0;
23/07/2019 02:32:57;100;0;102.10;16;-16.95;-5.35;532.1;8.20;69772;4850.641;-13024.924;145;-500;-491.1;70;69.7;-20;-19.9;28.7;0.0;
23/07/2019 02:33:17;100;0;102.13;16;-17.02;-6.22;534.1;8.20;69764;4850.641;-13024.924;145;-500;-493.1;70;69.7;-20;-20.3;28.6;0.0;
23/07/2019 02:33:37;100;0;101.13;16;-16.91;-6.21;536.1;8.20;69758;4850.641;-13024.924;145;-500;-491.1;70;69.7;-20;-20.3;28.6;0.0;
23/07/2019 02:33:57;100;0;101.07;16;-16.93;-6.26;538.3;8.20;69754;4850.641;-13024.924;145;-500;-493.1;70;69.7;-20;-20.3;28.6;0.0;
23/07/2019 02:34:17;100;0;100.91;16;-16.85;-6.20;540.4;8.20;69750;4850.641;-13024.924;145;-500;-491.1;70;69.7;-21;-21.2;28.7;0.0;
23/07/2019 02:34:37;100;0;100.79;16;-16.79;-6.70;542.4;8.10;69750;4850.641;-13024.924;145;-500;-493.1;70;69.7;-20;-19.9;28.6;0.0;
23/07/2019 02:34:57;100;0;100.05;16;-16.78;-5.52;544.4;8.10;69745;4850.641;-13024.924;145;-500;-493.1;70;69.7;-20;-19.0;28.7;0.0;
23/07/2019 02:35:17;100;0;98.89;16;-16.73;-5.55;546.5;8.10;69749;4850.641;-13024.924;145;-500;-493.1;70;69.7;-21;-21.7;28.6;0.0;
23/07/2019 02:35:37;100;0;100.26;16;-16.78;-7.09;548.7;8.10;69747;4850.641;-13024.924;145;-500;-493.1;70;69.7;-20;-19.4;28.7;0.0;
23/07/2019 02:35:57;100;0;100.75;16;-16.81;-5.58;550.7;8.10;69741;4850.641;-13024.924;145;-500;-491.1;70;69.7;-20;-19.0;28.7;0.0;
23/07/2019 02:36:17;100;0;100.88;16;-16.89;-5.62;552.6;8.10;69732;4850.641;-13024.924;145;-500;-491.1;70;69.7;-20;-19.0;28.7;0.0;
23/07/2019 02:36:37;100;0;101.27;16;-16.91;-5.62;554.8;8.10;69730;4850.641;-13024.924;145;-500;-491.1;70;69.7;-19;-19.0;28.6;0.0;
23/07/2019 02:36:57;100;0;100.97;16;-16.78;-5.55;556.9;8.10;69728;4850.641;-13024.924;145;-500;-491.1;70;69.7;-20;-19.9;28.7;0.0;
23/07/2019 02:37:17;100;0;101.20;16;-16.68;-6.11;558.9;8.00;69729;4850.641;-13024.924;145;-500;-493.1;70;69.7;-20;-19.9;28.6;0.0;
23/07/2019 02:37:37;100;0;101.64;16;-16.72;-6.13;561.0;8.00;69728;4850.641;-13024.924;145;-500;-493.1;70;69.7;-20;-19.9;28.7;0.0;
23/07/2019 02:37:57;100;0;102.53;16;-16.75;-6.14;563.0;8.00;69715;4850.641;-13024.924;145;-500;-491.1;70;69.7;-19;-19.0;28.6;0.0;
23/07/2019 02:38:17;100;0;101.86;16;-16.70;-5.29;565.1;8.00;69724;4850.641;-13024.924;145;-500;-491.1;70;69.6;-20;-19.9;28.6;0.0;
23/07/2019 02:38:37;100;0;102.04;16;-16.71;-6.36;567.3;8.00;69718;4850.641;-13024.924;145;-500;-491.1;70;69.7;-19;-19.0;28.6;0.0;
23/07/2019 02:38:57;100;0;101.97;16;-16.58;-5.29;569.3;8.00;69718;4850.641;-13024.924;145;-500;-493.1;70;69.7;-20;-20.3;28.6;0.0;
23/07/2019 02:39:17;100;0;102.06;16;-16.68;-6.39;571.5;8.00;69711;4850.641;-13024.924;145;-500;-491.1;70;69.7;-19;-19.0;28.7;0.0;
23/07/2019 02:39:37;100;0;101.33;16;-16.62;-5.17;573.6;7.90;69720;4850.641;-13024.924;145;-500;-491.1;70;69.7;-20;-19.9;28.6;0.0;
23/07/2019 02:39:57;100;0;100.55;16;-16.68;-6.30;575.7;7.90;69707;4850.641;-13024.924;145;-500;-491.1;70;69.7;-21;-21.2;28.7;0.0;
23/07/2019 02:40:17;100;0;100.44;16;-16.68;-6.81;577.8;7.90;69729;4850.641;-13024.924;145;-500;-491.1;70;69.7;-20;-19.9;28.6;0.0;
23/07/2019 02:40:37;100;0;99.86;16;-16.53;-5.70;579.8;7.90;69716;4850.641;-13024.924;145;-500;-493.1;70;69.7;-21;-21.2;28.7;0.0;
23/07/2019 02:40:57;100;0;99.79;16;-16.73;-7.05;582.0;7.90;69712;4850.641;-13024.924;145;-500;-493.1;70;69.7;-21;-21.7;28.6;0.0;
23/07/2019 02:41:17;100;0;100.14;16;-16.68;-7.14;584.1;7.90;69714;4850.641;-13024.924;145;-500;-491.1;70;69.7;-20;-19.4;28.6;0.0;
23/07/2019 02:41:37;100;0;99.42;16;-16.57;-5.49;586.2;7.90;69710;4850.641;-13024.924;145;-500;-491.1;70;69.7;-21;-21.2;28.6;0.0;
23/07/2019 02:41:57;100;0;100.02;16;-16.49;-6.90;588.4;7.90;69714;4850.641;-13024.924;145;-500;-491.1;70;69.6;-20;-19.9;28.6;0.0;
23/07/2019 02:42:17;100;0;99.59;16;-16.42;-5.65;590.5;7.90;69711;4850.641;-13024.924;145;-500;-491.1;70;69.7;-21;-21.2;28.6;0.0;
23/07/2019 02:42:37;100;0;99.01;16;-16.50;-6.76;592.8;7.80;69700;4850.641;-13024.924;145;-500;-493.1;70;69.6;-20;-19.4;28.7;0.0;
23/07/2019 02:42:57;100;0;99.31;16;-16.43;-5.64;594.9;7.80;69700;4850.641;-13024.924;145;-500;-493.1;70;69.7;-20;-19.0;28.7;0.0;
23/07/2019 02:43:17;100;0;98.42;16;-16.46;-5.59;597.0;7.80;69698;4850.641;-13024.924;145;-500;-491.1;70;69.7;-21;-21.2;28.7;0.0;
23/07/2019 02:43:37;100;0;100.08;16;-16.30;-7.08;599.1;7.80;69696;4850.641;-13024.924;145;-500;-491.1;70;69.7;-20;-19.9;28.6;0.0;
23/07/2019 02:43:57;100;0;100.32;16;-16.23;-5.63;601.3;7.80;69696;4850.641;-13024.924;145;-500;-491.1;70;69.7;-20;-19.0;28.7;0.0;
23/07/2019 02:44:17;100;0;99.46;16;-16.29;-5.92;603.4;7.80;69690;4850.641;-13024.924;145;-500;-493.1;70;69.6;-21;-21.2;28.6;0.0;
23/07/2019 02:44:37;100;0;99.73;16;-16.27;-6.89;605.5;7.80;69683;4850.641;-13024.924;145;-500;-491.1;70;69.7;-20;-19.9;28.6;0.0;
23/07/2019 02:44:57;100;0;101.00;16;-15.93;-5.49;607.7;7.80;69688;4850.641;-13024.924;145;-500;-491.1;70;69.7;-19;-19.0;28.6;0.0;
23/07/2019 02:45:17;100;0;98.61;16;-16.20;-5.29;610.0;7.70;69697;4850.641;-13024.924;145;-500;-491.1;70;69.7;-21;-21.2;28.6;0.0;
23/07/2019 02:45:37;100;0;99.41;16;-16.23;-6.87;612.2;7.70;69689;4850.641;-13024.924;145;-500;-491.1;70;69.7;-20;-19.9;28.6;0.0;
23/07/2019 02:45:57;100;0;98.62;16;-16.40;-5.86;614.4;7.70;69689;4850.641;-13024.924;145;-500;-489.1;70;69.7;-21;-21.2;28.7;0.0;
23/07/2019 02:46:17;100;0;99.13;16;-16.15;-7.01;616.6;7.70;69685;4850.641;-13024.924;145;-500;-491.1;70;69.7;-20;-19.4;28.7;0.0;
23/07/2019 02:46:37;100;0;98.97;16;-16.27;-5.56;618.7;7.70;69680;4850.641;-13024.924;145;-500;-491.1;70;69.7;-21;-21.2;28.7;0.0;
23/07/2019 02:46:57;100;0;99.58;16;-16.06;-6.95;620.9;7.70;69673;4850.641;-13024.924;145;-500;-491.1;70;69.7;-20;-19.9;28.6;0.0;
23/07/2019 02:47:17;100;0;100.72;16;-16.15;-5.75;623.0;7.70;69667;4850.641;-13024.924;145;-500;-491.1;70;69.7;-20;-19.0;28.7;0.0;
23/07/2019 02:47:37;100;0;100.26;16;-15.93;-5.75;625.1;7.70;69676;4850.641;-13024.924;145;-500;-491.1;70;69.6;-20;-19.4;28.7;0.0;
23/07/2019 02:47:57;100;0;100.82;16;-16.10;-5.78;627.2;7.70;69679;4850.641;-13024.924;145;-500;-491.1;70;69.7;-20;-19.4;28.7;0.0;
23/07/2019 02:48:17;100;0;100.63;16;-16.16;-5.74;629.2;7.60;69671;4850.641;-13024.924;145;-500;-491.1;70;69.7;-20;-19.0;28.7;0.0;
23/07/2019 02:48:37;100;0;100.71;16;-16.36;-5.81;631.4;7.60;69673;4850.641;-13024.924;145;-500;-491.1;70;69.7;-20;-19.4;28.6;0.0;
23/07/2019 02:48:57;100;0;101.28;16;-16.21;-5.80;633.5;7.60;69667;4850.641;-13024.924;145;-500;-489.1;70;69.7;-20;-19.0;28.6;0.0;
23/07/2019 02:49:17;100;0;100.97;16;-16.31;-5.80;635.4;7.60;69658;4850.641;-13024.924;145;-500;-491.1;70;69.7;-20;-19.0;28.6;0.0;
23/07/2019 02:49:37;100;0;100.58;16;-16.26;-5.76;637.5;7.60;69659;4850.641;-13024.924;145;-500;-491.1;70;69.7;-20;-19.4;28.6;0.0;
23/07/2019 02:49:57;100;0;100.21;16;-16.17;-5.73;639.6;7.60;69661;4850.641;-13024.924;145;-500;-491.1;70;69.7;-20;-19.4;28.7;0.0;
23/07/2019 02:50:17;100;0;99.64;16;-16.10;-5.77;641.7;7.50;69664;4850.641;-13024.924;145;-500;-491.1;70;69.7;-21;-21.2;28.7;0.0;
23/07/2019 02:50:37;100;0;100.17;16;-16.22;-6.86;643.7;7.50;69658;4850.641;-13024.924;145;-500;-491.1;70;69.6;-20;-19.9;28.7;0.0;
23/07/2019 02:50:57;100;0;99.92;16;-16.28;-5.69;645.8;7.50;69656;4850.641;-13024.924;145;-500;-491.1;70;69.7;-21;-21.2;28.6;0.0;
23/07/2019 02:51:17;100;0;99.73;16;-16.21;-7.09;647.8;7.50;69657;4850.641;-13024.924;145;-500;-491.1;70;69.7;-20;-19.9;28.6;0.0;
23/07/2019 02:51:37;100;0;99.08;16;-16.10;-5.61;649.9;7.50;69659;4850.641;-13024.924;145;-500;-491.1;70;69.7;-20;-18.5;28.7;0.0;
23/07/2019 02:51:57;100;0;98.73;16;-15.93;-5.56;651.9;7.50;69650;4850.641;-13024.924;145;-500;-491.1;70;69.7;-21;-21.2;28.6;0.0;
23/07/2019 02:52:17;100;0;99.14;16;-16.04;-7.01;654.0;7.50;69648;4850.641;-13024.924;145;-500;-491.1;70;69.7;-20;-19.4;28.6;0.0;
23/07/2019 02:52:37;100;0;98.92;16;-15.87;-5.48;656.0;7.50;69664;4850.641;-13024.924;145;-500;-491.1;70;69.6;-21;-21.2;28.7;0.0;
23/07/2019 02:52:57;100;0;98.68;16;-15.95;-6.89;658.0;7.50;69651;4850.641;-13024.924;145;-500;-491.1;70;69.7;-21;-21.2;28.7;0.0;
23/07/2019 02:53:17;100;0;98.95;16;-16.00;-6.89;660.1;7.50;69643;4850.641;-13024.924;145;-500;-489.1;70;69.7;-21;-21.2;28.6;0.0;
23/07/2019 02:53:37;100;0;98.82;16;-15.90;-6.86;662.2;7.40;69655;4850.641;-13024.924;145;-500;-491.1;70;69.7;-21;-21.2;28.7;0.0;
23/07/2019 02:53:57;100;0;99.08;16;-15.94;-6.90;664.2;7.40;69640;4850.641;-13024.924;145;-500;-493.1;70;69.6;-20;-19.9;28.7;0.0;
23/07/2019 02:54:17;100;0;99.23;16;-15.94;-5.69;666.3;7.40;69655;4850.641;-13024.924;145;-500;-491.1;70;69.7;-20;-19.0;28.6;0.0;
23/07/2019 02:54:37;100;0;98.58;16;-15.97;-5.72;668.2;7.40;69640;4850.641;-13024.924;145;-500;-491.1;70;69.7;-21;-21.2;28.6;0.0;
23/07/2019 02:54:57;100;0;99.85;16;-16.03;-7.05;670.2;7.40;69645;4850.641;-13024.924;145;-500;-491.1;70;69.7;-20;-19.4;28.6;0.0;
23/07/2019 02:55:17;100;0;100.36;16;-15.99;-5.63;672.2;7.40;69639;4850.641;-13024.924;145;-500;-491.1;70;69.7;-20;-18.5;28.7;0.0;
23/07/2019 02:55:37;100;0;100.46;16;-15.92;-5.67;674.2;7.40;69629;4850.641;-13024.924;145;-500;-491.1;70;69.7;-20;-19.0;28.6;0.0;
23/07/2019 02:55:57;100;0;100.96;16;-15.91;-5.64;676.2;7.40;69640;4850.641;-13024.924;145;-500;-491.1;70;69.7;-20;-19.0;28.6;0.0;
23/07/2019 02:56:17;100;0;100.23;16;-15.67;-5.52;678.1;7.40;69633;4850.641;-13024.924;145;-500;-491.1;70;69.7;-20;-19.0;28.7;0.0;
23/07/2019 02:56:37;100;0;100.32;16;-15.70;-5.61;680.1;7.30;69626;4850.641;-13024.924;145;-500;-491.1;70;69.7;-20;-18.5;28.6;0.0;
23/07/2019 02:56:57;100;0;99.74;16;-15.69;-5.57;682.0;7.30;69620;4850.641;-13024.924;145;-500;-489.1;70;69.7;-21;-21.2;28.6;0.0;
23/07/2019 02:57:17;100;0;99.97;16;-15.66;-6.92;684.0;7.30;69621;4850.641;-13024.924;145;-500;-491.1;70;69.7;-20;-19.9;28.7;0.0;
23/07/2019 02:57:37;100;0;100.18;16;-15.55;-5.80;685.9;7.30;69612;4850.641;-13024.924;145;-500;-491.1;70;69.7;-20;-19.4;28.6;0.0;
23/07/2019 02:57:58;100;0;99.39;16;-15.70;-5.79;687.8;7.30;69620;4850.641;-13024.924;145;-500;-491.1;70;69.7;-21;-21.2;28.6;0.0;
23/07/2019 02:58:18;100;0;99.91;16;-15.83;-6.84;689.8;7.30;69617;4850.641;-13024.924;145;-500;-491.1;70;69.7;-20;-19.9;28.6;0.0;
23/07/2019 02:58:38;100;0;99.03;16;-15.71;-5.69;691.6;7.30;69619;4850.641;-13024.924;145;-500;-489.1;70;69.7;-20;-19.0;28.7;0.0;
23/07/2019 02:58:58;100;0;98.16;16;-15.80;-5.72;693.5;7.20;69612;4850.641;-13024.924;145;-500;-491.1;70;69.6;-21;-21.7;28.7;0.0;
23/07/2019 02:59:18;100;0;98.02;16;-15.77;-7.14;695.3;7.20;69613;4850.641;-13024.924;145;-500;-491.1;70;69.7;-21;-22.1;28.6;0.0;
23/07/2019 02:59:38;100;0;98.53;16;-15.60;-7.09;697.2;7.20;69616;4850.641;-13024.924;145;-500;-491.1;70;69.7;-21;-22.1;28.6;0.0;
23/07/2019 02:59:58;100;0;99.36;16;-15.58;-7.14;699.0;7.20;69611;4850.641;-13024.924;145;-500;-491.1;70;69.7;-20;-19.9;28.7;0.0;
23/07/2019 03:00:18;118;0;98.95;16;-15.43;-5.64;700.9;7.20;69620;4850.641;-13024.924;145;150;-477.2;57;56.8;0;0.5;28.6;0.0;
23/07/2019 03:00:28;118;0;95.75;16;1.84;3.38;701.6;7.20;69522;4850.641;-13024.924;145;150;-316.8;57;57.1;0;0.5;27.4;0.0;
23/07/2019 03:00:38;118;0;91.43;16;16.08;3.18;701.5;7.20;69313;4850.641;-13024.924;145;150;-164.4;57;56.9;0;0.5;27.3;-1.0;
23/07/2019 03:00:48;118;0;90.54;16;19.80;3.23;700.8;7.20;69050;4850.641;-13024.924;145;150;-9.9;57;56.9;0;0.5;27.5;-1.0;
23/07/2019 03:00:58;118;0;90.31;16;19.88;3.28;699.9;7.20;68812;4850.641;-13024.924;145;150;146.5;57;56.9;0;0.5;27.4;-1.0;
23/07/2019 03:01:08;118;0;90.18;16;22.17;3.35;698.5;7.20;68562;4850.641;-13024.924;145;150;156.4;57;56.9;0;0.5;27.3;-1.0;
23/07/2019 03:01:18;118;0;104.65;16;24.50;3.25;696.7;7.20;68566;4850.641;-13024.924;145;150;156.4;57;56.9;0;0.5;28.6;-1.0;
23/07/2019 03:01:28;117;0;104.20;16;25.49;3.32;694.4;7.20;68567;4850.641;-13024.924;145;150;158.4;57;56.9;0;0.5;28.6;-1.0;
23/07/2019 03:01:48;117;0;102.46;16;26.38;3.15;689.4;7.20;68564;4850.641;-13024.924;145;150;158.4;57;56.9;18;18.1;28.6;-1.0;
23/07/2019 03:02:08;117;0;106.53;16;26.26;12.02;683.5;7.20;68560;4850.641;-13024.924;145;150;158.4;57;56.9;17;16.7;28.6;-1.0;
23/07/2019 03:02:28;117;0;109.90;16;26.04;10.57;678.0;7.20;68563;4850.641;-13024.924;145;150;158.4;57;56.9;16;15.3;28.6;-1.0;
23/07/2019 03:02:48;117;0;112.17;16;26.15;9.90;672.8;7.20;68551;4850.641;-13024.924;145;150;158.4;57;56.9;16;15.3;28.6;-1.0;
23/07/2019 03:03:08;117;0;112.41;16;26.64;9.85;667.2;7.20;68556;4850.641;-13024.924;145;150;158.4;57;56.9;17;17.6;28.6;-1.0;
23/07/2019 03:03:28;117;0;114.55;16;26.52;11.51;661.6;7.20;68560;4850.641;-13024.924;145;150;160.4;57;56.9;16;15.8;28.6;-1.0;
23/07/2019 03:03:48;117;0;117.17;16;26.19;10.09;656.1;7.20;68567;4850.641;-13024.924;145;150;158.4;57;56.9;15;14.9;28.7;-1.0;
23/07/2019 03:04:08;117;0;120.03;16;26.00;9.49;650.8;7.20;68568;4850.641;-13024.924;145;150;158.4;57;56.9;14;14.0;28.6;-1.0;
23/07/2019 03:04:28;117;0;123.74;16;25.81;9.19;645.3;7.20;68558;4850.641;-13024.924;145;150;158.4;57;56.9;13;13.1;28.6;-1.0;
23/07/2019 03:04:48;117;0;126.39;16;26.00;8.52;639.9;7.20;68554;4850.641;-13024.924;145;150;158.4;57;56.9;13;12.6;28.6;-1.0;
23/07/2019 03:05:08;117;0;127.25;16;26.21;8.58;634.6;7.20;68563;4850.641;-13024.924;145;150;160.4;57;56.9;13;12.2;28.7;-1.0;
23/07/2019 03:05:28;117;0;127.02;16;26.36;8.55;629.1;7.20;68555;4850.641;-13024.924;145;150;160.4;57;56.9;14;14.0;28.6;-1.0;
23/07/2019 03:05:48;117;0;128.29;16;26.14;9.68;623.7;7.10;68556;4850.641;-13024.924;145;150;158.4;57;56.9;14;14.9;28.6;-1.0;
23/07/2019 03:06:08;117;0;129.00;16;25.83;9.87;618.5;7.10;68550;4850.641;-13024.924;145;150;158.4;57;56.9;14;14.9;28.6;-1.0;
23/07/2019 03:06:28;117;0;130.85;16;25.56;9.80;613.3;7.10;68562;4850.641;-13024.924;145;150;158.4;57;56.9;14;14.9;28.7;-1.0;
23/07/2019 03:06:48;117;0;133.70;16;25.20;10.23;608.2;7.10;68567;4850.641;-13024.924;145;150;160.4;57;57.1;12;11.7;28.6;-1.0;
23/07/2019 03:07:08;117;0;134.95;16;25.70;7.75;603.2;7.10;68565;4850.641;-13024.924;145;150;158.4;57;56.9;12;11.3;28.7;-1.0;
23/07/2019 03:07:28;117;0;134.70;16;25.28;8.20;598.3;7.10;68556;4850.641;-13024.924;145;150;160.4;57;56.9;12;11.3;28.7;-1.0;
23/07/2019 03:07:48;117;0;135.69;16;25.57;7.99;593.4;7.10;68573;4850.641;-13024.924;145;150;158.4;57;56.9;12;11.3;28.6;-1.0;
23/07/2019 03:08:08;117;0;137.17;16;25.40;8.00;588.4;7.10;68564;4850.641;-13024.924;145;150;158.4;57;56.9;11;10.8;28.6;-1.0;
23/07/2019 03:08:28;117;0;137.20;16;25.53;7.53;583.4;7.10;68561;4850.641;-13024.924;145;150;160.4;57;56.9;11;9.9;28.6;-1.0;
23/07/2019 03:08:48;117;0;139.26;16;25.36;7.44;578.5;7.10;68571;4850.641;-13024.924;145;150;160.4;57;56.9;10;9.9;28.6;-1.0;
23/07/2019 03:09:08;117;0;139.72;16;25.48;7.47;573.6;7.10;68579;4850.641;-13024.924;145;150;160.4;57;56.9;10;9.9;28.6;-1.0;
23/07/2019 03:09:28;117;0;140.13;16;25.65;7.56;568.7;7.10;68574;4850.641;-13024.924;145;150;160.4;57;56.9;9;8.6;28.6;-1.0;
23/07/2019 03:09:48;117;0;137.61;16;25.59;6.72;563.9;7.10;68558;4850.641;-13024.924;145;150;160.4;57;56.9;11;11.3;28.7;-1.0;
23/07/2019 03:10:08;117;0;137.07;16;25.69;8.30;559.0;7.10;68567;4850.641;-13024.924;145;150;158.4;57;56.9;10;9.9;28.7;-1.0;
23/07/2019 03:10:28;117;0;135.74;16;25.73;7.24;554.1;7.10;68558;4850.641;-13024.924;145;150;158.4;57;56.9;11;10.8;28.7;-1.0;
23/07/2019 03:10:48;117;0;137.36;16;25.26;8.43;549.2;7.10;68563;4850.641;-13024.924;145;150;160.4;57;56.9;9;8.6;28.6;-1.0;
23/07/2019 03:11:08;117;0;137.43;16;25.12;6.73;544.3;7.10;68568;4850.641;-13024.924;145;150;160.4;57;56.9;9;8.1;28.6;-1.0;
23/07/2019 03:11:28;117;0;138.90;16;25.12;6.62;539.7;7.10;68563;4850.641;-13024.924;145;150;160.4;57;56.9;8;8.1;28.7;-1.0;
23/07/2019 03:11:48;117;0;138.94;16;25.15;6.62;534.9;7.10;68571;4850.641;-13024.924;145;150;160.4;57;56.9;8;8.1;28.6;-1.0;
23/07/2019 03:12:08;117;0;138.18;16;25.15;6.70;530.1;7.10;68586;4850.641;-13024.924;145;150;160.4;57;56.9;7;7.2;28.7;-1.0;
23/07/2019 03:12:28;117;0;136.10;16;25.33;5.89;525.4;7.10;68572;4850.641;-13024.924;145;150;160.4;57;56.9;8;8.6;28.6;-1.0;
23/07/2019 03:12:48;117;0;135.20;16;25.03;7.17;520.6;7.10;68575;4850.641;-13024.924;145;150;160.4;57;56.9;8;9.0;28.7;-1.0;
23/07/2019 03:13:08;117;0;133.45;16;25.07;7.27;516.0;7.10;68583;4850.641;-13024.924;145;150;160.4;57;56.9;9;9.0;28.6;-1.0;
23/07/2019 03:13:28;117;0;133.23;16;24.93;7.23;511.3;7.10;68592;4850.641;-13024.924;145;150;160.4;57;56.9;8;8.1;28.7;-1.0;
23/07/2019 03:13:48;117;0;134.61;16;24.74;6.52;506.7;7.10;68581;4850.641;-13024.924;145;150;160.4;57;56.9;7;6.8;28.7;-1.0;
23/07/2019 03:14:08;117;0;133.87;16;25.03;5.96;501.9;7.10;68583;4850.641;-13024.924;145;150;160.4;57;56.9;8;8.1;28.6;-1.0;
23/07/2019 03:14:28;117;0;132.28;16;25.05;7.09;497.2;7.10;68591;4850.641;-13024.924;145;150;160.4;57;56.9;8;8.6;28.6;-1.0;
23/07/2019 03:14:48;117;0;130.60;16;24.86;7.02;492.4;7.10;68600;4850.641;-13024.924;145;150;160.4;57;56.9;9;9.0;28.6;-1.0;
23/07/2019 03:15:08;117;0;130.62;16;24.86;7.66;487.9;7.10;68591;4850.641;-13024.924;145;150;160.4;57;56.9;8;8.1;28.6;-1.0;
23/07/2019 03:15:28;117;0;129.04;16;24.70;6.46;483.3;7.10;68599;4850.641;-13024.924;145;150;160.4;57;56.9;8;7.7;28.6;-1.0;
23/07/2019 03:15:48;117;0;128.21;16;24.60;6.54;478.7;7.10;68598;4850.641;-13024.924;145;150;158.4;57;56.9;8;7.7;28.6;-1.0;
23/07/2019 03:16:08;117;0;129.46;16;24.31;6.50;474.1;7.10;68599;4850.641;-13024.924;145;150;160.4;57;56.9;8;7.7;28.7;-1.0;
23/07/2019 03:16:28;117;0;129.22;16;24.55;6.51;469.5;7.10;68609;4850.641;-13024.924;145;150;158.4;57;56.9;8;7.7;28.6;-1.0;
23/07/2019 03:16:48;117;0;128.08;16;24.51;6.57;464.9;7.10;68599;4850.641;-13024.924;145;150;160.4;57;56.9;8;7.7;28.6;-1.0;
23/07/2019 03:17:08;117;0;129.16;16;24.43;6.51;460.2;7.10;68595;4850.641;-13024.924;145;150;160.4;57;56.9;8;7.7;28.6;-1.0;
23/07/2019 03:17:28;117;0;129.92;16;24.32;6.49;455.6;7.10;68606;4850.641;-13024.924;145;150;160.4;57;56.9;8;7.7;28.6;-1.0;
23/07/2019 03:17:48;117;0;131.26;16;24.31;6.51;451.0;7.10;68608;4850.641;-13024.924;145;150;160.4;57;56.9;8;7.7;28.6;-1.0;
23/07/2019 03:18:08;117;0;132.50;16;24.22;6.52;446.5;7.20;68609;4850.641;-13024.924;145;150;160.4;57;56.9;6;5.9;28.7;-1.0;
23/07/2019 03:18:28;117;0;132.76;16;24.40;5.32;441.9;7.20;68615;4850.641;-13024.924;145;150;160.4;57;56.9;6;5.4;28.6;-1.0;
23/07/2019 03:18:48;117;0;131.05;16;24.47;5.29;437.2;7.20;68609;4850.641;-13024.924;145;150;160.4;57;56.9;7;7.2;28.6;-1.0;
23/07/2019 03:19:08;117;0;129.31;16;24.26;6.68;432.5;7.20;68615;4850.641;-13024.924;145;150;160.4;57;56.9;7;7.7;28.6;-1.0;
23/07/2019 03:19:28;117;0;127.38;16;24.20;6.69;428.0;7.20;68616;4850.641;-13024.924;145;150;160.4;57;56.9;7;7.7;28.6;-1.0;
23/07/2019 03:19:48;117;0;126.01;16;24.34;6.66;423.5;7.20;68616;4850.641;-13024.924;145;150;160.4;57;56.9;7;7.7;28.7;-1.0;
23/07/2019 03:20:08;117;0;125.90;16;24.21;6.65;418.8;7.20;68616;4850.641;-13024.924;145;150;158.4;57;56.9;9;9.0;28.6;-1.0;
23/07/2019 03:20:28;117;0;126.95;16;24.03;7.45;414.2;7.20;68619;4850.641;-13024.924;145;150;160.4;57;56.9;8;8.1;28.6;-1.0;
23/07/2019 03:20:48;117;0;127.74;16;24.07;6.31;409.6;7.20;68621;4850.641;-13024.924;145;150;160.4;57;56.9;8;7.2;28.7;-1.0;
23/07/2019 03:21:08;117;0;126.43;16;24.08;6.38;404.9;7.20;68633;4850.641;-13024.924;145;150;160.4;57;57.1;8;7.2;28.6;-1.0;
23/07/2019 03:21:28;117;0;127.82;16;23.90;6.34;400.4;7.20;68630;4850.641;-13024.924;145;150;160.4;57;56.9;8;7.2;28.7;-1.0;
23/07/2019 03:21:48;117;0;128.42;16;23.89;6.40;395.8;7.20;68636;4850.641;-13024.924;145;150;160.4;57;56.9;8;7.2;28.7;-1.0;
23/07/2019 03:22:08;117;0;129.37;16;23.86;6.33;391.2;7.20;68627;4850.641;-13024.924;145;150;160.4;57;56.9;8;7.2;28.6;-1.0;
23/07/2019 03:22:28;117;0;129.54;16;23.80;6.37;386.6;7.20;68629;4850.641;-13024.924;145;150;160.4;57;56.9;8;7.2;28.6;-1.0;
23/07/2019 03:22:48;117;0;130.57;16;23.73;6.38;382.1;7.20;68634;4850.641;-13024.924;145;150;158.4;57;56.9;8;7.2;28.6;-1.0;
23/07/2019 03:23:08;117;0;130.76;16;23.82;6.37;377.4;7.20;68636;4850.641;-13024.924;145;150;160.4;57;56.9;8;7.2;28.6;-1.0;
23/07/2019 03:23:28;117;0;129.46;16;23.94;6.31;372.8;7.30;68640;4850.641;-13024.924;145;150;160.4;57;56.9;8;7.2;28.6;-1.0;
23/07/2019 03:23:48;117;0;128.68;16;23.88;6.31;368.1;7.30;68646;4850.641;-13024.924;145;150;160.4;57;56.9;8;7.2;28.6;-1.0;
23/07/2019 03:24:08;117;0;127.56;16;23.82;6.39;363.5;7.30;68651;4850.641;-13024.924;145;150;160.4;57;56.9;8;7.2;28.6;-1.0;
23/07/2019 03:24:28;117;0;126.58;16;23.79;6.35;358.8;7.30;68648;4850.641;-13024.924;145;150;160.4;57;56.9;8;7.2;28.6;-1.0;
23/07/2019 03:24:48;117;0;125.66;16;23.74;6.36;354.1;7.30;68650;4850.641;-13024.924;145;150;160.4;57;56.9;9;9.0;28.7;-1.0;
23/07/2019 03:25:08;117;0;126.51;16;23.38;7.66;349.6;7.30;68638;4850.641;-13024.924;145;150;160.4;57;56.9;8;7.7;28.6;-1.0;
23/07/2019 03:25:28;117;0;124.41;16;23.63;6.49;345.0;7.30;68656;4850.641;-13024.924;145;150;160.4;57;56.9;10;10.4;28.6;-1.0;
23/07/2019 03:25:48;117;0;123.84;16;23.52;8.17;340.3;7.30;68656;4850.641;-13024.924;145;150;160.4;57;56.9;10;10.8;28.6;-1.0;
23/07/2019 03:26:08;117;0;124.12;16;23.40;8.20;335.8;7.30;68642;4850.641;-13024.924;145;150;160.4;57;56.9;9;9.0;28.6;-1.0;
23/07/2019 03:26:28;117;0;125.44;16;23.18;7.02;331.2;7.30;68662;4850.641;-13024.924;145;150;162.4;57;56.9;9;8.6;28.6;-1.0;
23/07/2019 03:26:48;117;0;126.35;16;23.20;6.99;326.6;7.40;68664;4850.641;-13024.924;145;150;160.4;57;56.9;9;8.6;28.6;-1.0;
23/07/2019 03:27:08;117;0;126.98;16;23.13;7.02;322.1;7.40;68666;4850.641;-13024.924;145;150;160.4;57;56.9;9;8.6;28.6;-1.0;
23/07/2019 03:27:28;117;0;129.28;16;22.96;7.01;317.6;7.30;68661;4850.641;-13024.924;145;150;160.4;57;56.9;9;8.6;28.7;-1.0;
23/07/2019 03:27:48;117;0;133.05;16;22.85;7.05;313.1;7.40;68665;4850.641;-13024.924;145;150;160.4;57;56.9;6;5.4;28.7;-1.0;
23/07/2019 03:28:08;117;0;132.28;16;23.05;5.32;308.6;7.40;68655;4850.641;-13024.924;145;150;160.4;57;56.9;7;7.2;28.6;-1.0;
23/07/2019 03:28:28;117;0;131.16;16;23.14;6.70;304.1;7.40;68655;4850.641;-13024.924;145;150;160.4;57;56.9;8;8.1;28.7;-1.0;
23/07/2019 03:28:48;117;0;130.79;16;23.30;7.11;299.5;7.40;68669;4850.641;-13024.924;145;150;160.4;57;56.9;9;9.0;28.6;-1.0;
23/07/2019 03:29:08;117;0;131.07;16;23.15;7.65;294.9;7.40;68677;4850.641;-13024.924;145;150;160.4;57;56.9;8;8.1;28.6;-1.0;
23/07/2019 03:29:28;117;0;130.68;16;22.99;6.47;290.2;7.40;68663;4850.641;-13024.924;145;150;160.4;57;56.9;8;7.7;28.6;-1.0;
23/07/2019 03:29:49;117;0;130.90;16;22.87;6.52;285.7;7.40;68667;4850.641;-13024.924;145;150;162.4;57;56.9;8;7.7;28.7;-1.0;
23/07/2019 03:30:09;117;0;131.95;16;22.70;6.59;281.3;7.40;68671;4850.641;-13024.924;145;150;160.4;57;56.9;8;7.7;28.7;-1.0;
23/07/2019 03:30:29;117;0;132.91;16;22.81;6.52;276.9;7.40;68671;4850.641;-13024.924;145;150;160.4;57;56.9;7;7.2;28.6;-1.0;
23/07/2019 03:30:49;117;0;132.14;16;22.95;6.52;272.4;7.50;68661;4850.641;-13024.924;145;150;160.4;57;56.9;7;7.7;28.6;-1.0;
23/07/2019 03:31:09;117;0;130.79;16;22.96;6.47;267.9;7.50;68664;4850.641;-13024.924;145;150;160.4;57;56.9;8;8.6;28.6;-1.0;
23/07/2019 03:31:29;117;0;130.59;16;22.85;7.19;263.3;7.50;68683;4850.641;-13024.924;145;150;160.4;57;56.9;8;8.6;28.6;-1.0;
23/07/2019 03:31:49;117;0;130.35;16;22.91;7.24;258.8;7.50;68669;4850.641;-13024.924;145;150;160.4;57;56.9;8;9.0;28.6;-1.0;
23/07/2019 03:32:09;117;0;129.88;16;22.96;7.22;254.2;7.50;68678;4850.641;-13024.924;145;150;160.4;57;56.9;8;8.6;28.6;-1.0;
23/07/2019 03:32:29;117;0;130.09;16;22.70;7.25;249.7;7.50;68681;4850.641;-13024.924;145;150;162.4;57;56.9;8;9.0;28.7;-1.0;
23/07/2019 03:32:49;117;0;131.75;16;22.36;7.19;245.1;7.50;68673;4850.641;-13024.924;145;150;160.4;57;56.9;8;9.0;28.6;-1.0;
23/07/2019 03:33:09;117;0;135.02;16;22.09;7.32;240.8;7.50;68684;4850.641;-13024.924;145;150;160.4;57;56.9;5;5.0;28.6;-1.0;
23/07/2019 03:33:29;117;0;134.22;16;22.56;5.09;236.5;7.50;68687;4850.641;-13024.924;145;150;160.4;57;56.9;6;5.9;28.6;-1.0;
23/07/2019 03:33:49;117;0;133.96;16;22.61;6.22;232.0;7.50;68689;4850.641;-13024.924;145;150;158.4;57;56.9;7;7.2;28.6;-1.0;
23/07/2019 03:34:09;117;0;133.44;16;22.64;6.83;227.5;7.60;68686;4850.641;-13024.924;145;150;160.4;57;56.9;6;5.4;28.7;-1.0;
23/07/2019 03:34:29;117;0;132.73;16;22.58;5.31;223.0;7.60;68690;4850.641;-13024.924;145;150;160.4;57;56.9;7;7.2;28.6;-1.0;
23/07/2019 03:34:49;117;0;133.10;16;22.40;6.74;218.6;7.60;68690;4850.641;-13024.924;145;150;160.4;57;56.9;6;5.9;28.6;-1.0;
23/07/2019 03:35:09;117;0;133.36;16;22.28;5.53;214.3;7.60;68697;4850.641;-13024.924;145;150;160.4;57;56.9;6;5.4;28.6;-1.0;
23/07/2019 03:35:29;117;0;132.89;16;22.24;5.57;210.0;7.60;68690;4850.641;-13024.924;145;150;160.4;57;56.9;6;5.4;28.7;-1.0;
23/07/2019 03:35:49;117;0;133.63;16;22.30;5.56;205.7;7.60;68698;4850.641;-13024.924;145;150;160.4;57;56.9;5;5.0;28.6;-1.0;
23/07/2019 03:36:09;117;0;133.23;16;22.39;5.03;201.6;7.60;68706;4850.641;-13024.924;145;150;160.4;57;56.9;5;4.5;28.6;-1.0;
23/07/2019 03:36:29;117;0;131.29;16;22.45;5.13;197.2;7.60;68706;4850.641;-13024.924;145;150;162.4;57;56.9;6;5.9;28.6;-1.0;
23/07/2019 03:36:49;117;0;130.56;16;22.36;6.18;193.1;7.60;68699;4850.641;-13024.924;145;150;160.4;57;56.9;7;7.7;28.6;-1.0;
23/07/2019 03:37:09;117;0;132.44;16;21.99;6.98;188.9;7.70;68701;4850.641;-13024.924;145;150;160.4;57;56.9;5;5.0;28.6;-1.0;
23/07/2019 03:37:29;117;0;133.11;16;21.96;5.03;184.9;7.70;68706;4850.641;-13024.924;145;150;160.4;57;56.9;4;3.6;28.6;-1.0;
23/07/2019 03:37:49;117;0;132.35;16;22.02;4.49;180.9;7.70;68702;4850.641;-13024.924;145;150;160.4;57;56.9;5;5.4;28.6;-1.0;
23/07/2019 03:38:09;117;0;130.85;16;22.16;5.83;176.9;7.70;68708;4850.641;-13024.924;145;150;162.4;57;57.1;6;5.9;28.6;-1.0;
23/07/2019 03:38:29;117;0;128.05;16;22.33;5.78;172.8;7.70;68712;4850.641;-13024.924;145;150;160.4;57;56.9;6;5.9;28.6;-1.0;
23/07/2019 03:38:49;117;0;124.91;16;22.27;5.81;168.8;7.70;68706;4850.641;-13024.924;145;150;160.4;57;56.9;8;8.1;28.6;-1.0;
23/07/2019 03:39:09;117;0;123.74;16;22.19;7.21;164.8;7.70;68719;4850.641;-13024.924;145;150;160.4;57;56.9;8;8.6;28.6;-1.0;
23/07/2019 03:39:29;117;0;125.01;16;21.75;7.27;160.8;7.70;68727;4850.641;-13024.924;145;150;160.4;57;56.9;7;7.2;28.7;-1.0;
23/07/2019 03:39:49;117;0;126.77;16;21.57;6.19;156.9;7.80;68730;4850.641;-13024.924;145;150;160.4;57;56.9;6;5.9;28.6;-1.0;
23/07/2019 03:40:09;117;0;128.56;16;21.36;5.62;153.3;7.80;68727;4850.641;-13024.924;145;150;160.4;57;56.9;6;5.4;28.6;-1.0;
23/07/2019 03:40:29;117;0;131.84;16;21.46;5.49;149.7;7.80;68732;4850.641;-13024.924;145;150;160.4;57;56.9;6;5.4;28.6;-1.0;
23/07/2019 03:40:49;117;0;135.27;16;21.00;5.70;146.1;7.80;68728;4850.641;-13024.924;145;150;160.4;57;56.9;3;3.2;28.6;-1.0;
23/07/2019 03:41:09;117;0;138.30;16;20.86;4.25;142.6;7.80;68734;4850.641;-13024.924;145;150;160.4;57;56.9;1;0.9;28.6;-1.0;
23/07/2019 03:41:29;117;0;137.81;16;20.98;3.19;139.2;7.80;68750;4850.641;-13024.924;145;150;160.4;57;56.9;3;3.2;28.7;-1.0;
23/07/2019 03:41:49;117;0;137.62;16;21.10;4.80;135.7;7.80;68752;4850.641;-13024.924;145;150;162.4;57;57.1;3;3.6;28.7;-1.0;
23/07/2019 03:42:09;117;0;133.65;16;20.91;4.99;132.2;7.80;68758;4850.641;-13024.924;145;150;160.4;57;56.9;5;5.0;28.6;-1.0;
23/07/2019 03:42:29;117;0;135.94;16;20.86;5.59;128.6;7.90;68751;4850.641;-13024.924;145;150;160.4;57;56.9;3;3.2;28.6;-1.0;
23/07/2019 03:42:49;117;0;130.88;16;20.87;4.26;125.1;7.90;68759;4850.641;-13024.924;145;150;160.4;57;56.9;6;5.9;28.6;-1.0;
23/07/2019 03:43:09;117;0;131.32;16;20.37;6.41;121.5;7.90;68766;4850.641;-13024.924;145;150;160.4;57;56.9;4;4.1;28.6;-1.0;
23/07/2019 03:43:29;117;0;134.67;16;19.99;4.55;118.0;7.90;68756;4850.641;-13024.924;145;150;160.4;57;56.9;2;1.8;28.6;-1.0;
23/07/2019 03:43:49;117;0;128.40;16;19.76;3.32;114.5;7.90;68771;4850.641;-13024.924;145;150;160.4;57;56.9;2;0.9;28.6;-1.0;
23/07/2019 03:44:09;117;0;122.77;16;19.15;3.46;111.3;7.90;68752;4850.641;-13024.924;145;150;160.4;57;56.9;9;9.0;28.6;-1.0;
23/07/2019 03:44:29;117;0;121.79;16;18.89;7.87;108.1;7.90;68766;4850.641;-13024.924;145;150;158.4;57;57.1;8;8.1;28.6;-1.0;
23/07/2019 03:44:49;117;0;123.44;16;17.70;6.80;105.2;7.90;68770;4850.641;-13024.924;145;150;160.4;57;56.9;6;5.4;28.6;-1.0;
23/07/2019 03:45:09;117;0;126.79;16;16.92;5.57;102.6;8.00;68769;4850.641;-13024.924;145;150;160.4;57;56.9;4;4.1;28.6;-1.0;
23/07/2019 03:45:29;117;0;123.44;16;16.39;4.83;100.3;8.00;68765;4850.641;-13024.924;145;150;160.4;57;56.9;7;7.2;28.6;-1.0;
23/07/2019 03:45:49;117;0;121.09;16;16.23;6.84;97.9;8.00;68771;4850.641;-13024.924;145;150;160.4;57;56.9;8;8.1;28.7;-1.0;
23/07/2019 03:46:09;117;0;124.77;16;15.88;7.60;95.7;8.00;68779;4850.641;-13024.924;145;150;160.4;57;56.9;6;5.9;28.7;-1.0;
23/07/2019 03:46:29;117;0;124.90;16;16.02;5.77;93.3;8.00;68771;4850.641;-13024.924;145;150;160.4;57;56.9;6;5.4;28.6;-1.0;
23/07/2019 03:46:49;117;0;123.91;16;15.95;5.80;90.9;8.00;68778;4850.641;-13024.924;145;150;160.4;57;56.9;7;7.2;28.6;-1.0;
23/07/2019 03:47:09;117;0;122.30;16;15.49;7.02;88.6;8.00;68779;4850.641;-13024.924;145;150;160.4;57;56.9;8;8.1;28.6;-1.0;
23/07/2019 03:47:29;117;0;125.93;16;14.95;7.54;86.4;8.10;68787;4850.641;-13024.924;145;150;160.4;57;56.9;6;5.9;28.6;-1.0;
23/07/2019 03:47:49;117;0;122.42;16;14.70;5.79;84.3;8.10;68778;4850.641;-13024.924;145;150;160.4;57;56.9;8;8.1;28.6;-1.0;
23/07/2019 03:48:09;117;0;125.02;16;14.33;7.53;82.1;8.10;68783;4850.641;-13024.924;145;150;160.4;57;57.1;6;5.9;28.6;-1.0;
23/07/2019 03:48:29;117;0;125.45;16;14.31;5.80;80.0;8.10;68795;4850.641;-13024.924;145;150;160.4;57;56.9;7;7.2;28.6;-1.0;
