Timestamp;NavState;SecurityLevel;Heading;Declination;Pitch;Roll;Depth;Temperature;Pa;Lat;Lon;DesiredH;BallastCmd;BallastPos;LinCmd;LinPos;AngCmd;AngPos;Voltage;Altitude;
22/07/2019 11:20:29;117;0;263.12;16;7.69;2.05;9.8;9.90;69759;4854.286;-13037.676;270;150;162.4;57;57.1;-3;-3.2;28.8;-1.0;
22/07/2019 11:20:39;115;0;261.56;16;7.82;1.43;9.1;9.90;69778;4854.286;-13037.676;270;300;174.3;100;99.9;0;0.9;28.8;-1.0;
22/07/2019 11:20:50;115;0;268.63;16;-32.76;4.48;8.6;10.00;69715;4854.286;-13037.676;270;300;306.9;100;100.0;0;0.9;28.4;-1.0;
22/07/2019 11:21:00;115;0;295.60;16;-71.48;4.08;8.8;10.10;69564;4854.286;-13037.676;270;300;306.9;100;100.0;0;0.9;28.8;-1.0;
22/07/2019 11:21:10;115;0;290.30;16;-49.76;2.71;6.8;10.10;69582;4854.286;-13037.676;270;300;308.9;100;100.0;0;0.9;28.8;-1.0;
22/07/2019 11:21:20;116;0;296.66;16;-51.22;2.27;3.8;10.20;69609;4854.286;-13037.676;270;300;308.9;100;100.0;0;0.9;28.7;-1.0;
22/07/2019 11:21:40;116;0;310.06;16;-53.62;11.33;3.0;10.30;69632;4854.286;-13037.676;270;300;308.9;100;100.0;0;0.9;28.8;-1.0;
22/07/2019 11:22:00;116;0;207.50;16;-30.11;10.26;2.7;10.50;69655;4854.286;-13037.676;270;300;308.9;100;100.0;0;0.9;28.8;-1.0;
22/07/2019 11:22:20;116;0;156.62;16;-41.36;-1.22;2.9;10.60;69673;4854.286;-13037.676;270;300;308.9;100;100.0;0;0.9;28.8;-1.0;
22/07/2019 11:22:40;116;0;143.91;16;-26.28;2.77;2.7;10.70;69683;4854.286;-13037.676;270;300;308.9;100;100.0;0;0.9;28.7;-1.0;
22/07/2019 11:22:59;116;0;145.58;16;-12.38;3.91;2.5;10.80;69694;4854.442;-13038.512;270;300;310.9;100;100.0;0;0.9;28.7;-1.0;
22/07/2019 11:27:43;116;0;144.39;16;-31.97;5.09;2.7;12.30;69864;4854.442;-13038.511;270;300;310.9;100;100.0;0;0.9;28.7;-1.0;
22/07/2019 11:28:03;116;0;140.08;16;-33.74;9.13;2.9;12.40;69873;4854.442;-13038.510;270;300;310.9;100;100.0;0;0.9;28.8;-1.0;
22/07/2019 11:28:23;116;0;129.50;16;-30.05;4.89;2.7;12.40;69880;4854.444;-13038.507;270;300;308.9;100;100.0;0;0.9;28.8;-1.0;
22/07/2019 11:28:43;116;0;142.15;16;-31.37;5.25;2.7;12.50;69889;4854.456;-13038.459;270;300;310.9;100;99.9;0;0.9;28.7;-1.0;
22/07/2019 11:34:19;116;0;144.61;16;-18.25;0.68;2.5;13.80;69983;4854.455;-13038.458;270;300;310.9;100;99.9;0;0.9;28.7;-1.0;
22/07/2019 11:34:39;116;0;123.44;16;-38.89;5.98;3.1;13.90;70000;4854.455;-13038.455;270;300;308.9;100;100.0;0;0.9;28.7;-1.0;
22/07/2019 11:34:59;116;0;139.55;16;-28.04;5.01;2.7;13.90;70005;4854.457;-13038.452;270;300;310.9;100;99.9;0;0.9;28.8;-1.0;
22/07/2019 11:35:19;116;0;132.43;16;-8.45;3.71;2.4;14.00;70001;4854.458;-13038.451;270;300;310.9;100;100.0;0;0.9;28.7;-1.0;
22/07/2019 11:35:39;116;0;137.84;16;-10.61;0.13;2.5;14.10;70002;4854.458;-13038.446;270;300;310.9;100;99.9;0;0.9;28.7;-1.0;
22/07/2019 11:35:59;116;0;142.94;16;-8.33;4.93;2.6;14.10;70006;4854.459;-13038.444;270;300;310.9;100;99.9;0;0.9;28.7;-1.0;
22/07/2019 11:36:19;110;0;139.38;16;-24.17;4.52;2.7;14.20;70016;4854.459;-13038.444;270;-500;194.1;100;100.0;0;0.9;28.8;-1.0;
22/07/2019 11:36:29;110;0;135.75;16;-40.23;3.21;3.1;14.20;70289;4854.459;-13038.444;270;-500;19.8;100;100.0;0;0.9;28.7;-1.0;
22/07/2019 11:36:39;110;0;125.03;16;-59.11;12.77;3.4;14.20;70509;4854.459;-13038.444;270;-500;-166.3;100;100.1;0;0.9;28.6;-1.0;
22/07/2019 11:36:49;110;0;117.85;16;-60.90;3.86;3.9;14.30;70814;4854.459;-13038.444;270;-500;-362.4;90;89.9;0;0.9;28.7;-1.0;
22/07/2019 11:36:59;110;0;121.80;16;-55.77;5.31;4.9;14.30;71139;4854.459;-13038.444;270;-500;-501.0;78;77.9;0;0.9;28.7;-1.0;
22/07/2019 11:37:09;110;0;123.84;16;-45.46;3.38;7.4;14.30;71354;4854.459;-13038.444;270;-500;-499.0;70;69.9;0;0.9;28.8;-1.0;
22/07/2019 11:37:19;100;0;121.24;16;-36.73;3.59;10.8;14.30;71354;4854.459;-13038.444;270;-500;-499.0;70;69.9;0;0.9;28.7;-1.0;
22/07/2019 11:37:39;100;0;122.31;16;-27.55;3.80;17.1;14.40;71314;4854.459;-13038.444;270;-500;-499.0;70;69.7;0;0.9;28.8;0.0;
22/07/2019 11:37:59;100;0;113.73;16;-25.67;3.79;22.1;14.40;71239;4854.459;-13038.444;270;-500;-497.0;70;69.7;-45;-45.1;28.8;0.0;
22/07/2019 11:38:19;100;0;110.29;16;-26.91;-17.61;26.6;14.40;71178;4854.459;-13038.444;270;-500;-495.0;70;69.7;-45;-45.6;28.8;0.0;
22/07/2019 11:38:39;100;0;117.65;16;-25.09;-17.33;31.0;14.40;71076;4854.459;-13038.444;270;-500;-497.0;70;69.7;-45;-45.6;28.8;0.0;
22/07/2019 11:38:59;100;0;127.79;16;-24.60;-17.81;35.2;14.30;70984;4854.459;-13038.444;270;-500;-497.0;70;69.6;-39;-38.8;28.8;0.0;
22/07/2019 11:39:19;100;0;132.72;16;-25.36;-13.84;39.2;14.30;70920;4854.459;-13038.444;270;-500;-495.0;70;69.7;-36;-36.1;28.7;0.0;
22/07/2019 11:39:39;100;0;134.20;16;-24.64;-12.63;43.6;14.20;70849;4854.459;-13038.444;270;-500;-497.0;70;69.7;-36;-35.2;28.7;0.0;
22/07/2019 11:39:59;100;0;136.46;16;-24.40;-12.81;47.7;14.20;70793;4854.459;-13038.444;270;-500;-499.0;70;69.6;-36;-35.6;28.7;0.0;
22/07/2019 11:40:19;100;0;141.03;16;-24.48;-12.77;51.8;14.10;70727;4854.459;-13038.444;270;-500;-495.0;70;69.7;-34;-33.8;28.7;0.0;
22/07/2019 11:40:39;100;0;146.53;16;-24.12;-11.70;56.1;14.00;70672;4854.459;-13038.444;270;-500;-497.0;70;69.7;-33;-32.9;28.8;0.0;
22/07/2019 11:40:59;100;0;147.47;16;-24.43;-11.67;60.2;13.90;70621;4854.459;-13038.444;270;-500;-495.0;70;69.7;-34;-33.8;28.7;0.0;
22/07/2019 11:41:19;100;0;153.78;16;-24.32;-12.10;64.4;13.90;70590;4854.459;-13038.444;270;-500;-497.0;70;69.7;-31;-31.1;28.8;0.0;
22/07/2019 11:41:39;100;0;160.50;16;-24.12;-10.46;68.8;13.80;70557;4854.459;-13038.444;270;-500;-495.0;70;69.6;-29;-28.9;28.8;0.0;
22/07/2019 11:41:59;100;0;156.01;16;-24.44;-9.34;73.3;13.70;70533;4854.459;-13038.444;270;-500;-497.0;70;69.7;-33;-33.4;28.7;0.0;
22/07/2019 11:42:19;100;0;162.70;16;-23.50;-11.99;77.5;13.60;70505;4854.459;-13038.444;270;-500;-497.0;70;69.6;-30;-29.3;28.7;0.0;
22/07/2019 11:42:39;100;0;168.00;16;-24.23;-9.85;81.7;13.60;70479;4854.459;-13038.444;270;-500;-495.0;70;69.7;-29;-28.9;28.8;0.0;
22/07/2019 11:42:59;100;0;162.72;16;-24.41;-9.66;85.9;13.50;70443;4854.459;-13038.444;270;-500;-495.0;70;69.7;-33;-32.9;28.8;0.0;
22/07/2019 11:43:19;100;0;159.89;16;-24.21;-11.58;90.3;13.40;70426;4854.459;-13038.444;270;-500;-495.0;70;69.7;-35;-35.6;28.8;0.0;
22/07/2019 11:43:39;100;0;157.29;16;-23.81;-12.91;94.8;13.30;70400;4854.459;-13038.444;270;-500;-497.0;70;69.7;-35;-36.1;28.7;0.0;
22/07/2019 11:43:59;100;0;160.70;16;-23.16;-13.21;99.0;13.30;70369;4854.459;-13038.444;270;-500;-497.0;70;69.6;-33;-32.9;28.7;0.0;
22/07/2019 11:44:19;100;0;169.22;16;-22.29;-11.43;102.9;13.20;70347;4854.459;-13038.444;270;-500;-497.0;70;69.7;-28;-28.0;28.8;0.0;
22/07/2019 11:44:39;100;0;174.73;16;-22.73;-9.10;106.7;13.10;70329;4854.459;-13038.444;270;-500;-497.0;70;69.7;-27;-27.1;28.8;0.0;
22/07/2019 11:44:59;100;0;178.72;16;-22.26;-9.13;110.6;13.00;70311;4854.459;-13038.444;270;-500;-497.0;70;69.7;-26;-25.7;28.8;0.0;
22/07/2019 11:45:19;100;0;180.85;16;-21.13;-8.25;114.2;13.00;70294;4854.459;-13038.444;270;-500;-497.0;70;69.7;-27;-27.1;28.7;0.0;
22/07/2019 11:45:39;100;0;181.26;16;-21.73;-9.40;117.6;12.90;70294;4854.459;-13038.444;270;-500;-495.0;70;69.6;-27;-27.5;28.8;0.0;
22/07/2019 11:45:59;100;0;183.01;16;-21.18;-9.37;121.2;12.80;70279;4854.459;-13038.444;270;-500;-497.0;70;69.6;-27;-27.5;28.7;0.0;
22/07/2019 11:46:19;100;0;187.96;16;-21.09;-9.49;124.5;12.80;70277;4854.459;-13038.444;270;-500;-495.0;70;69.7;-25;-24.8;28.8;0.0;
22/07/2019 11:46:39;100;0;187.25;16;-20.65;-7.71;127.6;12.70;70265;4854.459;-13038.444;270;-500;-497.0;70;69.7;-27;-27.1;28.8;0.0;
22/07/2019 11:46:59;100;0;186.92;16;-20.07;-9.18;130.8;12.70;70276;4854.459;-13038.444;270;-500;-495.0;70;69.7;-28;-28.0;28.7;0.0;
22/07/2019 11:47:19;100;0;187.46;16;-19.93;-9.82;134.0;12.60;70264;4854.459;-13038.444;270;-500;-495.0;70;69.7;-27;-27.1;28.8;0.0;
22/07/2019 11:47:39;100;0;192.35;16;-19.85;-8.90;136.9;12.50;70256;4854.459;-13038.444;270;-500;-495.0;70;69.6;-25;-24.8;28.8;0.0;
22/07/2019 11:47:59;100;0;196.82;16;-20.06;-7.87;139.8;12.50;70251;4854.459;-13038.444;270;-500;-497.0;70;69.7;-23;-23.0;28.8;0.0;
22/07/2019 11:48:19;100;0;195.06;16;-20.00;-6.85;142.6;12.40;70246;4854.459;-13038.444;270;-500;-495.0;70;69.7;-25;-24.8;28.7;0.0;
22/07/2019 11:48:39;100;0;199.32;16;-19.88;-8.48;145.3;12.40;70241;4854.459;-13038.444;270;-500;-495.0;70;69.7;-23;-23.0;28.8;0.0;
22/07/2019 11:48:59;100;0;204.39;16;-19.61;-6.99;148.2;12.30;70233;4854.459;-13038.444;270;-500;-497.0;70;69.7;-21;-21.2;28.7;0.0;
22/07/2019 11:49:19;100;0;203.09;16;-19.52;-6.14;150.9;12.30;70231;4854.459;-13038.444;270;-500;-495.0;70;69.7;-23;-23.0;28.8;0.0;
22/07/2019 11:49:39;100;0;202.50;16;-19.43;-7.51;153.7;12.20;70218;4854.459;-13038.444;270;-500;-495.0;70;69.6;-25;-25.3;28.8;0.0;
22/07/2019 11:49:59;100;0;202.61;16;-19.40;-8.53;156.7;12.20;70210;4854.459;-13038.444;270;-500;-497.0;70;69.6;-25;-25.7;28.7;0.0;
22/07/2019 11:50:19;100;0;204.12;16;-19.34;-8.60;159.5;12.10;70203;4854.459;-13038.444;270;-500;-495.0;70;69.7;-24;-23.9;28.7;0.0;
22/07/2019 11:50:39;100;0;207.30;16;-19.36;-7.46;162.3;12.10;70204;4854.459;-13038.444;270;-500;-495.0;70;69.6;-22;-22.1;28.7;0.0;
22/07/2019 11:50:59;100;0;207.46;16;-19.20;-6.61;165.1;12.00;70200;4854.459;-13038.444;270;-500;-495.0;70;69.7;-23;-23.0;28.8;0.0;
22/07/2019 11:51:19;100;0;205.34;16;-19.28;-7.59;167.8;12.00;70203;4854.459;-13038.444;270;-500;-495.0;70;69.6;-24;-23.9;28.7;0.0;
22/07/2019 11:51:39;100;0;203.38;16;-19.40;-7.92;170.6;11.90;70187;4854.459;-13038.444;270;-500;-495.0;70;69.6;-25;-24.8;28.8;0.0;
22/07/2019 11:51:59;100;0;203.18;16;-19.33;-8.35;173.4;11.90;70184;4854.459;-13038.444;270;-500;-495.0;70;69.7;-25;-25.3;28.8;0.0;
22/07/2019 11:52:19;100;0;200.96;16;-19.30;-8.15;176.1;11.80;70182;4854.459;-13038.444;270;-500;-495.0;70;69.6;-26;-26.6;28.8;0.0;
22/07/2019 11:52:39;100;0;205.41;16;-19.24;-9.25;178.8;11.80;70177;4854.459;-13038.444;270;-500;-497.0;70;69.6;-23;-23.0;28.7;0.0;
22/07/2019 11:52:59;100;0;210.32;16;-19.05;-6.88;181.6;11.70;70167;4854.459;-13038.444;270;-500;-495.0;70;69.6;-21;-20.8;28.7;0.0;
22/07/2019 11:53:19;100;0;210.39;16;-19.02;-5.94;184.2;11.70;70159;4854.459;-13038.444;270;-500;-495.0;70;69.6;-22;-22.1;28.8;0.0;
22/07/2019 11:53:39;100;0;210.68;16;-19.28;-7.15;186.8;11.60;70160;4854.459;-13038.444;270;-500;-495.0;70;69.6;-22;-22.6;28.8;0.0;
22/07/2019 11:53:59;100;0;210.56;16;-19.32;-7.12;189.4;11.60;70151;4854.459;-13038.444;270;-500;-495.0;70;69.6;-23;-23.0;28.8;0.0;
22/07/2019 11:54:19;100;0;210.42;16;-19.23;-7.65;192.0;11.50;70138;4854.459;-13038.444;270;-500;-495.0;70;69.7;-23;-23.5;28.7;0.0;
22/07/2019 11:54:39;100;0;210.63;16;-19.17;-7.64;194.7;11.50;70131;4854.459;-13038.444;270;-500;-495.0;70;69.6;-23;-23.5;28.7;0.0;
22/07/2019 11:54:59;100;0;211.32;16;-19.06;-7.66;197.4;11.40;70125;4854.459;-13038.444;270;-500;-495.0;70;69.7;-22;-22.1;28.7;0.0;
22/07/2019 11:55:19;100;0;209.66;16;-18.98;-6.45;199.9;11.40;70125;4854.459;-13038.444;270;-500;-495.0;70;69.7;-24;-23.9;28.7;0.0;
22/07/2019 11:55:39;100;0;208.02;16;-19.11;-8.09;202.6;11.40;70114;4854.459;-13038.444;270;-500;-495.0;70;69.6;-24;-24.4;28.7;0.0;
22/07/2019 11:55:59;100;0;207.83;16;-19.10;-8.11;205.2;11.30;70119;4854.459;-13038.444;270;-500;-495.0;70;69.6;-24;-24.4;28.8;0.0;
22/07/2019 11:56:19;100;0;208.97;16;-19.09;-8.14;207.8;11.30;70112;4854.459;-13038.444;270;-500;-497.0;70;69.7;-23;-23.0;28.8;0.0;
22/07/2019 11:56:39;100;0;208.76;16;-19.06;-7.00;210.3;11.20;70100;4854.459;-13038.444;270;-500;-495.0;70;69.7;-23;-22.1;28.7;0.0;
22/07/2019 11:56:59;100;0;209.42;16;-18.87;-6.94;212.9;11.20;70100;4854.459;-13038.444;270;-500;-497.0;70;69.7;-23;-22.1;28.8;0.0;
22/07/2019 11:57:19;100;0;210.72;16;-18.92;-7.03;215.5;11.10;70093;4854.459;-13038.444;270;-500;-495.0;70;69.7;-23;-22.1;28.8;0.0;
22/07/2019 11:57:39;100;0;211.86;16;-18.93;-7.02;217.9;11.10;70085;4854.459;-13038.444;270;-500;-495.0;70;69.7;-22;-22.1;28.8;0.0;
22/07/2019 11:57:59;100;0;214.13;16;-19.02;-7.03;220.5;11.00;70082;4854.459;-13038.444;270;-500;-495.0;70;69.6;-21;-21.2;28.7;0.0;
22/07/2019 11:58:19;100;0;213.71;16;-18.66;-6.11;223.0;11.00;70077;4854.459;-13038.444;270;-500;-495.0;70;69.6;-22;-22.1;28.7;0.0;
22/07/2019 11:58:39;100;0;212.80;16;-18.75;-7.25;225.5;11.00;70073;4854.459;-13038.444;270;-500;-495.0;70;69.6;-23;-23.0;28.7;0.0;
22/07/2019 11:58:59;100;0;214.44;16;-18.86;-7.30;227.9;10.90;70084;4854.459;-13038.444;270;-500;-495.0;70;69.6;-22;-21.7;28.7;0.0;
22/07/2019 11:59:19;100;0;216.01;16;-18.69;-6.58;230.4;10.90;70067;4854.459;-13038.444;270;-500;-495.0;70;69.7;-21;-21.2;28.7;0.0;
22/07/2019 11:59:39;100;0;216.68;16;-18.83;-6.54;232.8;10.90;70066;4854.459;-13038.444;270;-500;-497.0;70;69.6;-21;-21.2;28.7;0.0;
22/07/2019 11:59:59;100;0;217.41;16;-18.60;-6.40;235.4;10.80;70052;4854.459;-13038.444;270;-500;-495.0;70;69.7;-21;-21.2;28.7;0.0;
22/07/2019 12:00:19;100;0;218.03;16;-18.92;-6.46;237.8;10.80;70050;4854.459;-13038.444;270;-500;-495.0;70;69.7;-21;-21.2;28.7;0.0;
22/07/2019 12:00:39;100;0;219.23;16;-18.87;-6.56;240.2;10.80;70059;4854.459;-13038.444;270;-500;-497.0;70;69.7;-21;-21.2;28.7;0.0;
22/07/2019 12:00:59;100;0;219.32;16;-18.87;-6.54;242.7;10.70;70050;4854.459;-13038.444;270;-500;-495.0;70;69.7;-21;-21.2;28.8;0.0;
22/07/2019 12:01:19;100;0;220.37;16;-18.79;-6.54;245.2;10.70;70048;4854.459;-13038.444;270;-500;-493.1;70;69.7;-21;-21.2;28.7;0.0;
22/07/2019 12:01:39;100;0;221.74;16;-18.84;-6.61;247.6;10.60;70040;4854.459;-13038.444;270;-500;-495.0;70;69.7;-20;-19.9;28.8;0.0;
22/07/2019 12:01:59;100;0;222.82;16;-18.64;-5.70;250.1;10.60;70050;4854.459;-13038.444;270;-500;-495.0;70;69.7;-20;-19.4;28.8;0.0;
22/07/2019 12:02:19;100;0;221.08;16;-18.56;-5.68;252.6;10.60;70039;4854.459;-13038.444;270;-500;-495.0;70;69.7;-21;-21.2;28.7;0.0;
22/07/2019 12:02:39;100;0;220.89;16;-18.70;-6.79;255.2;10.50;70043;4854.459;-13038.444;270;-500;-495.0;70;69.6;-21;-21.7;28.8;0.0;
22/07/2019 12:02:59;100;0;221.75;16;-18.66;-6.77;257.7;10.50;70021;4854.459;-13038.444;270;-500;-495.0;70;69.6;-21;-21.7;28.7;0.0;
22/07/2019 12:03:19;100;0;221.43;16;-18.57;-6.68;260.3;10.50;70020;4854.459;-13038.444;270;-500;-495.0;70;69.6;-21;-21.7;28.7;0.0;
22/07/2019 12:03:39;100;0;220.84;16;-18.65;-6.77;262.8;10.50;70025;4854.459;-13038.444;270;-500;-495.0;70;69.7;-21;-21.7;28.8;0.0;
22/07/2019 12:03:59;100;0;220.82;16;-18.64;-6.78;265.3;10.40;70026;4854.459;-13038.444;270;-500;-495.0;70;69.6;-21;-21.7;28.7;0.0;
22/07/2019 12:04:19;100;0;219.60;16;-18.65;-6.77;267.7;10.40;70026;4854.459;-13038.444;270;-500;-495.0;70;69.6;-22;-22.6;28.8;0.0;
22/07/2019 12:04:39;100;0;218.84;16;-18.55;-7.30;270.4;10.40;70014;4854.459;-13038.444;270;-500;-495.0;70;69.7;-22;-22.6;28.7;0.0;
22/07/2019 12:05:00;100;0;220.11;16;-18.50;-7.26;272.9;10.30;70013;4854.459;-13038.444;270;-500;-495.0;70;69.7;-21;-21.2;28.8;0.0;
22/07/2019 12:05:20;100;0;222.13;16;-18.45;-6.15;275.4;10.30;70010;4854.459;-13038.444;270;-500;-495.0;70;69.6;-20;-19.9;28.7;0.0;
22/07/2019 12:05:40;100;0;223.30;16;-18.46;-5.62;278.0;10.30;69995;4854.459;-13038.444;270;-500;-495.0;70;69.7;-20;-19.0;28.8;0.0;
22/07/2019 12:06:00;100;0;223.18;16;-18.39;-5.60;280.6;10.20;70003;4854.459;-13038.444;270;-500;-495.0;70;69.6;-20;-19.0;28.7;0.0;
22/07/2019 12:06:20;100;0;223.21;16;-18.38;-5.53;283.1;10.20;69983;4854.459;-13038.444;270;-500;-495.0;70;69.6;-20;-19.4;28.7;0.0;
22/07/2019 12:06:40;100;0;223.06;16;-18.48;-5.59;285.6;10.20;69997;4854.459;-13038.444;270;-500;-495.0;70;69.6;-20;-19.4;28.7;0.0;
22/07/2019 12:07:00;100;0;221.34;16;-18.53;-5.59;288.2;10.10;69981;4854.459;-13038.444;270;-500;-495.0;70;69.6;-22;-22.1;28.8;0.0;
22/07/2019 12:07:20;100;0;221.75;16;-18.46;-7.27;290.8;10.10;69990;4854.459;-13038.444;270;-500;-495.0;70;69.6;-21;-21.2;28.7;0.0;
22/07/2019 12:07:40;100;0;222.75;16;-18.46;-6.39;293.4;10.10;69979;4854.459;-13038.444;270;-500;-495.0;70;69.6;-20;-19.9;28.7;0.0;
22/07/2019 12:08:00;100;0;223.43;16;-18.44;-5.53;295.9;10.10;69975;4854.459;-13038.444;270;-500;-495.0;70;69.6;-20;-19.0;28.8;0.0;
22/07/2019 12:08:20;100;0;221.74;16;-18.31;-5.52;298.6;10.10;69984;4854.459;-13038.444;270;-500;-495.0;70;69.6;-21;-21.2;28.8;0.0;
22/07/2019 12:08:40;100;0;221.09;16;-18.38;-6.85;301.1;10.00;69973;4854.459;-13038.444;270;-500;-495.0;70;69.7;-21;-21.7;28.8;0.0;
22/07/2019 12:09:00;100;0;220.57;16;-18.38;-6.87;303.8;10.00;69975;4854.459;-13038.444;270;-500;-495.0;70;69.6;-22;-22.1;28.7;0.0;
22/07/2019 12:09:20;100;0;221.67;16;-18.29;-7.29;306.5;9.90;69960;4854.459;-13038.444;270;-500;-495.0;70;69.6;-21;-21.2;28.7;0.0;
22/07/2019 12:09:40;100;0;223.04;16;-18.22;-6.35;309.0;9.90;69965;4854.459;-13038.444;270;-500;-495.0;70;69.6;-20;-19.9;28.8;0.0;
22/07/2019 12:10:00;100;0;223.22;16;-18.17;-5.60;311.6;9.90;69961;4854.459;-13038.444;270;-500;-493.1;70;69.7;-20;-19.0;28.8;0.0;
22/07/2019 12:10:20;100;0;222.77;16;-18.08;-5.57;314.1;9.90;69958;4854.459;-13038.444;270;-500;-495.0;70;69.6;-21;-21.2;28.8;0.0;
22/07/2019 12:10:40;100;0;223.27;16;-18.06;-6.62;316.7;9.90;69952;4854.459;-13038.444;270;-500;-497.0;70;69.6;-20;-19.9;28.7;0.0;
22/07/2019 12:11:00;100;0;223.12;16;-18.04;-5.51;319.3;9.80;69954;4854.459;-13038.444;270;-500;-495.0;70;69.6;-20;-19.4;28.8;0.0;
22/07/2019 12:11:20;100;0;223.02;16;-18.06;-5.53;321.9;9.80;69945;4854.459;-13038.444;270;-500;-495.0;70;69.6;-20;-19.0;28.7;0.0;
22/07/2019 12:11:40;100;0;221.67;16;-18.01;-5.50;324.5;9.80;69944;4854.459;-13038.444;270;-500;-493.1;70;69.6;-22;-22.1;28.7;0.0;
22/07/2019 12:12:00;100;0;221.07;16;-18.09;-7.13;326.9;9.80;69936;4854.459;-13038.444;270;-500;-495.0;70;69.6;-21;-21.2;28.7;0.0;
22/07/2019 12:12:20;100;0;222.31;16;-18.10;-6.34;329.4;9.70;69947;4854.459;-13038.444;270;-500;-495.0;70;69.7;-21;-20.8;28.7;0.0;
22/07/2019 12:12:40;100;0;224.35;16;-18.07;-6.29;331.9;9.70;69929;4854.459;-13038.444;270;-500;-495.0;70;69.6;-19;-19.0;28.8;0.0;
22/07/2019 12:13:00;100;0;224.54;16;-17.98;-5.15;334.4;9.70;69925;4854.459;-13038.444;270;-500;-495.0;70;69.7;-20;-19.9;28.8;0.0;
22/07/2019 12:13:20;100;0;224.55;16;-17.93;-6.21;336.8;9.70;69924;4854.459;-13038.444;270;-500;-495.0;70;69.6;-20;-20.3;28.7;0.0;
22/07/2019 12:13:40;100;0;225.34;16;-17.89;-6.26;339.3;9.60;69918;4854.459;-13038.444;270;-500;-495.0;70;69.6;-20;-20.3;28.8;0.0;
22/07/2019 12:14:00;100;0;226.51;16;-18.01;-6.27;341.9;9.60;69912;4854.459;-13038.444;270;-500;-495.0;70;69.6;-19;-19.0;28.8;0.0;
22/07/2019 12:14:20;100;0;226.95;16;-18.11;-5.05;344.2;9.60;69910;4854.459;-13038.444;270;-500;-493.1;70;69.6;-20;-19.9;28.8;0.0;
22/07/2019 12:14:40;100;0;227.30;16;-17.92;-6.18;346.7;9.60;69901;4854.459;-13038.444;270;-500;-495.0;70;69.6;-19;-19.0;28.8;0.0;
22/07/2019 12:15:00;100;0;228.30;16;-17.90;-5.33;349.2;9.60;69913;4854.459;-13038.444;270;-500;-495.0;70;69.7;-19;-18.5;28.8;0.0;
22/07/2019 12:15:20;100;0;227.79;16;-17.87;-5.34;351.6;9.50;69911;4854.459;-13038.444;270;-500;-493.1;70;69.6;-20;-19.9;28.8;0.0;
22/07/2019 12:15:40;100;0;226.64;16;-17.94;-6.10;354.1;9.50;69896;4854.459;-13038.444;270;-500;-495.0;70;69.6;-20;-20.3;28.8;0.0;
22/07/2019 12:16:00;100;0;225.91;16;-17.91;-6.06;356.5;9.50;69909;4854.459;-13038.444;270;-500;-495.0;70;69.6;-21;-21.2;28.7;0.0;
22/07/2019 12:16:20;100;0;227.08;16;-17.92;-7.00;359.0;9.50;69890;4854.459;-13038.444;270;-500;-495.0;70;69.6;-19;-19.0;28.8;0.0;
22/07/2019 12:16:40;100;0;227.83;16;-18.02;-5.25;361.5;9.40;69894;4854.459;-13038.444;270;-500;-495.0;70;69.6;-19;-18.5;28.8;0.0;
22/07/2019 12:17:00;100;0;225.83;16;-17.83;-5.26;363.9;9.40;69886;4854.459;-13038.444;270;-500;-493.1;70;69.7;-21;-21.2;28.8;0.0;
22/07/2019 12:17:20;100;0;224.47;16;-17.94;-6.78;366.3;9.40;69891;4854.459;-13038.444;270;-500;-495.0;70;69.6;-21;-21.7;28.7;0.0;
22/07/2019 12:17:40;100;0;226.73;16;-17.84;-6.85;368.9;9.40;69897;4854.459;-13038.444;270;-500;-495.0;70;69.6;-19;-19.0;28.7;0.0;
22/07/2019 12:18:00;100;0;226.07;16;-17.80;-5.13;371.3;9.30;69882;4854.459;-13038.444;270;-500;-495.0;70;69.6;-20;-19.9;28.8;0.0;
22/07/2019 12:18:20;100;0;225.23;16;-17.79;-6.15;373.7;9.30;69886;4854.459;-13038.444;270;-500;-495.0;70;69.6;-20;-20.3;28.7;0.0;
22/07/2019 12:18:40;100;0;223.70;16;-17.76;-6.15;376.3;9.30;69874;4854.459;-13038.444;270;-500;-495.0;70;69.7;-21;-21.2;28.8;0.0;
22/07/2019 12:19:00;100;0;223.89;16;-17.69;-7.02;378.8;9.30;69875;4854.459;-13038.444;270;-500;-493.1;70;69.6;-21;-22.1;28.8;0.0;
22/07/2019 12:19:20;100;0;224.49;16;-17.79;-7.04;381.2;9.30;69881;4854.459;-13038.444;270;-500;-495.0;70;69.6;-20;-19.9;28.8;0.0;
22/07/2019 12:19:40;100;0;224.22;16;-17.62;-5.73;383.7;9.20;69867;4854.459;-13038.444;270;-500;-495.0;70;69.6;-20;-19.4;28.8;0.0;
22/07/2019 12:20:00;100;0;223.97;16;-17.97;-5.62;386.1;9.20;69873;4854.459;-13038.444;270;-500;-495.0;70;69.6;-21;-21.2;28.8;0.0;
22/07/2019 12:20:20;100;0;224.67;16;-17.79;-6.89;388.6;9.20;69863;4854.459;-13038.444;270;-500;-495.0;70;69.6;-20;-19.4;28.7;0.0;
22/07/2019 12:20:40;100;0;224.73;16;-17.73;-5.38;391.0;9.20;69859;4854.459;-13038.444;270;-500;-495.0;70;69.6;-20;-18.5;28.7;0.0;
22/07/2019 12:21:00;100;0;223.96;16;-17.69;-5.42;393.4;9.20;69869;4854.459;-13038.444;270;-500;-493.1;70;69.6;-21;-21.2;28.7;0.0;
22/07/2019 12:21:20;100;0;224.41;16;-17.76;-6.79;395.8;9.10;69863;4854.459;-13038.444;270;-500;-493.1;70;69.6;-20;-19.9;28.7;0.0;
22/07/2019 12:21:40;100;0;224.45;16;-17.65;-5.57;398.1;9.10;69840;4854.459;-13038.444;270;-500;-495.0;70;69.6;-20;-19.0;28.7;0.0;
22/07/2019 12:22:00;100;0;224.57;16;-17.63;-5.63;400.5;9.10;69858;4854.459;-13038.444;270;-500;-493.1;70;69.6;-20;-19.0;28.7;0.0;
22/07/2019 12:22:20;100;0;224.31;16;-17.58;-5.60;403.0;9.10;69858;4854.459;-13038.444;270;-500;-495.0;70;69.6;-20;-19.0;28.8;0.0;
22/07/2019 12:22:40;100;0;222.70;16;-17.50;-5.59;405.3;9.10;69854;4854.459;-13038.444;270;-500;-495.0;70;69.7;-21;-21.7;28.7;0.0;
22/07/2019 12:23:00;100;0;223.03;16;-17.50;-6.98;407.8;9.10;69844;4854.459;-13038.444;270;-500;-493.1;70;69.6;-20;-19.4;28.8;0.0;
22/07/2019 12:23:20;100;0;223.44;16;-17.39;-5.50;410.1;9.10;69844;4854.459;-13038.444;270;-500;-495.0;70;69.6;-20;-19.0;28.7;0.0;
22/07/2019 12:23:40;100;0;224.25;16;-17.46;-5.49;412.4;9.00;69835;4854.459;-13038.444;270;-500;-495.0;70;69.6;-20;-19.0;28.8;0.0;
22/07/2019 12:24:00;100;0;224.63;16;-17.44;-5.52;414.7;9.00;69835;4854.459;-13038.444;270;-500;-493.1;70;69.6;-20;-19.0;28.8;0.0;
22/07/2019 12:24:20;100;0;224.68;16;-17.50;-5.49;417.1;9.00;69838;4854.459;-13038.444;270;-500;-493.1;70;69.6;-20;-19.0;28.7;0.0;
22/07/2019 12:24:40;100;0;224.71;16;-17.47;-5.54;419.5;9.00;69835;4854.459;-13038.444;270;-500;-493.1;70;69.6;-20;-19.0;28.7;0.0;
22/07/2019 12:25:00;100;0;225.87;16;-17.44;-5.54;421.8;8.90;69834;4854.459;-13038.444;270;-500;-493.1;70;69.6;-20;-19.0;28.7;0.0;
22/07/2019 12:25:20;100;0;226.09;16;-17.41;-5.54;424.1;8.90;69831;4854.459;-13038.444;270;-500;-493.1;70;69.6;-19;-19.0;28.7;0.0;
22/07/2019 12:25:40;100;0;227.23;16;-17.41;-5.57;426.4;8.90;69840;4854.459;-13038.444;270;-500;-493.1;70;69.7;-19;-19.0;28.7;0.0;
22/07/2019 12:26:00;100;0;226.77;16;-17.37;-5.47;428.7;8.90;69826;4854.459;-13038.444;270;-500;-495.0;70;69.6;-20;-20.3;28.8;0.0;
22/07/2019 12:26:20;100;0;227.57;16;-17.29;-6.44;431.1;8.90;69824;4854.459;-13038.444;270;-500;-493.1;70;69.6;-19;-19.0;28.8;0.0;
22/07/2019 12:26:40;100;0;227.46;16;-17.33;-5.25;433.4;8.90;69827;4854.459;-13038.444;270;-500;-493.1;70;69.7;-20;-19.9;28.7;0.0;
22/07/2019 12:27:00;100;0;227.08;16;-17.33;-6.23;435.7;8.80;69821;4854.459;-13038.444;270;-500;-493.1;70;69.6;-20;-20.3;28.8;0.0;
22/07/2019 12:27:20;100;0;226.71;16;-17.36;-6.23;438.0;8.80;69812;4854.459;-13038.444;270;-500;-493.1;70;69.6;-20;-20.3;28.7;0.0;
22/07/2019 12:27:40;100;0;226.94;16;-17.33;-6.25;440.2;8.80;69812;4854.459;-13038.444;270;-500;-495.0;70;69.6;-20;-20.3;28.7;0.0;
22/07/2019 12:28:00;100;0;228.21;16;-17.33;-6.27;442.6;8.80;69815;4854.459;-13038.444;270;-500;-493.1;70;69.6;-19;-19.0;28.8;0.0;
22/07/2019 12:28:20;100;0;228.55;16;-17.27;-5.14;444.8;8.80;69808;4854.459;-13038.444;270;-500;-493.1;70;69.6;-19;-18.1;28.8;0.0;
22/07/2019 12:28:40;100;0;227.42;16;-17.28;-5.08;447.1;8.70;69810;4854.459;-13038.444;270;-500;-493.1;70;69.7;-20;-19.9;28.8;0.0;
22/07/2019 12:29:00;100;0;227.21;16;-17.27;-6.18;449.3;8.70;69802;4854.459;-13038.444;270;-500;-495.0;70;69.6;-20;-20.3;28.8;0.0;
22/07/2019 12:29:20;100;0;226.86;16;-17.23;-6.17;451.6;8.70;69803;4854.459;-13038.444;270;-500;-493.1;70;69.6;-20;-20.3;28.7;0.0;
22/07/2019 12:29:40;100;0;227.98;16;-17.23;-6.22;453.8;8.70;69792;4854.459;-13038.444;270;-500;-493.1;70;69.6;-20;-20.3;28.8;0.0;
22/07/2019 12:30:00;100;0;228.90;16;-17.19;-6.20;456.0;8.70;69787;4854.459;-13038.444;270;-500;-493.1;70;69.6;-19;-19.0;28.7;0.0;
22/07/2019 12:30:20;100;0;229.38;16;-17.22;-5.32;458.3;8.70;69780;4854.459;-13038.444;270;-500;-493.1;70;69.6;-19;-18.5;28.8;0.0;
22/07/2019 12:30:40;100;0;230.05;16;-17.21;-5.34;460.5;8.60;69776;4854.459;-13038.444;270;-500;-493.1;70;69.6;-18;-18.1;28.7;0.0;
22/07/2019 12:31:00;100;0;229.27;16;-17.17;-4.75;462.6;8.60;69768;4854.459;-13038.444;270;-500;-493.1;70;69.6;-19;-19.0;28.8;0.0;
22/07/2019 12:31:20;100;0;228.39;16;-17.15;-5.80;464.8;8.60;69771;4854.459;-13038.444;270;-500;-493.1;70;69.6;-20;-19.9;28.8;0.0;
22/07/2019 12:31:40;100;0;228.00;16;-17.17;-6.15;467.0;8.60;69754;4854.459;-13038.444;270;-500;-493.1;70;69.6;-20;-20.3;28.7;0.0;
22/07/2019 12:32:00;100;0;228.64;16;-17.15;-6.18;469.2;8.60;69755;4854.459;-13038.444;270;-500;-495.0;70;69.6;-19;-19.0;28.7;0.0;
22/07/2019 12:32:20;100;0;227.54;16;-17.03;-5.25;471.5;8.50;69756;4854.459;-13038.444;270;-500;-493.1;70;69.6;-20;-19.9;28.7;0.0;
22/07/2019 12:32:40;100;0;228.56;16;-17.10;-6.37;473.7;8.50;69752;4854.459;-13038.444;270;-500;-493.1;70;69.6;-19;-19.0;28.8;0.0;
22/07/2019 12:33:00;100;0;229.69;16;-17.07;-5.21;475.9;8.50;69761;4854.459;-13038.444;270;-500;-493.1;70;69.6;-19;-18.1;28.8;0.0;
22/07/2019 12:33:20;100;0;230.12;16;-16.99;-5.19;478.0;8.50;69756;4854.459;-13038.444;270;-500;-493.1;70;69.7;-18;-18.1;28.7;0.0;
22/07/2019 12:33:40;100;0;230.09;16;-17.03;-5.15;480.2;8.50;69752;4854.459;-13038.444;270;-500;-495.0;70;69.6;-19;-19.0;28.7;0.0;
22/07/2019 12:34:00;100;0;229.82;16;-17.14;-5.68;482.5;8.50;69741;4854.459;-13038.444;270;-500;-493.1;70;69.6;-20;-19.9;28.8;0.0;
22/07/2019 12:34:20;100;0;230.62;16;-17.06;-6.27;484.7;8.40;69739;4854.459;-13038.444;270;-500;-493.1;70;69.6;-19;-19.0;28.8;0.0;
22/07/2019 12:34:40;100;0;229.67;16;-17.12;-5.35;486.7;8.40;69731;4854.459;-13038.444;270;-500;-491.1;70;69.6;-20;-19.9;28.7;0.0;
22/07/2019 12:35:00;100;0;229.20;16;-17.08;-6.20;489.0;8.40;69740;4854.459;-13038.444;270;-500;-493.1;70;69.6;-19;-19.0;28.7;0.0;
22/07/2019 12:35:20;100;0;228.26;16;-17.00;-5.32;491.0;8.40;69734;4854.459;-13038.444;270;-500;-493.1;70;69.6;-20;-20.3;28.7;0.0;
22/07/2019 12:35:40;100;0;227.86;16;-17.08;-6.39;493.1;8.40;69735;4854.459;-13038.444;270;-500;-493.1;70;69.6;-20;-20.8;28.7;0.0;
22/07/2019 12:36:00;100;0;227.31;16;-17.03;-6.40;495.3;8.30;69729;4854.459;-13038.444;270;-500;-493.1;70;69.6;-20;-20.8;28.7;0.0;
22/07/2019 12:36:20;100;0;229.21;16;-17.00;-6.47;497.4;8.30;69731;4854.459;-13038.444;270;-500;-493.1;70;69.6;-19;-19.0;28.7;0.0;
22/07/2019 12:36:40;100;0;231.64;16;-16.86;-5.34;499.7;8.30;69729;4854.459;-13038.444;270;-500;-493.1;70;69.6;-18;-18.1;28.7;0.0;
22/07/2019 12:37:00;100;0;231.99;16;-16.94;-5.30;501.8;8.30;69726;4854.459;-13038.444;270;-500;-493.1;70;69.6;-18;-18.1;28.8;0.0;
22/07/2019 12:37:20;100;0;230.60;16;-17.03;-5.25;503.9;8.30;69732;4854.459;-13038.444;270;-500;-493.1;70;69.6;-19;-19.0;28.7;0.0;
22/07/2019 12:37:40;100;0;230.08;16;-17.17;-5.88;505.9;8.30;69717;4854.459;-13038.444;270;-500;-495.0;70;69.6;-19;-19.4;28.7;0.0;
22/07/2019 12:38:00;100;0;228.62;16;-16.67;-5.66;508.2;8.30;69711;4854.459;-13038.444;270;-500;-495.0;70;69.6;-20;-19.9;28.7;0.0;
22/07/2019 12:38:20;100;0;227.52;16;-16.80;-6.57;510.3;8.20;69715;4854.459;-13038.444;270;-500;-493.1;70;69.6;-20;-20.3;28.7;0.0;
22/07/2019 12:38:41;100;0;227.22;16;-16.92;-6.23;512.5;8.20;69719;4854.459;-13038.444;270;-500;-493.1;70;69.6;-20;-20.3;28.7;0.0;
22/07/2019 12:39:01;100;0;228.21;16;-16.78;-6.19;514.6;8.20;69719;4854.459;-13038.444;270;-500;-493.1;70;69.6;-19;-19.0;28.8;0.0;
22/07/2019 12:39:21;100;0;225.54;16;-16.67;-5.22;516.7;8.20;69713;4854.459;-13038.444;270;-500;-495.0;70;69.6;-21;-21.2;28.8;0.0;
22/07/2019 12:39:41;100;0;224.37;16;-16.73;-6.90;518.9;8.20;69716;4854.459;-13038.444;270;-500;-493.1;70;69.6;-21;-21.7;28.8;0.0;
22/07/2019 12:40:01;100;0;226.86;16;-16.71;-6.94;521.0;8.20;69712;4854.459;-13038.444;270;-500;-493.1;70;69.6;-20;-19.9;28.8;0.0;
22/07/2019 12:40:21;100;0;228.60;16;-16.72;-5.76;523.1;8.10;69706;4854.459;-13038.444;270;-500;-493.1;70;69.6;-19;-19.0;28.7;0.0;
22/07/2019 12:40:41;100;0;229.02;16;-16.67;-5.19;525.2;8.10;69700;4854.459;-13038.444;270;-500;-493.1;70;69.6;-18;-18.1;28.8;0.0;
22/07/2019 12:41:01;100;0;228.75;16;-16.65;-5.21;527.4;8.10;69705;4854.459;-13038.444;270;-500;-493.1;70;69.6;-19;-19.4;28.8;0.0;
22/07/2019 12:41:21;100;0;229.26;16;-16.62;-6.06;529.5;8.10;69708;4854.459;-13038.444;270;-500;-493.1;70;69.6;-19;-19.9;28.7;0.0;
22/07/2019 12:41:41;100;0;228.78;16;-16.60;-5.99;531.6;8.10;69695;4854.459;-13038.444;270;-500;-493.1;70;69.6;-20;-19.9;28.7;0.0;
22/07/2019 12:42:01;100;0;227.59;16;-16.75;-5.99;533.8;8.10;69696;4854.459;-13038.444;270;-500;-493.1;70;69.6;-20;-19.9;28.8;0.0;
22/07/2019 12:42:21;100;0;228.50;16;-16.71;-6.03;536.0;8.10;69693;4854.459;-13038.444;270;-500;-491.1;70;69.6;-19;-19.0;28.7;0.0;
22/07/2019 12:42:41;100;0;228.37;16;-16.50;-5.30;538.0;8.10;69695;4854.459;-13038.444;270;-500;-493.1;70;69.6;-19;-18.5;28.7;0.0;
22/07/2019 12:43:01;100;0;227.89;16;-16.65;-5.41;540.2;8.00;69686;4854.459;-13038.444;270;-500;-493.1;70;69.6;-20;-19.9;28.8;0.0;
22/07/2019 12:43:21;100;0;228.71;16;-16.55;-6.27;542.3;8.00;69687;4854.459;-13038.444;270;-500;-493.1;70;69.6;-19;-19.0;28.7;0.0;
22/07/2019 12:43:41;100;0;229.04;16;-16.40;-5.41;544.5;8.00;69677;4854.459;-13038.444;270;-500;-493.1;70;69.6;-19;-18.5;28.7;0.0;
22/07/2019 12:44:01;100;0;227.95;16;-16.38;-5.39;546.6;8.00;69683;4854.459;-13038.444;270;-500;-493.1;70;69.6;-20;-20.3;28.8;0.0;
22/07/2019 12:44:21;100;0;228.28;16;-16.57;-6.49;548.8;8.00;69680;4854.459;-13038.444;270;-500;-493.1;70;69.6;-19;-19.0;28.8;0.0;
22/07/2019 12:44:41;100;0;228.51;16;-16.43;-5.23;550.9;8.00;69682;4854.459;-13038.444;270;-500;-491.1;70;69.7;-19;-18.1;28.7;0.0;
22/07/2019 12:45:01;100;0;227.56;16;-16.51;-5.21;553.1;7.90;69677;4854.459;-13038.444;270;-500;-491.1;70;69.6;-20;-20.3;28.7;0.0;
22/07/2019 12:45:21;100;0;227.18;16;-16.42;-6.34;555.1;7.90;69677;4854.459;-13038.444;270;-500;-493.1;70;69.6;-20;-20.3;28.7;0.0;
22/07/2019 12:45:41;100;0;226.19;16;-16.50;-6.24;557.3;7.90;69672;4854.459;-13038.444;270;-500;-493.1;70;69.6;-20;-20.3;28.7;0.0;
22/07/2019 12:46:01;100;0;224.47;16;-16.44;-6.30;559.4;7.90;69675;4854.459;-13038.444;270;-500;-493.1;70;69.6;-21;-21.2;28.7;0.0;
22/07/2019 12:46:21;100;0;226.16;16;-16.45;-6.85;561.5;7.90;69671;4854.459;-13038.444;270;-500;-491.1;70;69.6;-20;-19.9;28.7;0.0;
22/07/2019 12:46:41;100;0;227.08;16;-16.33;-5.73;563.8;7.90;69653;4854.459;-13038.444;270;-500;-493.1;70;69.6;-19;-19.0;28.8;0.0;
22/07/2019 12:47:01;100;0;227.16;16;-16.39;-5.72;565.8;7.90;69659;4854.459;-13038.444;270;-500;-491.1;70;69.6;-19;-19.0;28.8;0.0;
22/07/2019 12:47:21;100;0;227.61;16;-16.45;-5.75;568.0;7.90;69662;4854.459;-13038.444;270;-500;-491.1;70;69.6;-20;-19.9;28.7;0.0;
22/07/2019 12:47:41;100;0;227.91;16;-16.44;-6.25;570.0;7.80;69650;4854.459;-13038.444;270;-500;-491.1;70;69.6;-20;-20.3;28.8;0.0;
22/07/2019 12:48:01;100;0;227.30;16;-16.39;-6.24;572.1;7.80;69656;4854.459;-13038.444;270;-500;-493.1;70;69.6;-20;-20.3;28.8;0.0;
22/07/2019 12:48:21;100;0;226.47;16;-16.34;-6.19;574.3;7.80;69657;4854.459;-13038.444;270;-500;-491.1;70;69.6;-20;-20.3;28.8;0.0;
22/07/2019 12:48:41;100;0;225.94;16;-16.34;-6.26;576.4;7.80;69650;4854.459;-13038.444;270;-500;-493.1;70;69.6;-21;-21.2;28.8;0.0;
22/07/2019 12:49:01;100;0;225.98;16;-16.37;-6.84;578.5;7.80;69650;4854.459;-13038.444;270;-500;-493.1;70;69.6;-20;-19.9;28.7;0.0;
22/07/2019 12:49:21;100;0;225.99;16;-16.24;-5.70;580.7;7.80;69654;4854.459;-13038.444;270;-500;-491.1;70;69.7;-20;-19.0;28.8;0.0;
22/07/2019 12:49:41;100;0;225.12;16;-16.29;-5.68;582.7;7.80;69651;4854.459;-13038.444;270;-500;-493.1;70;69.6;-20;-19.0;28.7;0.0;
22/07/2019 12:50:01;100;0;224.93;16;-16.34;-5.76;584.9;7.70;69647;4854.459;-13038.444;270;-500;-493.1;70;69.6;-21;-21.2;28.8;0.0;
22/07/2019 12:50:21;100;0;225.45;16;-16.50;-7.10;587.0;7.70;69644;4854.459;-13038.444;270;-500;-491.1;70;69.6;-20;-19.4;28.7;0.0;
22/07/2019 12:50:41;100;0;224.86;16;-16.30;-5.59;589.1;7.70;69645;4854.459;-13038.444;270;-500;-491.1;70;69.6;-21;-21.2;28.8;0.0;
22/07/2019 12:51:01;100;0;225.29;16;-16.31;-6.98;591.2;7.70;69642;4854.459;-13038.444;270;-500;-491.1;70;69.6;-20;-19.9;28.7;0.0;
22/07/2019 12:51:21;100;0;225.34;16;-16.20;-5.83;593.3;7.70;69636;4854.459;-13038.444;270;-500;-491.1;70;69.6;-20;-19.4;28.7;0.0;
22/07/2019 12:51:41;100;0;225.70;16;-16.35;-5.87;595.3;7.70;69639;4854.459;-13038.444;270;-500;-491.1;70;69.6;-20;-19.4;28.7;0.0;
22/07/2019 12:52:01;100;0;224.69;16;-16.28;-5.79;597.5;7.60;69626;4854.459;-13038.444;270;-500;-491.1;70;69.6;-21;-21.2;28.8;0.0;
22/07/2019 12:52:21;100;0;225.78;16;-16.26;-6.96;599.6;7.60;69619;4854.459;-13038.444;270;-500;-493.1;70;69.6;-20;-19.9;28.8;0.0;
22/07/2019 12:52:41;100;0;225.10;16;-16.12;-5.69;601.6;7.60;69624;4854.459;-13038.444;270;-500;-491.1;70;69.6;-20;-19.0;28.8;0.0;
22/07/2019 12:53:01;100;0;224.75;16;-16.07;-5.68;603.7;7.60;69629;4854.459;-13038.444;270;-500;-493.1;70;69.6;-21;-21.7;28.8;0.0;
22/07/2019 12:53:21;100;0;224.80;16;-16.07;-7.06;605.8;7.60;69626;4854.459;-13038.444;270;-500;-491.1;70;69.6;-20;-19.4;28.8;0.0;
22/07/2019 12:53:41;100;0;225.48;16;-15.97;-5.62;607.9;7.60;69616;4854.459;-13038.444;270;-500;-493.1;70;69.6;-20;-19.0;28.7;0.0;
22/07/2019 12:54:01;100;0;225.22;16;-15.98;-5.60;610.0;7.60;69625;4854.459;-13038.444;270;-500;-493.1;70;69.6;-20;-19.0;28.7;0.0;
22/07/2019 12:54:21;100;0;224.88;16;-16.00;-5.64;612.1;7.60;69608;4854.459;-13038.444;270;-500;-493.1;70;69.6;-21;-21.2;28.8;0.0;
22/07/2019 12:54:41;100;0;225.47;16;-16.06;-6.96;614.2;7.50;69616;4854.459;-13038.444;270;-500;-491.1;70;69.7;-20;-19.9;28.8;0.0;
22/07/2019 12:55:01;100;0;225.44;16;-15.92;-5.83;616.3;7.50;69611;4854.459;-13038.444;270;-500;-493.1;70;69.6;-20;-19.4;28.7;0.0;
22/07/2019 12:55:21;100;0;224.42;16;-16.09;-5.80;618.2;7.50;69617;4854.459;-13038.444;270;-500;-491.1;70;69.6;-21;-21.2;28.7;0.0;
22/07/2019 12:55:41;100;0;225.11;16;-16.15;-6.98;620.3;7.50;69619;4854.459;-13038.444;270;-500;-493.1;70;69.6;-20;-19.9;28.7;0.0;
22/07/2019 12:56:01;100;0;224.77;16;-16.02;-5.78;622.4;7.50;69600;4854.459;-13038.444;270;-500;-491.1;70;69.6;-21;-21.7;28.7;0.0;
22/07/2019 12:56:21;100;0;224.90;16;-15.95;-7.13;624.4;7.50;69607;4854.459;-13038.444;270;-500;-493.1;70;69.6;-20;-19.9;28.8;0.0;
22/07/2019 12:56:41;100;0;225.35;16;-15.91;-5.63;626.3;7.50;69614;4854.459;-13038.444;270;-500;-495.0;70;69.6;-20;-19.0;28.7;0.0;
22/07/2019 12:57:01;100;0;225.61;16;-16.02;-5.70;628.3;7.50;69608;4854.459;-13038.444;270;-500;-493.1;70;69.6;-20;-19.0;28.7;0.0;
22/07/2019 12:57:21;100;0;225.74;16;-15.97;-5.67;630.3;7.50;69619;4854.459;-13038.444;270;-500;-491.1;70;69.6;-20;-19.0;28.8;0.0;
22/07/2019 12:57:41;100;0;225.47;16;-15.87;-5.64;632.3;7.40;69604;4854.459;-13038.444;270;-500;-491.1;70;69.6;-20;-19.0;28.8;0.0;
22/07/2019 12:58:01;100;0;225.01;16;-15.78;-5.63;634.3;7.40;69607;4854.459;-13038.444;270;-500;-491.1;70;69.6;-20;-19.0;28.7;0.0;
22/07/2019 12:58:21;100;0;224.74;16;-15.73;-5.67;636.3;7.40;69608;4854.459;-13038.444;270;-500;-493.1;70;69.6;-21;-21.2;28.8;0.0;
22/07/2019 12:58:41;100;0;225.56;16;-15.87;-7.05;638.2;7.40;69609;4854.459;-13038.444;270;-500;-491.1;70;69.6;-20;-19.9;28.8;0.0;
22/07/2019 12:59:01;100;0;225.32;16;-15.72;-5.80;640.2;7.40;69592;4854.459;-13038.444;270;-500;-493.1;70;69.6;-20;-19.4;28.8;0.0;
22/07/2019 12:59:21;100;0;224.49;16;-15.78;-5.79;642.2;7.40;69602;4854.459;-13038.444;270;-500;-493.1;70;69.6;-21;-21.2;28.7;0.0;
22/07/2019 12:59:41;100;0;224.45;16;-15.79;-6.92;644.2;7.40;69595;4854.459;-13038.444;270;-500;-491.1;70;69.6;-20;-19.9;28.7;0.0;
22/07/2019 13:00:01;100;0;224.39;16;-15.66;-5.73;646.1;7.40;69594;4854.459;-13038.444;270;-500;-491.1;70;69.6;-20;-19.0;28.8;0.0;
22/07/2019 13:00:21;100;0;224.38;16;-15.60;-5.76;648.1;7.30;69585;4854.459;-13038.444;270;-500;-491.1;70;69.6;-20;-19.0;28.8;0.0;
22/07/2019 13:00:41;100;0;224.62;16;-15.67;-5.76;650.1;7.30;69570;4854.459;-13038.444;270;-500;-491.1;70;69.6;-20;-19.0;28.7;0.0;
22/07/2019 13:01:01;100;0;224.98;16;-15.71;-5.80;651.9;7.30;69597;4854.459;-13038.444;270;-500;-491.1;70;69.6;-20;-19.4;28.8;0.0;
22/07/2019 13:01:21;100;0;225.11;16;-15.70;-5.74;653.8;7.30;69587;4854.459;-13038.444;270;-500;-493.1;70;69.6;-20;-19.0;28.8;0.0;
22/07/2019 13:01:41;100;0;224.92;16;-15.74;-5.80;655.7;7.30;69588;4854.459;-13038.444;270;-500;-489.1;70;69.6;-20;-19.0;28.7;0.0;
22/07/2019 13:02:01;100;0;224.64;16;-15.70;-5.75;657.4;7.30;69577;4854.459;-13038.444;270;-500;-491.1;70;69.6;-20;-19.4;28.7;0.0;
22/07/2019 13:02:21;100;0;223.95;16;-15.66;-5.77;659.3;7.30;69576;4854.459;-13038.444;270;-500;-491.1;70;69.6;-21;-21.7;28.8;0.0;
22/07/2019 13:02:41;100;0;224.37;16;-15.66;-7.15;661.0;7.30;69579;4854.459;-13038.444;270;-500;-491.1;70;69.6;-20;-19.4;28.7;0.0;
22/07/2019 13:03:01;100;0;223.59;16;-15.63;-5.67;662.9;7.30;69585;4854.459;-13038.444;270;-500;-491.1;70;69.7;-21;-21.2;28.8;0.0;
22/07/2019 13:03:21;100;0;223.13;16;-15.82;-7.04;664.7;7.20;69576;4854.459;-13038.444;270;-500;-491.1;70;69.6;-21;-21.7;28.7;0.0;
22/07/2019 13:03:41;100;0;223.91;16;-15.57;-7.05;666.5;7.20;69584;4854.459;-13038.444;270;-500;-491.1;70;69.6;-21;-21.7;28.8;0.0;
22/07/2019 13:04:01;100;0;224.29;16;-15.54;-7.07;668.3;7.20;69576;4854.459;-13038.444;270;-500;-491.1;70;69.6;-20;-19.4;28.8;0.0;
22/07/2019 13:04:21;100;0;225.66;16;-15.63;-5.62;670.1;7.20;69585;4854.459;-13038.444;270;-500;-491.1;70;69.6;-20;-18.5;28.7;0.0;
22/07/2019 13:04:41;100;0;225.59;16;-15.58;-5.61;671.9;7.20;69578;4854.459;-13038.444;270;-500;-491.1;70;69.6;-20;-18.5;28.8;0.0;
22/07/2019 13:05:01;100;0;224.79;16;-15.58;-5.61;673.6;7.20;69560;4854.459;-13038.444;270;-500;-491.1;70;69.6;-21;-21.2;28.7;0.0;
22/07/2019 13:05:21;100;0;224.76;16;-15.59;-6.98;675.5;7.20;69577;4854.459;-13038.444;270;-500;-491.1;70;69.6;-20;-19.9;28.8;0.0;
22/07/2019 13:05:41;100;0;223.47;16;-15.53;-5.67;677.2;7.20;69574;4854.459;-13038.444;270;-500;-491.1;70;69.6;-21;-21.7;28.8;0.0;
22/07/2019 13:06:01;100;0;225.05;16;-15.56;-7.14;679.0;7.20;69567;4854.459;-13038.444;270;-500;-491.1;70;69.6;-20;-19.9;28.8;0.0;
22/07/2019 13:06:21;100;0;226.46;16;-15.48;-5.92;680.8;7.20;69575;4854.459;-13038.444;270;-500;-491.1;70;69.6;-19;-18.5;28.7;0.0;
22/07/2019 13:06:41;100;0;225.53;16;-15.38;-5.15;682.5;7.10;69574;4854.459;-13038.444;270;-500;-489.1;70;69.6;-20;-20.3;28.7;0.0;
22/07/2019 13:07:01;100;0;226.05;16;-15.50;-6.49;684.2;7.10;69569;4854.459;-13038.444;270;-500;-491.1;70;69.6;-20;-20.8;28.7;0.0;
22/07/2019 13:07:21;100;0;225.76;16;-15.47;-6.51;686.0;7.10;69561;4854.459;-13038.444;270;-500;-491.1;70;69.6;-20;-20.8;28.7;0.0;
22/07/2019 13:07:41;100;0;225.49;16;-15.43;-6.48;687.8;7.10;69573;4854.459;-13038.444;270;-500;-491.1;70;69.6;-20;-20.8;28.7;0.0;
22/07/2019 13:08:01;100;0;225.50;16;-15.42;-6.51;689.4;7.10;69570;4854.459;-13038.444;270;-500;-491.1;70;69.6;-20;-20.8;28.8;0.0;
22/07/2019 13:08:21;100;0;224.97;16;-15.39;-6.51;691.2;7.10;69565;4854.459;-13038.444;270;-500;-491.1;70;69.6;-21;-21.2;28.8;0.0;
22/07/2019 13:08:41;100;0;225.30;16;-15.49;-7.06;693.0;7.10;69569;4854.459;-13038.444;270;-500;-491.1;70;69.6;-20;-19.9;28.8;0.0;
22/07/2019 13:09:01;100;0;224.25;16;-15.42;-5.87;694.7;7.10;69561;4854.459;-13038.444;270;-500;-491.1;70;69.6;-21;-21.2;28.7;0.0;
22/07/2019 13:09:21;100;0;224.42;16;-15.43;-6.93;696.4;7.10;69556;4854.459;-13038.444;270;-500;-491.1;70;69.6;-20;-19.9;28.8;0.0;
22/07/2019 13:09:41;100;0;223.73;16;-15.58;-5.86;698.0;7.10;69563;4854.459;-13038.444;270;-500;-491.1;70;69.6;-21;-21.7;28.8;0.0;
22/07/2019 13:10:01;118;0;225.32;16;-15.40;-7.15;699.7;7.00;69555;4854.459;-13038.444;270;150;-477.2;57;56.8;0;0.5;28.8;0.0;
22/07/2019 13:10:11;118;0;123.17;16;2.09;3.38;700.4;7.00;69470;4854.459;-13038.444;270;150;-314.9;57;57.1;0;0.5;27.4;0.0;
22/07/2019 13:10:21;118;0;118.62;16;16.46;3.23;700.2;7.00;69252;4854.459;-13038.444;270;150;-162.4;57;57.1;0;0.5;27.4;-1.0;
22/07/2019 13:10:31;118;0;119.87;16;19.87;3.22;699.5;7.00;69005;4854.459;-13038.444;270;150;-7.9;57;56.9;0;0.5;27.4;-1.0;
22/07/2019 13:10:42;118;0;120.55;16;19.66;3.37;698.5;7.00;68749;4854.459;-13038.444;270;150;148.5;57;57.1;0;0.5;27.5;-1.0;
22/07/2019 13:10:52;118;0;118.26;16;22.33;3.35;697.1;7.00;68510;4854.459;-13038.444;270;150;158.4;57;56.9;0;0.5;27.3;-1.0;
22/07/2019 13:11:02;118;0;215.87;16;24.68;3.29;695.1;7.00;68513;4854.459;-13038.444;270;150;158.4;57;57.1;0;0.5;28.7;-1.0;
22/07/2019 13:11:12;117;0;215.06;16;25.64;3.23;692.8;7.10;68511;4854.459;-13038.444;270;150;158.4;57;57.1;0;0.5;28.7;-1.0;
22/07/2019 13:11:32;117;0;212.53;16;26.42;3.09;687.6;7.10;68502;4854.459;-13038.444;270;150;160.4;57;56.9;27;27.1;28.7;-1.0;
22/07/2019 13:11:52;117;0;221.68;16;25.66;16.32;681.6;7.10;68513;4854.459;-13038.444;270;150;158.4;57;56.9;20;19.4;28.7;-1.0;
22/07/2019 13:12:12;117;0;225.27;16;25.79;11.88;676.4;7.10;68505;4854.459;-13038.444;270;150;160.4;57;57.1;18;18.1;28.7;-1.0;
22/07/2019 13:12:32;117;0;228.87;16;25.96;11.08;671.0;7.10;68523;4854.459;-13038.444;270;150;158.4;57;56.9;17;16.7;28.7;-1.0;
22/07/2019 13:12:52;117;0;230.31;16;26.18;10.38;665.7;7.10;68510;4854.459;-13038.444;270;150;158.4;57;56.9;17;16.2;28.7;-1.0;
22/07/2019 13:13:12;117;0;232.44;16;26.30;10.62;660.3;7.10;68502;4854.459;-13038.444;270;150;160.4;57;56.9;17;16.2;28.7;-1.0;
22/07/2019 13:13:32;117;0;236.11;16;25.93;10.49;655.0;7.10;68506;4854.459;-13038.444;270;150;158.4;57;57.1;16;15.8;28.7;-1.0;
22/07/2019 13:13:52;117;0;237.69;16;26.12;9.82;649.6;7.10;68504;4854.459;-13038.444;270;150;158.4;57;57.1;16;14.9;28.7;-1.0;
22/07/2019 13:14:12;117;0;239.44;16;26.03;9.77;644.3;7.00;68505;4854.459;-13038.444;270;150;158.4;57;57.1;16;14.9;28.7;-1.0;
22/07/2019 13:14:32;117;0;241.70;16;26.14;9.82;638.9;7.00;68503;4854.459;-13038.444;270;150;158.4;57;57.1;15;14.9;28.7;-1.0;
22/07/2019 13:14:52;117;0;244.27;16;25.77;9.80;633.6;7.00;68486;4854.459;-13038.444;270;150;160.4;57;56.9;14;14.0;28.8;-1.0;
22/07/2019 13:15:12;117;0;244.75;16;25.73;9.14;628.4;7.00;68497;4854.459;-13038.444;270;150;158.4;57;56.9;15;14.9;28.7;-1.0;
22/07/2019 13:15:32;117;0;245.04;16;26.24;10.19;623.1;7.00;68501;4854.459;-13038.444;270;150;158.4;57;56.9;15;15.3;28.7;-1.0;
22/07/2019 13:15:52;117;0;246.99;16;26.07;10.15;617.7;7.00;68494;4854.459;-13038.444;270;150;160.4;57;57.1;15;15.8;28.7;-1.0;
22/07/2019 13:16:12;117;0;249.73;16;25.77;10.17;612.4;7.00;68498;4854.459;-13038.444;270;150;160.4;57;56.9;14;14.0;28.7;-1.0;
22/07/2019 13:16:32;117;0;250.39;16;25.71;8.87;607.2;7.00;68500;4854.459;-13038.444;270;150;160.4;57;57.1;14;13.1;28.8;-1.0;
22/07/2019 13:16:52;117;0;250.39;16;25.73;8.91;602.0;7.00;68500;4854.459;-13038.444;270;150;160.4;57;57.1;15;14.9;28.7;-1.0;
22/07/2019 13:17:12;117;0;253.41;16;25.25;10.24;597.0;7.00;68494;4854.459;-13038.444;270;150;160.4;57;56.9;15;15.3;28.7;-1.0;
22/07/2019 13:17:32;117;0;258.10;16;25.26;10.26;591.9;6.90;68487;4854.459;-13038.444;270;150;158.4;57;57.1;11;10.8;28.7;-1.0;
22/07/2019 13:17:52;117;0;257.59;16;25.71;7.59;586.8;6.90;68490;4854.459;-13038.444;270;150;160.4;57;57.1;13;13.1;28.8;-1.0;
22/07/2019 13:18:12;117;0;258.80;16;25.42;9.19;581.6;6.90;68480;4854.459;-13038.444;270;150;160.4;57;57.1;13;13.5;28.8;-1.0;
22/07/2019 13:18:32;117;0;261.21;16;25.26;9.17;576.5;6.90;68485;4854.459;-13038.444;270;150;160.4;57;57.1;11;10.8;28.7;-1.0;
22/07/2019 13:18:52;117;0;262.62;16;25.39;7.40;571.5;6.90;68484;4854.459;-13038.444;270;150;158.4;57;56.9;11;9.9;28.8;-1.0;
22/07/2019 13:19:12;117;0;261.92;16;25.55;7.40;566.4;6.90;68493;4854.459;-13038.444;270;150;160.4;57;56.9;12;12.2;28.7;-1.0;
22/07/2019 13:19:32;117;0;260.33;16;25.61;8.81;561.4;6.90;68482;4854.459;-13038.444;270;150;160.4;57;57.1;12;12.6;28.7;-1.0;
22/07/2019 13:19:52;117;0;262.99;16;25.15;8.82;556.3;6.90;68490;4854.459;-13038.444;270;150;160.4;57;56.9;10;9.9;28.7;-1.0;
22/07/2019 13:20:12;117;0;263.78;16;25.16;7.16;551.4;6.90;68493;4854.459;-13038.444;270;150;160.4;57;57.1;10;9.5;28.7;-1.0;
22/07/2019 13:20:32;117;0;263.60;16;25.24;7.11;546.5;6.90;68500;4854.459;-13038.444;270;150;160.4;57;56.9;10;9.5;28.7;-1.0;
22/07/2019 13:20:52;117;0;260.43;16;25.41;7.16;541.5;6.90;68490;4854.459;-13038.444;270;150;160.4;57;57.1;11;11.3;28.7;-1.0;
22/07/2019 13:21:12;117;0;258.69;16;25.44;8.33;536.6;6.90;68496;4854.459;-13038.444;270;150;160.4;57;56.9;12;12.2;28.7;-1.0;
22/07/2019 13:21:32;117;0;261.14;16;24.92;8.97;531.6;6.90;68499;4854.459;-13038.444;270;150;160.4;57;56.9;9;9.0;28.7;-1.0;
22/07/2019 13:21:52;117;0;261.72;16;24.97;6.90;526.8;6.90;68509;4854.459;-13038.444;270;150;160.4;57;57.1;9;8.6;28.7;-1.0;
22/07/2019 13:22:12;117;0;258.96;16;25.35;6.87;521.9;6.90;68501;4854.459;-13038.444;270;150;160.4;57;57.1;11;11.3;28.7;-1.0;
22/07/2019 13:22:32;117;0;258.62;16;24.96;8.32;517.0;6.90;68501;4854.459;-13038.444;270;150;160.4;57;57.1;10;9.5;28.7;-1.0;
22/07/2019 13:22:52;117;0;261.35;16;24.82;7.00;512.2;6.90;68505;4854.459;-13038.444;270;150;160.4;57;56.9;8;8.1;28.7;-1.0;
22/07/2019 13:23:12;117;0;263.63;16;24.60;6.55;507.2;6.90;68509;4854.459;-13038.444;270;150;160.4;57;56.9;7;7.2;28.8;-1.0;
22/07/2019 13:23:32;117;0;262.46;16;25.14;5.78;502.5;6.90;68512;4854.459;-13038.444;270;150;160.4;57;57.1;8;8.1;28.7;-1.0;
22/07/2019 13:23:52;117;0;260.91;16;25.15;6.87;497.4;6.90;68507;4854.459;-13038.444;270;150;160.4;57;57.1;9;9.5;28.7;-1.0;
22/07/2019 13:24:12;117;0;258.08;16;25.17;7.58;492.5;6.90;68506;4854.459;-13038.444;270;150;160.4;57;56.9;10;9.9;28.7;-1.0;
22/07/2019 13:24:32;117;0;260.05;16;24.74;7.56;487.7;6.90;68507;4854.459;-13038.444;270;150;160.4;57;56.9;8;8.1;28.7;-1.0;
22/07/2019 13:24:52;117;0;259.36;16;24.82;6.36;483.0;6.90;68507;4854.459;-13038.444;270;150;160.4;57;56.9;8;7.7;28.8;-1.0;
22/07/2019 13:25:12;117;0;259.21;16;24.73;6.34;478.0;6.90;68501;4854.459;-13038.444;270;150;160.4;57;56.9;8;7.7;28.7;-1.0;
22/07/2019 13:25:32;117;0;255.15;16;25.07;6.39;473.3;6.90;68501;4854.459;-13038.444;270;150;160.4;57;57.1;10;9.9;28.8;-1.0;
22/07/2019 13:25:52;117;0;254.69;16;24.79;7.66;468.5;6.90;68498;4854.459;-13038.444;270;150;160.4;57;56.9;10;10.4;28.7;-1.0;
22/07/2019 13:26:12;117;0;253.43;16;24.56;7.68;463.8;6.90;68498;4854.459;-13038.444;270;150;160.4;57;57.1;10;10.4;28.7;-1.0;
22/07/2019 13:26:32;117;0;253.21;16;24.42;7.69;459.3;6.90;68506;4854.459;-13038.444;270;150;160.4;57;56.9;10;10.4;28.8;-1.0;
22/07/2019 13:26:52;117;0;251.90;16;24.48;7.74;454.7;6.90;68507;4854.459;-13038.444;270;150;160.4;57;57.1;10;10.4;28.7;-1.0;
22/07/2019 13:27:12;117;0;251.36;16;24.32;7.77;450.3;6.90;68506;4854.459;-13038.444;270;150;160.4;57;56.9;10;10.4;28.7;-1.0;
22/07/2019 13:27:32;117;0;250.06;16;24.52;7.73;445.7;6.90;68519;4854.459;-13038.444;270;150;160.4;57;57.1;10;10.4;28.7;-1.0;
22/07/2019 13:27:52;117;0;250.84;16;24.23;7.71;441.1;6.90;68511;4854.459;-13038.444;270;150;160.4;57;57.1;10;10.4;28.8;-1.0;
22/07/2019 13:28:12;117;0;252.43;16;24.04;7.66;436.7;6.90;68523;4854.459;-13038.444;270;150;160.4;57;56.9;9;9.0;28.7;-1.0;
22/07/2019 13:28:32;117;0;252.43;16;24.11;7.03;432.3;6.90;68516;4854.459;-13038.444;270;150;160.4;57;57.1;9;8.6;28.8;-1.0;
22/07/2019 13:28:52;117;0;252.51;16;24.22;6.98;427.8;6.90;68519;4854.459;-13038.444;270;150;160.4;57;57.1;9;9.0;28.8;-1.0;
22/07/2019 13:29:12;117;0;252.04;16;24.14;7.04;423.5;6.90;68524;4854.459;-13038.444;270;150;160.4;57;56.9;9;9.0;28.8;-1.0;
22/07/2019 13:29:32;117;0;250.54;16;24.06;6.84;419.1;6.90;68518;4854.459;-13038.444;270;150;160.4;57;57.1;11;10.8;28.7;-1.0;
22/07/2019 13:29:52;117;0;250.97;16;23.95;8.38;414.8;6.90;68524;4854.459;-13038.444;270;150;160.4;57;56.9;10;9.9;28.7;-1.0;
22/07/2019 13:30:12;117;0;249.79;16;24.08;7.19;410.4;6.90;68526;4854.459;-13038.444;270;150;160.4;57;57.1;11;10.8;28.7;-1.0;
22/07/2019 13:30:32;117;0;251.43;16;23.91;8.51;406.1;6.90;68531;4854.459;-13038.444;270;150;160.4;57;57.1;10;9.9;28.7;-1.0;
22/07/2019 13:30:52;117;0;252.45;16;23.67;7.19;401.7;7.00;68533;4854.459;-13038.444;270;150;160.4;57;57.1;9;9.0;28.7;-1.0;
22/07/2019 13:31:12;117;0;253.22;16;23.65;7.22;397.4;7.00;68535;4854.459;-13038.444;270;150;160.4;57;57.1;9;9.5;28.7;-1.0;
22/07/2019 13:31:32;117;0;254.31;16;23.62;7.21;393.3;7.00;68551;4854.459;-13038.444;270;150;160.4;57;57.1;9;9.5;28.7;-1.0;
22/07/2019 13:31:52;117;0;253.25;16;23.94;7.15;388.9;7.00;68548;4854.459;-13038.444;270;150;160.4;57;57.1;9;9.0;28.7;-1.0;
22/07/2019 13:32:12;117;0;252.88;16;23.88;7.13;384.5;7.00;68553;4854.459;-13038.444;270;150;160.4;57;57.1;9;9.5;28.8;-1.0;
22/07/2019 13:32:32;117;0;251.64;16;23.90;7.17;380.1;7.00;68558;4854.459;-13038.444;270;150;160.4;57;57.1;9;9.0;28.7;-1.0;
22/07/2019 13:32:52;117;0;252.42;16;23.84;7.20;375.7;7.00;68558;4854.459;-13038.444;270;150;160.4;57;56.9;9;9.0;28.7;-1.0;
22/07/2019 13:33:12;117;0;252.62;16;23.73;7.32;371.3;7.00;68558;4854.459;-13038.444;270;150;162.4;57;57.1;9;9.0;28.8;-1.0;
22/07/2019 13:33:32;117;0;251.64;16;23.82;7.19;366.9;7.00;68558;4854.459;-13038.444;270;150;160.4;57;56.9;9;9.5;28.8;-1.0;
22/07/2019 13:33:52;117;0;252.85;16;23.55;7.17;362.4;7.00;68566;4854.459;-13038.444;270;150;162.4;57;57.1;9;9.5;28.8;-1.0;
22/07/2019 13:34:12;117;0;256.13;16;23.20;7.24;358.1;7.10;68568;4854.459;-13038.444;270;150;160.4;57;57.1;9;9.0;28.7;-1.0;
22/07/2019 13:34:32;117;0;257.75;16;23.29;7.23;353.8;7.10;68561;4854.459;-13038.444;270;150;160.4;57;57.1;8;8.1;28.7;-1.0;
22/07/2019 13:34:52;117;0;256.71;16;23.52;6.47;349.5;7.00;68560;4854.459;-13038.444;270;150;160.4;57;57.1;9;9.0;28.7;-1.0;
22/07/2019 13:35:12;117;0;258.80;16;23.29;7.60;345.0;7.10;68566;4854.459;-13038.444;270;150;160.4;57;57.1;8;8.1;28.7;-1.0;
22/07/2019 13:35:32;117;0;257.92;16;23.56;6.32;340.7;7.10;68571;4854.459;-13038.444;270;150;160.4;57;57.1;9;9.0;28.7;-1.0;
22/07/2019 13:35:52;117;0;256.95;16;23.47;7.56;336.3;7.10;68577;4854.459;-13038.444;270;150;160.4;57;57.1;9;9.9;28.7;-1.0;
22/07/2019 13:36:12;117;0;255.89;16;23.33;7.62;332.0;7.10;68574;4854.459;-13038.444;270;150;160.4;57;57.1;10;9.9;28.7;-1.0;
22/07/2019 13:36:32;117;0;258.19;16;22.97;7.64;327.7;7.10;68587;4854.459;-13038.444;270;150;162.4;57;57.1;7;6.8;28.8;-1.0;
22/07/2019 13:36:52;117;0;257.51;16;23.10;5.90;323.4;7.10;68587;4854.459;-13038.444;270;150;160.4;57;57.1;8;8.1;28.8;-1.0;
22/07/2019 13:37:12;117;0;256.40;16;23.00;7.10;319.2;7.10;68587;4854.459;-13038.444;270;150;160.4;57;56.9;9;9.0;28.7;-1.0;
22/07/2019 13:37:32;117;0;255.60;16;22.99;7.68;315.0;7.10;68585;4854.459;-13038.444;270;150;160.4;57;57.1;9;9.9;28.7;-1.0;
22/07/2019 13:37:52;117;0;256.71;16;22.74;7.68;310.9;7.10;68590;4854.459;-13038.444;270;150;160.4;57;56.9;8;8.1;28.7;-1.0;
22/07/2019 13:38:12;117;0;257.34;16;22.70;6.45;306.9;7.20;68594;4854.459;-13038.444;270;150;160.4;57;56.9;8;7.7;28.7;-1.0;
22/07/2019 13:38:32;117;0;257.33;16;22.85;6.48;302.8;7.20;68603;4854.459;-13038.444;270;150;160.4;57;57.1;8;7.7;28.7;-1.0;
22/07/2019 13:38:52;117;0;256.56;16;22.80;6.52;298.7;7.20;68602;4854.459;-13038.444;270;150;162.4;57;56.9;8;7.7;28.8;-1.0;
22/07/2019 13:39:12;117;0;258.24;16;22.65;6.54;294.6;7.20;68604;4854.459;-13038.444;270;150;162.4;57;56.9;7;6.8;28.7;-1.0;
22/07/2019 13:39:32;117;0;259.02;16;22.61;5.99;290.6;7.20;68606;4854.459;-13038.444;270;150;160.4;57;56.9;6;5.4;28.7;-1.0;
22/07/2019 13:39:52;117;0;258.88;16;22.97;5.30;286.5;7.20;68611;4854.459;-13038.444;270;150;160.4;57;56.9;7;7.2;28.7;-1.0;
22/07/2019 13:40:12;117;0;259.86;16;22.69;6.50;282.3;7.20;68610;4854.459;-13038.444;270;150;160.4;57;56.9;6;5.9;28.7;-1.0;
22/07/2019 13:40:32;117;0;260.05;16;22.87;5.35;278.0;7.20;68615;4854.459;-13038.444;270;150;160.4;57;57.1;6;5.4;28.7;-1.0;
22/07/2019 13:40:52;117;0;259.01;16;22.87;5.41;273.9;7.30;68621;4854.459;-13038.444;270;150;160.4;57;57.1;6;5.4;28.7;-1.0;
22/07/2019 13:41:12;117;0;257.10;16;22.83;5.33;269.7;7.30;68623;4854.459;-13038.444;270;150;160.4;57;56.9;7;7.2;28.7;-1.0;
22/07/2019 13:41:32;117;0;257.25;16;22.52;6.65;265.6;7.30;68623;4854.459;-13038.444;270;150;162.4;57;57.1;7;7.7;28.7;-1.0;
22/07/2019 13:41:52;117;0;257.00;16;22.48;6.62;261.7;7.30;68622;4854.459;-13038.444;270;150;160.4;57;57.1;7;7.7;28.7;-1.0;
22/07/2019 13:42:12;117;0;259.54;16;22.25;6.63;257.6;7.30;68633;4854.459;-13038.444;270;150;160.4;57;57.1;5;5.0;28.8;-1.0;
22/07/2019 13:42:33;117;0;257.70;16;22.43;4.99;253.8;7.30;68634;4854.459;-13038.444;270;150;160.4;57;57.1;6;5.9;28.7;-1.0;
22/07/2019 13:42:53;117;0;256.72;16;22.61;6.08;249.8;7.30;68634;4854.459;-13038.444;270;150;160.4;57;57.1;7;7.2;28.8;-1.0;
22/07/2019 13:43:13;117;0;256.59;16;22.56;6.66;245.8;7.40;68640;4854.459;-13038.444;270;150;160.4;57;56.9;6;5.4;28.8;-1.0;
22/07/2019 13:43:33;117;0;254.11;16;22.68;5.19;241.8;7.40;68648;4854.459;-13038.444;270;150;160.4;57;57.1;6;5.0;28.8;-1.0;
22/07/2019 13:43:53;117;0;252.74;16;22.48;5.24;237.9;7.40;68639;4854.459;-13038.444;270;150;160.4;57;57.1;6;5.0;28.7;-1.0;
22/07/2019 13:44:13;117;0;250.94;16;22.67;5.14;233.9;7.40;68653;4854.459;-13038.444;270;150;160.4;57;57.1;8;8.1;28.7;-1.0;
22/07/2019 13:44:33;117;0;252.33;16;22.23;7.22;230.0;7.40;68661;4854.459;-13038.444;270;150;160.4;57;57.1;7;7.2;28.7;-1.0;
22/07/2019 13:44:53;117;0;253.06;16;22.07;5.99;226.2;7.40;68660;4854.459;-13038.444;270;150;160.4;57;57.1;7;6.8;28.7;-1.0;
22/07/2019 13:45:13;117;0;255.13;16;21.83;6.02;222.4;7.40;68654;4854.459;-13038.444;270;150;160.4;57;57.1;7;6.8;28.7;-1.0;
22/07/2019 13:45:33;117;0;256.60;16;21.84;6.02;218.7;7.40;68664;4854.459;-13038.444;270;150;160.4;57;57.1;7;6.8;28.7;-1.0;
22/07/2019 13:45:53;117;0;254.27;16;22.32;6.08;215.0;7.40;68656;4854.459;-13038.444;270;150;160.4;57;57.1;7;6.8;28.7;-1.0;
22/07/2019 13:46:13;117;0;251.49;16;22.51;6.00;211.1;7.50;68667;4854.459;-13038.444;270;150;160.4;57;57.1;7;6.3;28.7;-1.0;
22/07/2019 13:46:33;117;0;250.40;16;22.28;6.08;207.1;7.50;68657;4854.459;-13038.444;270;150;160.4;57;56.9;8;8.6;28.7;-1.0;
22/07/2019 13:46:53;117;0;252.84;16;21.78;7.29;203.3;7.50;68667;4854.459;-13038.444;270;150;162.4;57;57.1;7;7.2;28.8;-1.0;
22/07/2019 13:47:13;117;0;254.40;16;21.71;6.16;199.6;7.50;68670;4854.459;-13038.444;270;150;160.4;57;57.1;7;6.8;28.7;-1.0;
22/07/2019 13:47:33;117;0;256.88;16;21.46;6.19;195.9;7.50;68682;4854.459;-13038.444;270;150;162.4;57;57.1;7;6.8;28.8;-1.0;
22/07/2019 13:47:53;117;0;260.41;16;21.45;6.12;192.0;7.50;68687;4854.459;-13038.444;270;150;160.4;57;56.9;3;3.2;28.7;-1.0;
22/07/2019 13:48:13;117;0;261.55;16;21.66;4.24;188.4;7.50;68686;4854.459;-13038.444;270;150;160.4;57;56.9;3;2.7;28.7;-1.0;
22/07/2019 13:48:33;117;0;260.49;16;21.79;4.12;184.6;7.60;68683;4854.459;-13038.444;270;150;160.4;57;57.1;4;4.1;28.7;-1.0;
22/07/2019 13:48:53;117;0;256.52;16;22.13;5.11;180.6;7.60;68690;4854.459;-13038.444;270;150;160.4;57;56.9;7;7.7;28.7;-1.0;
22/07/2019 13:49:13;117;0;255.24;16;21.79;6.88;176.4;7.60;68694;4854.459;-13038.444;270;150;160.4;57;57.1;7;8.1;28.8;-1.0;
22/07/2019 13:49:33;117;0;256.05;16;21.53;6.95;172.5;7.60;68707;4854.459;-13038.444;270;150;162.4;57;56.9;6;5.9;28.8;-1.0;
22/07/2019 13:49:53;117;0;255.82;16;21.39;5.48;168.4;7.60;68700;4854.459;-13038.444;270;150;162.4;57;57.1;6;5.4;28.7;-1.0;
22/07/2019 13:50:13;117;0;257.33;16;21.13;5.54;164.6;7.60;68712;4854.459;-13038.444;270;150;160.4;57;56.9;4;4.1;28.7;-1.0;
22/07/2019 13:50:33;117;0;257.67;16;21.08;4.75;160.7;7.70;68709;4854.459;-13038.444;270;150;160.4;57;56.9;5;5.0;28.7;-1.0;
22/07/2019 13:50:53;117;0;260.58;16;20.84;5.58;156.8;7.70;68722;4854.459;-13038.444;270;150;160.4;57;56.9;3;3.2;28.7;-1.0;
22/07/2019 13:51:13;117;0;260.99;16;20.97;4.21;153.0;7.70;68722;4854.459;-13038.444;270;150;160.4;57;57.1;3;2.7;28.8;-1.0;
22/07/2019 13:51:33;117;0;253.65;16;21.03;4.13;149.1;7.70;68726;4854.459;-13038.444;270;150;160.4;57;56.9;3;2.7;28.7;-1.0;
22/07/2019 13:51:53;117;0;249.37;16;21.03;4.05;145.3;7.70;68720;4854.459;-13038.444;270;150;160.4;57;57.1;8;8.1;28.8;-1.0;
22/07/2019 13:52:13;117;0;250.28;16;20.35;7.23;141.4;7.80;68741;4854.459;-13038.444;270;150;160.4;57;56.9;7;7.2;28.7;-1.0;
22/07/2019 13:52:33;117;0;246.29;16;20.01;6.17;137.4;7.70;68733;4854.459;-13038.444;270;150;162.4;57;57.1;9;9.0;28.8;-1.0;
22/07/2019 13:52:53;117;0;250.61;16;18.90;7.67;134.1;7.80;68745;4854.459;-13038.444;270;150;160.4;57;56.9;6;5.9;28.7;-1.0;
22/07/2019 13:53:13;117;0;249.48;16;19.34;5.72;130.7;7.80;68742;4854.459;-13038.444;270;150;162.4;57;57.1;7;7.2;28.7;-1.0;
22/07/2019 13:53:33;117;0;252.68;16;18.53;6.86;127.4;7.80;68746;4854.459;-13038.444;270;150;160.4;57;57.1;5;5.0;28.7;-1.0;
22/07/2019 13:53:53;117;0;247.16;16;19.07;5.00;123.9;7.80;68740;4854.459;-13038.444;270;150;160.4;57;57.1;9;9.0;28.7;-1.0;
22/07/2019 13:54:13;117;0;249.78;16;17.47;7.72;120.6;7.80;68736;4854.459;-13038.444;270;150;160.4;57;57.1;7;7.2;28.7;-1.0;
22/07/2019 13:54:33;117;0;249.97;16;16.66;6.35;117.6;7.80;68743;4854.459;-13038.444;270;150;162.4;57;56.9;7;6.8;28.7;-1.0;
22/07/2019 13:54:53;117;0;246.27;16;16.52;6.60;115.0;7.90;68739;4854.459;-13038.444;270;150;160.4;57;57.1;9;9.5;28.7;-1.0;
22/07/2019 13:55:13;117;0;244.68;16;16.04;7.96;112.3;7.90;68737;4854.459;-13038.444;270;150;160.4;57;56.9;10;9.9;28.8;-1.0;
22/07/2019 13:55:33;117;0;246.43;16;15.49;8.07;109.6;7.90;68738;4854.459;-13038.444;270;150;160.4;57;57.1;9;9.0;28.7;-1.0;
22/07/2019 13:55:53;117;0;249.21;16;15.35;7.29;106.9;7.90;68740;4854.459;-13038.444;270;150;162.4;57;56.9;7;7.2;28.7;-1.0;
22/07/2019 13:56:13;117;0;253.48;16;15.35;6.42;104.3;7.90;68740;4854.459;-13038.444;270;150;160.4;57;57.1;7;6.8;28.8;-1.0;
22/07/2019 13:56:33;117;0;257.58;16;15.17;6.26;101.6;7.90;68745;4854.459;-13038.444;270;150;162.4;57;57.1;5;5.0;28.7;-1.0;
22/07/2019 13:56:53;117;0;251.91;16;15.11;5.07;98.9;7.90;68745;4854.459;-13038.444;270;150;162.4;57;57.1;5;4.5;28.7;-1.0;
22/07/2019 13:57:13;117;0;251.03;16;14.86;5.18;96.3;8.00;68730;4854.459;-13038.444;270;150;162.4;57;57.1;5;4.5;28.8;-1.0;
22/07/2019 13:57:33;117;0;256.42;16;14.50;5.27;93.9;8.00;68742;4854.459;-13038.444;270;150;160.4;57;57.1;5;4.5;28.7;-1.0;
22/07/2019 13:57:53;117;0;258.91;16;14.53;5.10;91.6;8.00;68751;4854.459;-13038.444;270;150;160.4;57;57.1;5;4.5;28.8;-1.0;
22/07/2019 13:58:13;117;0;259.86;16;14.38;5.25;89.2;8.00;68748;4854.459;-13038.444;270;150;160.4;57;57.1;5;4.5;28.7;-1.0;
22/07/2019 13:58:33;117;0;258.46;16;14.42;5.23;87.0;8.00;68760;4854.459;-13038.444;270;150;160.4;57;57.1;6;5.9;28.7;-1.0;
22/07/2019 13:58:53;117;0;261.30;16;14.04;6.51;84.7;8.00;68765;4854.459;-13038.444;270;150;160.4;57;56.9;4;4.1;28.7;-1.0;
22/07/2019 13:59:13;117;0;263.14;16;14.07;4.70;82.5;8.00;68762;4854.459;-13038.444;270;150;160.4;57;57.1;3;3.2;28.7;-1.0;
22/07/2019 13:59:33;117;0;265.85;16;14.13;4.29;80.4;8.00;68779;4854.459;-13038.444;270;150;162.4;57;57.1;2;1.4;28.7;-1.0;
22/07/2019 13:59:53;117;0;264.07;16;13.66;3.61;78.0;8.10;68792;4854.459;-13038.444;270;150;160.4;57;56.9;3;3.2;28.7;-1.0;
22/07/2019 14:00:13;117;0;264.50;16;13.64;4.97;75.8;8.10;68802;4854.459;-13038.444;270;150;164.4;57;56.9;3;4.1;28.7;-1.0;
22/07/2019 14:00:33;117;0;263.19;16;13.28;4.96;73.5;8.10;68807;4854.459;-13038.444;270;150;162.4;57;56.9;3;4.1;28.8;-1.0;
22/07/2019 14:00:53;117;0;267.27;16;13.14;5.06;71.3;8.10;68818;4854.459;-13038.444;270;150;160.4;57;56.9;0;0.0;28.8;-1.0;
22/07/2019 14:01:13;117;0;265.74;16;12.95;2.73;69.0;8.10;68835;4854.459;-13038.444;270;150;160.4;57;57.1;2;1.8;28.8;-1.0;
22/07/2019 14:01:33;117;0;262.03;16;12.95;4.15;66.7;8.20;68848;4854.459;-13038.444;270;150;160.4;57;57.1;3;3.6;28.7;-1.0;
22/07/2019 14:01:53;117;0;258.71;16;12.85;4.92;64.5;8.20;68868;4854.459;-13038.444;270;150;160.4;57;57.1;5;5.0;28.7;-1.0;
22/07/2019 14:02:13;117;0;257.04;16;12.75;5.82;62.3;8.20;68895;4854.459;-13038.444;270;150;160.4;57;57.1;4;4.1;28.7;-1.0;
22/07/2019 14:02:33;117;0;256.26;16;12.64;4.75;60.1;8.30;68906;4854.459;-13038.444;270;150;162.4;57;57.1;4;3.2;28.7;-1.0;
22/07/2019 14:02:53;117;0;255.19;16;12.49;4.71;58.1;8.30;68927;4854.459;-13038.444;270;150;160.4;57;56.9;4;3.2;28.7;-1.0;
