Timestamp;NavState;SecurityLevel;Heading;Declination;Pitch;Roll;Depth;Temperature;Pa;Lat;Lon;DesiredH;BallastCmd;BallastPos;LinCmd;LinPos;AngCmd;AngPos;Voltage;Altitude;
23/07/2019 04:01:49;117;0;132.61;16;8.52;3.33;9.4;10.30;69901;4850.641;-13024.924;145;150;160.4;57;56.9;-1;-0.9;28.6;-1.0;
23/07/2019 04:01:59;115;0;135.70;16;9.23;2.34;8.7;10.30;69898;4850.641;-13024.924;145;300;162.4;100;96.4;0;0.5;28.6;-1.0;
23/07/2019 04:02:09;115;0;121.69;16;-24.27;4.69;8.1;10.30;69857;4850.641;-13024.924;145;300;305.0;100;100.4;0;0.5;28.3;-1.0;
23/07/2019 04:02:19;115;0;114.39;16;-71.37;0.71;8.5;10.40;69691;4850.641;-13024.924;145;300;306.9;100;100.4;0;0.5;28.6;-1.0;
23/07/2019 04:02:29;115;0;131.44;16;-56.79;-0.58;6.7;10.50;69701;4850.641;-13024.924;145;300;306.9;100;100.4;0;0.5;28.6;-1.0;
23/07/2019 04:02:39;116;0;141.49;16;-42.42;3.48;4.0;10.50;69716;4850.641;-13024.924;145;300;308.9;100;100.3;0;0.5;28.6;-1.0;
23/07/2019 04:02:59;116;0;191.59;16;-24.45;6.69;2.8;10.60;69732;4850.641;-13024.924;145;300;308.9;100;100.3;0;0.5;28.6;-1.0;
23/07/2019 04:03:19;116;0;191.97;16;-38.12;7.31;3.2;10.80;69752;4850.641;-13024.924;145;300;308.9;100;100.3;0;0.5;28.6;-1.0;
23/07/2019 04:03:39;116;0;198.81;16;-31.56;1.61;2.9;10.90;69765;4849.284;-13021.624;145;300;308.9;100;100.3;0;0.5;28.6;-1.0;
23/07/2019 04:03:59;116;0;181.16;16;-37.16;3.32;3.0;11.00;69768;4849.284;-13021.623;145;300;308.9;100;100.4;0;0.5;28.6;-1.0;
23/07/2019 04:04:19;116;0;176.19;16;-35.81;7.48;3.1;11.10;69788;4849.283;-13021.624;145;300;308.9;100;100.3;0;0.5;28.6;-1.0;
23/07/2019 04:04:39;116;0;166.09;16;-35.40;6.33;3.0;11.20;69800;4849.281;-13021.621;145;300;308.9;100;100.4;0;0.5;28.6;-1.0;
23/07/2019 04:04:59;116;0;187.73;16;-26.42;5.07;2.9;11.30;69815;4849.277;-13021.616;145;300;308.9;100;100.3;0;0.5;28.6;-1.0;
23/07/2019 04:05:19;116;0;176.80;16;-41.55;-5.89;3.1;11.40;69821;4849.272;-13021.600;145;300;308.9;100;100.3;0;0.5;28.6;-1.0;
23/07/2019 04:05:39;116;0;188.77;16;-40.86;11.69;3.1;11.50;69837;4849.269;-13021.597;145;300;308.9;100;100.4;0;0.5;28.6;-1.0;
23/07/2019 04:05:59;116;0;180.47;16;-25.22;5.18;2.8;11.60;69847;4849.268;-13021.597;145;300;308.9;100;100.3;0;0.5;28.6;-1.0;
23/07/2019 04:06:19;116;0;190.32;16;-31.36;-0.22;2.9;11.70;69855;4849.267;-13021.599;145;300;308.9;100;100.3;0;0.5;28.6;-1.0;
23/07/2019 04:06:57;116;0;184.72;16;-37.73;7.95;3.1;11.90;69871;4849.267;-13021.599;145;300;308.9;100;100.3;0;0.5;28.6;-1.0;
23/07/2019 04:07:17;116;0;185.57;16;-31.83;3.98;3.0;12.00;69881;4849.267;-13021.599;145;300;308.9;100;100.4;0;0.5;28.6;-1.0;
23/07/2019 04:07:37;116;0;168.36;16;-28.61;5.69;2.9;12.10;69889;4849.266;-13021.600;145;300;308.9;100;100.3;0;0.5;28.6;-1.0;
23/07/2019 04:07:57;116;0;181.73;16;-33.21;-0.15;3.0;12.20;69901;4849.265;-13021.603;145;300;308.9;100;100.3;0;0.5;28.6;-1.0;
23/07/2019 04:08:17;116;0;185.72;16;-34.09;13.57;3.1;12.30;69912;4849.265;-13021.603;145;300;308.9;100;100.3;0;0.5;28.6;-1.0;
23/07/2019 04:08:37;116;0;221.07;16;-31.86;-0.36;3.1;12.40;69919;4849.264;-13021.602;145;300;308.9;100;100.3;0;0.5;28.6;-1.0;
23/07/2019 04:08:57;116;0;204.27;16;-31.24;7.15;3.0;12.50;69930;4849.264;-13021.603;145;300;308.9;100;100.4;0;0.5;28.6;-1.0;
23/07/2019 04:09:17;116;0;191.73;16;-34.31;1.85;2.9;12.60;69932;4849.264;-13021.605;145;300;308.9;100;100.4;0;0.5;28.6;-1.0;
23/07/2019 04:09:37;116;0;179.41;16;-34.33;3.52;3.2;12.70;69937;4849.264;-13021.605;145;300;308.9;100;100.3;0;0.5;28.6;-1.0;
23/07/2019 04:09:57;116;0;182.40;16;-35.99;4.60;3.0;12.80;69942;4849.263;-13021.607;145;300;308.9;100;100.4;0;0.5;28.6;-1.0;
23/07/2019 04:10:17;116;0;171.54;16;-30.12;6.03;2.9;12.80;69954;4849.263;-13021.608;145;300;308.9;100;100.3;0;0.5;28.6;-1.0;
23/07/2019 04:10:55;116;0;195.91;16;-36.95;0.39;3.1;13.00;69965;4849.263;-13021.607;145;300;308.9;100;100.3;0;0.5;28.6;-1.0;
23/07/2019 04:11:15;116;0;186.31;16;-32.09;2.08;3.0;13.10;69973;4849.263;-13021.607;145;300;308.9;100;100.4;0;0.5;28.5;-1.0;
23/07/2019 04:11:35;116;0;182.69;16;-28.99;3.09;2.9;13.20;69980;4849.263;-13021.608;145;300;308.9;100;100.3;0;0.5;28.6;-1.0;
23/07/2019 04:11:55;116;0;193.50;16;-46.23;12.19;3.3;13.30;69977;4849.262;-13021.609;145;300;306.9;100;100.3;0;0.5;28.6;-1.0;
23/07/2019 04:12:15;116;0;185.30;16;-28.61;5.37;2.9;13.30;69992;4849.262;-13021.610;145;300;306.9;100;100.4;0;0.5;28.7;-1.0;
23/07/2019 04:12:35;116;0;191.68;16;-33.73;4.79;3.0;13.40;70001;4849.261;-13021.610;145;300;308.9;100;100.3;0;0.5;28.6;-1.0;
23/07/2019 04:12:55;116;0;198.28;16;-38.93;6.67;3.1;13.50;70009;4849.261;-13021.611;145;300;306.9;100;100.4;0;0.5;28.6;-1.0;
23/07/2019 04:13:15;110;0;211.14;16;-25.35;-0.24;2.8;13.60;70008;4849.261;-13021.611;145;-500;196.0;100;100.3;0;0.5;28.6;-1.0;
23/07/2019 04:13:25;110;0;196.88;16;-30.18;6.38;2.9;13.60;70275;4849.261;-13021.611;145;-500;37.6;100;100.4;0;0.5;28.6;-1.0;
23/07/2019 04:13:35;110;0;221.06;16;-38.27;-0.92;3.5;13.60;70484;4849.261;-13021.611;145;-500;-148.5;100;100.4;0;0.5;28.6;-1.0;
23/07/2019 04:13:45;110;0;216.13;16;-67.97;-12.91;4.2;13.60;70772;4849.261;-13021.611;145;-500;-354.5;91;90.9;0;0.5;28.6;-1.0;
23/07/2019 04:13:55;110;0;210.62;16;-55.56;1.08;5.8;13.70;71119;4849.261;-13021.611;145;-500;-501.0;79;79.0;0;0.5;28.6;-1.0;
23/07/2019 04:14:05;110;0;206.71;16;-48.25;4.10;8.6;13.70;71342;4849.261;-13021.611;145;-500;-501.0;71;70.9;0;0.5;28.6;-1.0;
23/07/2019 04:14:15;100;0;203.48;16;-37.36;3.18;12.4;13.70;71343;4849.261;-13021.611;145;-500;-499.0;70;69.9;0;0.5;28.6;-1.0;
23/07/2019 04:14:35;100;0;192.46;16;-30.21;3.64;19.2;13.80;71351;4849.261;-13021.611;145;-500;-501.0;70;69.7;37;37.5;28.6;0.0;
23/07/2019 04:14:55;100;0;169.36;16;-22.00;20.79;25.1;13.90;71301;4849.261;-13021.611;145;-500;-499.0;70;69.7;14;14.0;28.7;0.0;
23/07/2019 04:15:15;100;0;146.20;16;-23.34;9.23;29.2;13.90;71209;4849.261;-13021.611;145;-500;-497.0;70;69.7;0;0.0;28.6;0.0;
23/07/2019 04:15:35;100;0;136.43;16;-24.93;3.08;33.2;13.90;71134;4849.261;-13021.611;145;-500;-499.0;70;69.6;-1;-0.9;28.6;0.0;
23/07/2019 04:15:55;100;0;130.18;16;-24.08;2.34;37.5;13.80;71034;4849.261;-13021.611;145;-500;-497.0;70;69.7;-1;-1.8;28.6;0.0;
23/07/2019 04:16:15;100;0;123.55;16;-24.38;2.44;41.5;13.80;70968;4849.261;-13021.611;145;-500;-497.0;70;69.6;-1;-1.8;28.7;0.0;
23/07/2019 04:16:35;100;0;114.64;16;-24.50;2.50;45.4;13.70;70896;4849.261;-13021.611;145;-500;-497.0;70;69.7;-5;-5.4;28.6;0.0;
23/07/2019 04:16:55;100;0;109.68;16;-24.11;0.57;49.6;13.70;70836;4849.261;-13021.611;145;-500;-497.0;70;69.7;-5;-5.9;28.7;0.0;
23/07/2019 04:17:15;100;0;97.52;16;-24.08;0.65;53.6;13.60;70772;4849.261;-13021.611;145;-500;-497.0;70;69.6;-10;-9.9;28.6;0.0;
23/07/2019 04:17:35;100;0;96.03;16;-24.12;-1.55;57.6;13.60;70724;4849.261;-13021.611;145;-500;-497.0;70;69.7;-8;-8.1;28.6;0.0;
23/07/2019 04:17:55;100;0;92.47;16;-24.04;-0.01;61.5;13.50;70677;4849.261;-13021.611;145;-500;-497.0;70;69.6;-9;-9.5;28.6;0.0;
23/07/2019 04:18:15;100;0;87.03;16;-23.86;-1.23;65.6;13.40;70630;4849.261;-13021.611;145;-500;-497.0;70;69.6;-11;-11.3;28.6;0.0;
23/07/2019 04:18:35;100;0;84.70;16;-23.82;-1.98;69.5;13.40;70583;4849.261;-13021.611;145;-500;-497.0;70;69.6;-11;-11.7;28.6;0.0;
23/07/2019 04:18:55;100;0;75.56;16;-24.28;-2.11;73.4;13.30;70551;4849.261;-13021.611;145;-500;-497.0;70;69.7;-17;-17.1;28.6;0.0;
23/07/2019 04:19:15;100;0;76.74;16;-23.70;-4.53;77.5;13.20;70504;4849.261;-13021.611;145;-500;-497.0;70;69.7;-16;-15.8;28.6;0.0;
23/07/2019 04:19:35;100;0;76.23;16;-23.46;-3.49;81.4;13.20;70479;4849.261;-13021.611;145;-500;-497.0;70;69.7;-17;-17.1;28.6;0.0;
23/07/2019 04:19:55;100;0;70.90;16;-23.72;-4.63;85.2;13.10;70442;4849.261;-13021.611;145;-500;-497.0;70;69.7;-23;-23.0;28.6;0.0;
23/07/2019 04:20:15;100;0;69.15;16;-23.27;-7.24;89.1;13.00;70418;4849.261;-13021.611;145;-500;-497.0;70;69.7;-24;-23.9;28.6;0.0;
23/07/2019 04:20:35;100;0;71.62;16;-22.79;-7.83;93.0;13.00;70386;4849.261;-13021.611;145;-500;-497.0;70;69.6;-25;-24.8;28.6;0.0;
23/07/2019 04:20:55;100;0;79.23;16;-22.46;-8.44;96.5;12.90;70376;4849.261;-13021.611;145;-500;-497.0;70;69.7;-21;-20.8;28.6;0.0;
23/07/2019 04:21:15;100;0;80.65;16;-22.57;-5.91;99.9;12.80;70343;4849.261;-13021.611;145;-500;-497.0;70;69.7;-22;-22.1;28.7;0.0;
23/07/2019 04:21:35;100;0;85.60;16;-22.63;-6.85;103.1;12.80;70340;4849.261;-13021.611;145;-500;-497.0;70;69.7;-20;-19.4;28.6;0.0;
23/07/2019 04:21:55;100;0;83.17;16;-22.15;-5.21;106.6;12.70;70326;4849.261;-13021.611;145;-500;-495.0;70;69.6;-23;-23.0;28.6;0.0;
23/07/2019 04:22:15;100;0;75.25;16;-22.18;-7.36;110.0;12.70;70317;4849.261;-13021.611;145;-500;-497.0;70;69.6;-28;-28.0;28.6;0.0;
23/07/2019 04:22:35;100;0;80.69;16;-20.77;-9.78;113.1;12.60;70306;4849.261;-13021.611;145;-500;-495.0;70;69.6;-24;-23.5;28.6;0.0;
23/07/2019 04:22:55;100;0;79.32;16;-20.93;-7.19;116.3;12.50;70303;4849.261;-13021.611;145;-500;-497.0;70;69.7;-24;-23.0;28.7;0.0;
23/07/2019 04:23:15;100;0;83.73;16;-20.06;-7.16;119.4;12.50;70291;4849.261;-13021.611;145;-500;-495.0;70;69.7;-22;-21.7;28.6;0.0;
23/07/2019 04:23:35;100;0;83.60;16;-20.29;-6.37;122.3;12.40;70268;4849.261;-13021.611;145;-500;-497.0;70;69.6;-23;-23.0;28.6;0.0;
23/07/2019 04:23:55;100;0;84.84;16;-20.24;-7.53;125.2;12.40;70278;4849.261;-13021.611;145;-500;-495.0;70;69.7;-23;-23.5;28.6;0.0;
23/07/2019 04:24:15;100;0;88.72;16;-19.81;-7.55;128.2;12.30;70266;4849.261;-13021.611;145;-500;-497.0;70;69.6;-21;-21.2;28.6;0.0;
23/07/2019 04:24:35;100;0;89.48;16;-19.86;-6.09;131.0;12.20;70265;4849.261;-13021.611;145;-500;-497.0;70;69.7;-21;-20.3;28.6;0.0;
23/07/2019 04:24:55;100;0;90.96;16;-19.83;-6.07;133.8;12.20;70247;4849.261;-13021.611;145;-500;-495.0;70;69.6;-21;-20.3;28.6;0.0;
23/07/2019 04:25:15;100;0;89.24;16;-19.62;-6.05;136.7;12.10;70243;4849.261;-13021.611;145;-500;-495.0;70;69.6;-22;-22.1;28.6;0.0;
23/07/2019 04:25:35;100;0;91.37;16;-19.51;-7.10;139.5;12.10;70237;4849.261;-13021.611;145;-500;-497.0;70;69.6;-21;-20.8;28.6;0.0;
23/07/2019 04:25:55;100;0;87.11;16;-19.53;-6.02;142.6;12.10;70232;4849.261;-13021.611;145;-500;-493.1;70;69.6;-24;-24.4;28.6;0.0;
23/07/2019 04:26:15;100;0;85.66;16;-19.60;-8.05;145.4;12.00;70219;4849.261;-13021.611;145;-500;-495.0;70;69.6;-24;-24.8;28.6;0.0;
23/07/2019 04:26:35;100;0;85.33;16;-19.57;-8.10;148.2;11.90;70216;4849.261;-13021.611;145;-500;-495.0;70;69.6;-24;-24.4;28.6;0.0;
23/07/2019 04:26:55;100;0;86.49;16;-19.61;-8.14;151.0;11.90;70212;4849.261;-13021.611;145;-500;-495.0;70;69.6;-23;-23.0;28.6;0.0;
23/07/2019 04:27:15;100;0;86.75;16;-19.49;-6.95;153.9;11.80;70201;4849.261;-13021.611;145;-500;-495.0;70;69.7;-23;-22.1;28.6;0.0;
23/07/2019 04:27:35;100;0;86.83;16;-19.54;-6.95;156.6;11.80;70193;4849.261;-13021.611;145;-500;-495.0;70;69.6;-23;-22.1;28.6;0.0;
23/07/2019 04:27:55;100;0;87.34;16;-19.36;-6.97;159.5;11.70;70183;4849.261;-13021.611;145;-500;-495.0;70;69.6;-22;-22.1;28.7;0.0;
23/07/2019 04:28:15;100;0;88.44;16;-19.28;-6.95;162.3;11.70;70185;4849.261;-13021.611;145;-500;-495.0;70;69.7;-22;-22.1;28.6;0.0;
23/07/2019 04:28:35;100;0;87.92;16;-19.33;-6.94;165.2;11.60;70167;4849.261;-13021.611;145;-500;-497.0;70;69.6;-23;-23.0;28.6;0.0;
23/07/2019 04:28:55;100;0;90.08;16;-19.20;-7.56;168.1;11.60;70162;4849.261;-13021.611;145;-500;-497.0;70;69.6;-21;-21.2;28.6;0.0;
23/07/2019 04:29:15;100;0;92.19;16;-19.30;-6.03;171.0;11.50;70146;4849.261;-13021.611;145;-500;-495.0;70;69.6;-20;-19.9;28.6;0.0;
23/07/2019 04:29:35;100;0;94.30;16;-19.08;-6.05;173.9;11.50;70152;4849.261;-13021.611;145;-500;-495.0;70;69.6;-20;-20.3;28.6;0.0;
23/07/2019 04:29:55;100;0;97.03;16;-19.03;-6.08;176.8;11.50;70150;4849.261;-13021.611;145;-500;-495.0;70;69.6;-19;-19.0;28.7;0.0;
23/07/2019 04:30:15;100;0;98.47;16;-19.01;-5.21;179.7;11.40;70153;4849.261;-13021.611;145;-500;-495.0;70;69.6;-19;-18.1;28.7;0.0;
23/07/2019 04:30:35;100;0;97.71;16;-18.88;-5.16;182.6;11.40;70141;4849.261;-13021.611;145;-500;-495.0;70;69.7;-20;-19.9;28.6;0.0;
23/07/2019 04:30:55;100;0;96.08;16;-18.95;-6.04;185.5;11.30;70131;4849.261;-13021.611;145;-500;-495.0;70;69.6;-21;-21.2;28.6;0.0;
23/07/2019 04:31:15;100;0;97.75;16;-18.85;-6.79;188.4;11.30;70123;4849.261;-13021.611;145;-500;-495.0;70;69.6;-20;-19.4;28.6;0.0;
23/07/2019 04:31:35;100;0;95.88;16;-18.87;-5.34;191.2;11.20;70120;4849.261;-13021.611;145;-500;-495.0;70;69.6;-22;-22.1;28.6;0.0;
23/07/2019 04:31:55;100;0;97.07;16;-18.91;-7.04;194.1;11.20;70112;4849.261;-13021.611;145;-500;-497.0;70;69.6;-20;-19.9;28.6;0.0;
23/07/2019 04:32:15;100;0;96.90;16;-19.00;-5.50;196.8;11.10;70099;4849.261;-13021.611;145;-500;-497.0;70;69.6;-21;-21.2;28.6;0.0;
23/07/2019 04:32:35;100;0;98.06;16;-18.86;-6.64;199.6;11.10;70102;4849.261;-13021.611;145;-500;-495.0;70;69.6;-20;-19.9;28.7;0.0;
23/07/2019 04:32:55;100;0;98.81;16;-18.86;-5.46;202.3;11.10;70095;4849.261;-13021.611;145;-500;-497.0;70;69.7;-20;-19.0;28.6;0.0;
23/07/2019 04:33:15;100;0;99.42;16;-18.80;-5.45;205.0;11.00;70093;4849.261;-13021.611;145;-500;-495.0;70;69.6;-20;-19.0;28.6;0.0;
23/07/2019 04:33:35;100;0;98.09;16;-18.85;-5.41;207.6;11.00;70087;4849.261;-13021.611;145;-500;-495.0;70;69.6;-21;-21.7;28.6;0.0;
23/07/2019 04:33:55;100;0;98.73;16;-18.94;-6.85;210.4;10.90;70095;4849.261;-13021.611;145;-500;-495.0;70;69.6;-21;-22.1;28.6;0.0;
23/07/2019 04:34:15;100;0;99.15;16;-18.86;-6.81;213.0;10.90;70077;4849.261;-13021.611;145;-500;-495.0;70;69.6;-20;-19.9;28.6;0.0;
23/07/2019 04:34:35;100;0;99.00;16;-18.80;-5.61;215.7;10.90;70080;4849.261;-13021.611;145;-500;-495.0;70;69.6;-20;-19.4;28.6;0.0;
23/07/2019 04:34:55;100;0;99.33;16;-18.62;-5.64;218.3;10.80;70065;4849.261;-13021.611;145;-500;-495.0;70;69.7;-20;-19.4;28.7;0.0;
23/07/2019 04:35:15;100;0;99.64;16;-18.62;-5.66;220.9;10.80;70063;4849.261;-13021.611;145;-500;-495.0;70;69.6;-20;-19.4;28.6;0.0;
23/07/2019 04:35:35;100;0;100.38;16;-18.65;-5.64;223.5;10.80;70073;4849.261;-13021.611;145;-500;-495.0;70;69.6;-20;-19.4;28.7;0.0;
23/07/2019 04:35:55;100;0;99.67;16;-18.67;-5.61;226.0;10.70;70057;4849.261;-13021.611;145;-500;-495.0;70;69.6;-20;-19.4;28.6;0.0;
23/07/2019 04:36:15;100;0;100.47;16;-18.68;-5.68;228.6;10.70;70057;4849.261;-13021.611;145;-500;-495.0;70;69.6;-20;-19.4;28.7;0.0;
23/07/2019 04:36:36;100;0;100.10;16;-18.86;-5.64;231.0;10.60;70055;4849.261;-13021.611;145;-500;-495.0;70;69.6;-20;-19.4;28.6;0.0;
23/07/2019 04:36:56;100;0;98.56;16;-18.70;-5.60;233.5;10.60;70046;4849.261;-13021.611;145;-500;-495.0;70;69.6;-21;-21.2;28.6;0.0;
23/07/2019 04:37:16;100;0;99.05;16;-18.74;-6.76;235.9;10.50;70049;4849.261;-13021.611;145;-500;-497.0;70;69.6;-20;-19.9;28.6;0.0;
23/07/2019 04:37:36;100;0;98.61;16;-18.62;-5.44;238.5;10.50;70037;4849.261;-13021.611;145;-500;-495.0;70;69.6;-21;-21.2;28.6;0.0;
23/07/2019 04:37:56;100;0;98.48;16;-18.49;-6.65;241.0;10.50;70047;4849.261;-13021.611;145;-500;-495.0;70;69.6;-21;-21.7;28.6;0.0;
23/07/2019 04:38:16;100;0;99.34;16;-18.57;-6.66;243.4;10.50;70043;4849.261;-13021.611;145;-500;-495.0;70;69.6;-20;-19.9;28.6;0.0;
23/07/2019 04:38:36;100;0;100.54;16;-18.54;-5.50;245.8;10.40;70037;4849.261;-13021.611;145;-500;-497.0;70;69.6;-20;-19.0;28.6;0.0;
23/07/2019 04:38:56;100;0;101.19;16;-18.52;-5.48;248.3;10.40;70023;4849.261;-13021.611;145;-500;-495.0;70;69.6;-19;-19.0;28.6;0.0;
23/07/2019 04:39:16;100;0;101.74;16;-18.52;-5.46;250.8;10.40;70025;4849.261;-13021.611;145;-500;-497.0;70;69.6;-20;-19.9;28.6;0.0;
23/07/2019 04:39:36;100;0;102.75;16;-18.50;-6.05;253.2;10.30;70022;4849.261;-13021.611;145;-500;-495.0;70;69.6;-19;-19.0;28.7;0.0;
23/07/2019 04:39:56;100;0;103.35;16;-18.43;-5.23;255.7;10.30;70021;4849.261;-13021.611;145;-500;-497.0;70;69.7;-19;-18.5;28.6;0.0;
23/07/2019 04:40:16;100;0;103.77;16;-18.37;-5.18;258.2;10.30;70012;4849.261;-13021.611;145;-500;-495.0;70;69.6;-19;-18.5;28.7;0.0;
23/07/2019 04:40:36;100;0;104.19;16;-18.39;-5.16;260.6;10.20;70012;4849.261;-13021.611;145;-500;-497.0;70;69.6;-19;-18.5;28.7;0.0;
23/07/2019 04:40:56;100;0;103.33;16;-18.38;-5.14;263.0;10.20;69999;4849.261;-13021.611;145;-500;-497.0;70;69.6;-20;-20.3;28.6;0.0;
23/07/2019 04:41:16;100;0;101.43;16;-18.38;-6.24;265.5;10.20;70006;4849.261;-13021.611;145;-500;-495.0;70;69.6;-21;-21.7;28.7;0.0;
23/07/2019 04:41:36;100;0;101.25;16;-18.40;-6.77;268.0;10.10;70001;4849.261;-13021.611;145;-500;-495.0;70;69.6;-20;-19.4;28.6;0.0;
23/07/2019 04:41:56;100;0;101.12;16;-18.32;-5.32;270.5;10.10;70003;4849.261;-13021.611;145;-500;-495.0;70;69.6;-20;-18.5;28.6;0.0;
23/07/2019 04:42:16;100;0;99.75;16;-18.32;-5.33;272.8;10.10;69990;4849.261;-13021.611;145;-500;-495.0;70;69.6;-21;-21.2;28.6;0.0;
23/07/2019 04:42:36;100;0;100.31;16;-18.32;-6.77;275.3;10.10;69986;4849.261;-13021.611;145;-500;-495.0;70;69.6;-20;-19.9;28.6;0.0;
23/07/2019 04:42:56;100;0;101.61;16;-18.23;-5.52;277.8;10.00;69986;4849.261;-13021.611;145;-500;-495.0;70;69.6;-20;-19.0;28.6;0.0;
23/07/2019 04:43:16;100;0;100.53;16;-18.25;-5.49;280.2;10.00;69982;4849.261;-13021.611;145;-500;-495.0;70;69.6;-20;-19.0;28.6;0.0;
23/07/2019 04:43:36;100;0;100.77;16;-18.33;-5.58;282.7;10.00;69986;4849.261;-13021.611;145;-500;-495.0;70;69.6;-20;-19.0;28.6;0.0;
23/07/2019 04:43:56;100;0;102.20;16;-18.24;-5.56;285.2;10.00;69982;4849.261;-13021.611;145;-500;-495.0;70;69.6;-19;-19.0;28.7;0.0;
23/07/2019 04:44:16;100;0;102.88;16;-18.14;-5.52;287.6;9.90;69970;4849.261;-13021.611;145;-500;-493.1;70;69.6;-19;-19.0;28.6;0.0;
23/07/2019 04:44:36;100;0;102.69;16;-18.26;-5.55;290.1;9.90;69976;4849.261;-13021.611;145;-500;-495.0;70;69.7;-20;-19.9;28.7;0.0;
23/07/2019 04:44:56;100;0;101.69;16;-18.20;-6.09;292.6;9.90;69963;4849.261;-13021.611;145;-500;-495.0;70;69.6;-20;-20.3;28.6;0.0;
23/07/2019 04:45:16;100;0;100.72;16;-18.38;-6.03;295.0;9.90;69970;4849.261;-13021.611;145;-500;-495.0;70;69.7;-21;-21.7;28.6;0.0;
23/07/2019 04:45:36;100;0;100.99;16;-18.19;-6.96;297.6;9.80;69966;4849.261;-13021.611;145;-500;-495.0;70;69.6;-20;-19.9;28.6;0.0;
23/07/2019 04:45:56;100;0;100.65;16;-18.16;-5.41;300.2;9.80;69959;4849.261;-13021.611;145;-500;-495.0;70;69.6;-20;-18.5;28.6;0.0;
23/07/2019 04:46:16;100;0;100.32;16;-18.10;-5.41;302.7;9.80;69963;4849.261;-13021.611;145;-500;-495.0;70;69.6;-20;-18.5;28.7;0.0;
23/07/2019 04:46:36;100;0;99.61;16;-18.09;-5.39;305.3;9.80;69954;4849.261;-13021.611;145;-500;-497.0;70;69.6;-21;-21.2;28.6;0.0;
23/07/2019 04:46:56;100;0;99.98;16;-18.09;-6.80;307.8;9.70;69968;4849.261;-13021.611;145;-500;-495.0;70;69.6;-21;-21.7;28.6;0.0;
23/07/2019 04:47:16;100;0;100.35;16;-18.16;-6.80;310.4;9.70;69955;4849.261;-13021.611;145;-500;-495.0;70;69.6;-20;-19.9;28.6;0.0;
23/07/2019 04:47:36;100;0;101.16;16;-18.16;-5.57;312.9;9.70;69955;4849.261;-13021.611;145;-500;-495.0;70;69.6;-19;-19.0;28.6;0.0;
23/07/2019 04:47:56;100;0;101.64;16;-18.07;-5.55;315.6;9.70;69938;4849.261;-13021.611;145;-500;-495.0;70;69.6;-20;-19.9;28.6;0.0;
23/07/2019 04:48:16;100;0;102.64;16;-17.99;-6.20;318.2;9.60;69953;4849.261;-13021.611;145;-500;-495.0;70;69.6;-19;-19.0;28.6;0.0;
23/07/2019 04:48:36;100;0;103.24;16;-17.95;-5.21;320.8;9.60;69941;4849.261;-13021.611;145;-500;-495.0;70;69.6;-19;-18.1;28.6;0.0;
23/07/2019 04:48:56;100;0;103.85;16;-17.93;-5.23;323.5;9.60;69947;4849.261;-13021.611;145;-500;-495.0;70;69.6;-19;-18.1;28.6;0.0;
23/07/2019 04:49:16;100;0;104.32;16;-17.88;-5.15;326.1;9.60;69937;4849.261;-13021.611;145;-500;-495.0;70;69.6;-19;-18.1;28.6;0.0;
23/07/2019 04:49:36;100;0;103.96;16;-17.87;-5.17;328.6;9.60;69937;4849.261;-13021.611;145;-500;-493.1;70;69.6;-20;-19.9;28.6;0.0;
23/07/2019 04:49:56;100;0;103.58;16;-18.03;-6.20;331.2;9.50;69935;4849.261;-13021.611;145;-500;-497.0;70;69.6;-20;-20.3;28.6;0.0;
23/07/2019 04:50:16;100;0;103.53;16;-17.93;-6.14;333.9;9.50;69936;4849.261;-13021.611;145;-500;-495.0;70;69.6;-20;-20.3;28.6;0.0;
23/07/2019 04:50:36;100;0;105.61;16;-17.94;-6.19;336.5;9.50;69927;4849.261;-13021.611;145;-500;-495.0;70;69.6;-18;-18.1;28.6;0.0;
23/07/2019 04:50:56;100;0;105.40;16;-17.96;-4.72;339.1;9.50;69931;4849.261;-13021.611;145;-500;-495.0;70;69.6;-19;-19.4;28.6;0.0;
23/07/2019 04:51:16;100;0;106.19;16;-17.99;-5.82;341.6;9.50;69923;4849.261;-13021.611;145;-500;-495.0;70;69.6;-18;-17.6;28.6;0.0;
23/07/2019 04:51:36;100;0;106.47;16;-17.80;-4.60;344.3;9.40;69921;4849.261;-13021.611;145;-500;-495.0;70;69.6;-19;-19.0;28.6;0.0;
23/07/2019 04:51:56;100;0;106.48;16;-17.86;-5.74;346.8;9.40;69919;4849.261;-13021.611;145;-500;-495.0;70;69.6;-19;-19.4;28.7;0.0;
23/07/2019 04:52:16;100;0;106.36;16;-17.84;-5.74;349.5;9.40;69916;4849.261;-13021.611;145;-500;-493.1;70;69.6;-19;-19.4;28.6;0.0;
23/07/2019 04:52:36;100;0;105.73;16;-17.92;-5.70;352.0;9.40;69916;4849.261;-13021.611;145;-500;-495.0;70;69.6;-19;-19.4;28.6;0.0;
23/07/2019 04:52:56;100;0;105.74;16;-17.89;-5.80;354.5;9.40;69916;4849.261;-13021.611;145;-500;-495.0;70;69.6;-19;-19.4;28.6;0.0;
23/07/2019 04:53:16;100;0;106.23;16;-17.76;-5.76;357.0;9.30;69916;4849.261;-13021.611;145;-500;-495.0;70;69.6;-19;-19.4;28.6;0.0;
23/07/2019 04:53:36;100;0;105.82;16;-17.87;-5.76;359.5;9.30;69917;4849.261;-13021.611;145;-500;-493.1;70;69.6;-19;-19.4;28.6;0.0;
23/07/2019 04:53:56;100;0;106.01;16;-17.89;-5.72;362.0;9.30;69906;4849.261;-13021.611;145;-500;-493.1;70;69.6;-19;-19.4;28.6;0.0;
23/07/2019 04:54:16;100;0;107.31;16;-17.86;-5.77;364.6;9.30;69919;4849.261;-13021.611;145;-500;-495.0;70;69.6;-18;-18.1;28.6;0.0;
23/07/2019 04:54:36;100;0;106.42;16;-17.77;-4.94;367.0;9.30;69909;4849.261;-13021.611;145;-500;-495.0;70;69.6;-19;-19.0;28.7;0.0;
23/07/2019 04:54:56;100;0;105.69;16;-17.87;-5.74;369.4;9.20;69903;4849.261;-13021.611;145;-500;-495.0;70;69.6;-20;-19.9;28.6;0.0;
23/07/2019 04:55:16;100;0;105.35;16;-17.88;-6.22;371.8;9.20;69909;4849.261;-13021.611;145;-500;-495.0;70;69.6;-19;-19.0;28.6;0.0;
23/07/2019 04:55:36;100;0;104.79;16;-17.77;-5.08;374.3;9.20;69899;4849.261;-13021.611;145;-500;-493.1;70;69.6;-20;-19.9;28.6;0.0;
23/07/2019 04:55:56;100;0;104.22;16;-17.86;-6.18;376.7;9.20;69897;4849.261;-13021.611;145;-500;-495.0;70;69.6;-20;-20.3;28.6;0.0;
23/07/2019 04:56:16;100;0;103.86;16;-17.70;-6.17;379.1;9.20;69892;4849.261;-13021.611;145;-500;-495.0;70;69.6;-20;-20.3;28.6;0.0;
23/07/2019 04:56:36;100;0;104.31;16;-17.63;-6.16;381.6;9.20;69893;4849.261;-13021.611;145;-500;-495.0;70;69.6;-19;-19.0;28.6;0.0;
23/07/2019 04:56:56;100;0;105.02;16;-17.56;-5.35;383.9;9.10;69891;4849.261;-13021.611;145;-500;-495.0;70;69.6;-19;-18.5;28.7;0.0;
23/07/2019 04:57:16;100;0;104.18;16;-17.66;-5.28;386.2;9.10;69887;4849.261;-13021.611;145;-500;-495.0;70;69.6;-19;-18.5;28.6;0.0;
23/07/2019 04:57:36;100;0;103.09;16;-17.60;-5.32;388.6;9.10;69888;4849.261;-13021.611;145;-500;-495.0;70;69.6;-20;-19.9;28.6;0.0;
23/07/2019 04:57:56;100;0;102.55;16;-17.63;-6.20;391.0;9.10;69881;4849.261;-13021.611;145;-500;-493.1;70;69.6;-20;-20.3;28.6;0.0;
23/07/2019 04:58:16;100;0;102.74;16;-17.68;-6.19;393.2;9.10;69875;4849.261;-13021.611;145;-500;-495.0;70;69.6;-20;-20.3;28.6;0.0;
23/07/2019 04:58:36;100;0;103.15;16;-17.66;-6.19;395.5;9.00;69880;4849.261;-13021.611;145;-500;-497.0;70;69.6;-19;-19.0;28.7;0.0;
23/07/2019 04:58:56;100;0;103.05;16;-17.65;-5.28;397.9;9.00;69875;4849.261;-13021.611;145;-500;-495.0;70;69.6;-19;-18.5;28.6;0.0;
23/07/2019 04:59:16;100;0;101.97;16;-17.43;-5.24;400.2;9.00;69875;4849.261;-13021.611;145;-500;-495.0;70;69.6;-21;-21.2;28.6;0.0;
23/07/2019 04:59:36;100;0;102.24;16;-17.47;-6.78;402.4;9.00;69861;4849.261;-13021.611;145;-500;-495.0;70;69.6;-20;-19.9;28.6;0.0;
23/07/2019 04:59:56;100;0;102.57;16;-17.46;-5.68;404.7;9.00;69857;4849.261;-13021.611;145;-500;-495.0;70;69.6;-20;-19.4;28.6;0.0;
23/07/2019 05:00:16;100;0;102.78;16;-17.43;-5.67;407.1;9.00;69861;4849.261;-13021.611;145;-500;-493.1;70;69.6;-20;-19.0;28.6;0.0;
23/07/2019 05:00:36;100;0;102.48;16;-17.42;-5.61;409.4;8.90;69855;4849.261;-13021.611;145;-500;-495.0;70;69.6;-20;-19.0;28.6;0.0;
23/07/2019 05:00:56;100;0;102.65;16;-17.38;-5.60;411.7;8.90;69852;4849.261;-13021.611;145;-500;-493.1;70;69.6;-20;-19.0;28.6;0.0;
23/07/2019 05:01:16;100;0;102.99;16;-17.52;-5.65;414.1;8.90;69850;4849.261;-13021.611;145;-500;-495.0;70;69.6;-20;-19.0;28.6;0.0;
23/07/2019 05:01:36;100;0;102.60;16;-17.75;-5.65;416.4;8.90;69844;4849.261;-13021.611;145;-500;-495.0;70;69.6;-20;-19.4;28.7;0.0;
23/07/2019 05:01:56;100;0;101.40;16;-17.55;-5.68;418.6;8.90;69852;4849.261;-13021.611;145;-500;-495.0;70;69.6;-20;-19.0;28.6;0.0;
23/07/2019 05:02:16;100;0;100.88;16;-17.47;-5.58;421.0;8.90;69846;4849.261;-13021.611;145;-500;-495.0;70;69.6;-21;-21.7;28.6;0.0;
23/07/2019 05:02:36;100;0;101.94;16;-17.49;-7.06;423.3;8.80;69844;4849.261;-13021.611;145;-500;-495.0;70;69.6;-20;-19.9;28.6;0.0;
23/07/2019 05:02:56;100;0;101.73;16;-17.35;-5.51;425.8;8.80;69852;4849.261;-13021.611;145;-500;-493.1;70;69.6;-20;-19.0;28.7;0.0;
23/07/2019 05:03:16;100;0;100.82;16;-17.47;-5.51;428.2;8.80;69853;4849.261;-13021.611;145;-500;-495.0;70;69.6;-20;-19.0;28.7;0.0;
23/07/2019 05:03:36;100;0;100.37;16;-17.32;-5.51;430.5;8.80;69835;4849.261;-13021.611;145;-500;-493.1;70;69.6;-20;-19.0;28.6;0.0;
23/07/2019 05:03:56;100;0;100.06;16;-17.40;-5.53;432.9;8.80;69840;4849.261;-13021.611;145;-500;-495.0;70;69.6;-20;-19.0;28.6;0.0;
23/07/2019 05:04:16;100;0;99.07;16;-17.39;-5.52;435.3;8.80;69828;4849.261;-13021.611;145;-500;-493.1;70;69.6;-21;-21.2;28.6;0.0;
23/07/2019 05:04:36;100;0;98.93;16;-17.48;-6.82;437.6;8.70;69842;4849.261;-13021.611;145;-500;-495.0;70;69.6;-21;-21.7;28.6;0.0;
23/07/2019 05:04:56;100;0;99.08;16;-17.35;-6.89;440.1;8.70;69837;4849.261;-13021.611;145;-500;-493.1;70;69.6;-20;-19.4;28.6;0.0;
23/07/2019 05:05:16;100;0;98.50;16;-17.26;-5.40;442.5;8.70;69831;4849.261;-13021.611;145;-500;-493.1;70;69.6;-21;-21.2;28.6;0.0;
23/07/2019 05:05:36;100;0;98.76;16;-17.21;-6.79;444.9;8.70;69835;4849.261;-13021.611;145;-500;-493.1;70;69.6;-21;-21.7;28.7;0.0;
23/07/2019 05:05:56;100;0;98.43;16;-17.31;-6.83;447.3;8.70;69825;4849.261;-13021.611;145;-500;-495.0;70;69.6;-21;-21.7;28.6;0.0;
23/07/2019 05:06:16;100;0;98.05;16;-17.19;-6.77;449.7;8.70;69820;4849.261;-13021.611;145;-500;-495.0;70;69.6;-21;-21.7;28.6;0.0;
23/07/2019 05:06:36;100;0;98.09;16;-17.26;-6.81;452.1;8.70;69821;4849.261;-13021.611;145;-500;-493.1;70;69.6;-21;-21.7;28.6;0.0;
23/07/2019 05:06:56;100;0;96.94;16;-17.36;-6.71;454.6;8.70;69822;4849.261;-13021.611;145;-500;-495.0;70;69.6;-22;-22.1;28.7;0.0;
23/07/2019 05:07:16;100;0;97.57;16;-17.28;-7.35;456.9;8.60;69826;4849.261;-13021.611;145;-500;-493.1;70;69.6;-21;-20.8;28.6;0.0;
23/07/2019 05:07:36;100;0;97.75;16;-17.09;-6.22;459.5;8.60;69816;4849.261;-13021.611;145;-500;-495.0;70;69.6;-21;-20.3;28.7;0.0;
23/07/2019 05:07:56;100;0;98.07;16;-17.11;-6.19;462.0;8.60;69807;4849.261;-13021.611;145;-500;-493.1;70;69.6;-20;-19.9;28.6;0.0;
23/07/2019 05:08:16;100;0;98.24;16;-17.04;-5.89;464.4;8.60;69816;4849.261;-13021.611;145;-500;-493.1;70;69.6;-20;-19.9;28.6;0.0;
23/07/2019 05:08:36;100;0;97.96;16;-17.00;-5.91;466.8;8.60;69806;4849.261;-13021.611;145;-500;-493.1;70;69.6;-21;-21.7;28.6;0.0;
23/07/2019 05:08:56;100;0;98.86;16;-17.10;-6.92;469.3;8.60;69809;4849.261;-13021.611;145;-500;-493.1;70;69.6;-20;-19.9;28.6;0.0;
23/07/2019 05:09:16;100;0;99.22;16;-17.05;-5.60;471.6;8.50;69815;4849.261;-13021.611;145;-500;-493.1;70;69.6;-20;-19.0;28.6;0.0;
23/07/2019 05:09:37;100;0;99.95;16;-17.02;-5.65;474.0;8.50;69808;4849.261;-13021.611;145;-500;-495.0;70;69.6;-20;-19.0;28.6;0.0;
23/07/2019 05:09:57;100;0;101.29;16;-16.93;-5.61;476.4;8.50;69812;4849.261;-13021.611;145;-500;-493.1;70;69.7;-19;-19.0;28.7;0.0;
23/07/2019 05:10:17;100;0;100.93;16;-17.05;-5.59;478.7;8.50;69802;4849.261;-13021.611;145;-500;-495.0;70;69.6;-20;-19.9;28.7;0.0;
23/07/2019 05:10:37;100;0;101.99;16;-17.15;-6.14;481.1;8.50;69797;4849.261;-13021.611;145;-500;-495.0;70;69.6;-19;-19.0;28.6;0.0;
23/07/2019 05:10:57;100;0;103.00;16;-17.19;-5.36;483.3;8.50;69813;4849.261;-13021.611;145;-500;-495.0;70;69.6;-19;-18.1;28.6;0.0;
23/07/2019 05:11:17;100;0;103.88;16;-17.07;-5.33;485.6;8.50;69792;4849.261;-13021.611;145;-500;-493.1;70;69.6;-19;-18.5;28.8;0.0;
23/07/2019 05:11:37;100;0;103.25;16;-17.06;-5.32;487.8;8.40;69792;4849.261;-13021.611;145;-500;-495.0;70;69.6;-19;-18.5;28.7;0.0;
23/07/2019 05:11:57;100;0;101.89;16;-16.98;-5.31;490.2;8.40;69787;4849.261;-13021.611;145;-500;-493.1;70;69.6;-21;-21.2;28.7;0.0;
23/07/2019 05:12:17;100;0;101.25;16;-17.00;-6.92;492.3;8.40;69789;4849.261;-13021.611;145;-500;-495.0;70;69.6;-20;-19.4;28.6;0.0;
23/07/2019 05:12:37;100;0;100.92;16;-16.86;-5.41;494.6;8.40;69778;4849.261;-13021.611;145;-500;-493.1;70;69.6;-21;-21.2;28.6;0.0;
23/07/2019 05:12:57;100;0;100.69;16;-16.94;-6.79;496.8;8.40;69777;4849.261;-13021.611;145;-500;-493.1;70;69.6;-20;-19.9;28.6;0.0;
23/07/2019 05:13:17;100;0;99.81;16;-16.89;-5.65;499.0;8.40;69780;4849.261;-13021.611;145;-500;-493.1;70;69.6;-21;-21.2;28.6;0.0;
23/07/2019 05:13:37;100;0;100.06;16;-16.89;-6.73;501.1;8.40;69788;4849.261;-13021.611;145;-500;-493.1;70;69.6;-20;-19.9;28.6;0.0;
23/07/2019 05:13:57;100;0;100.21;16;-16.96;-5.56;503.3;8.30;69779;4849.261;-13021.611;145;-500;-493.1;70;69.6;-20;-19.0;28.7;0.0;
23/07/2019 05:14:17;100;0;100.60;16;-16.89;-5.58;505.5;8.30;69777;4849.261;-13021.611;145;-500;-495.0;70;69.6;-20;-19.0;28.6;0.0;
23/07/2019 05:14:37;100;0;101.14;16;-16.92;-5.55;507.6;8.30;69770;4849.261;-13021.611;145;-500;-493.1;70;69.6;-20;-19.0;28.6;0.0;
23/07/2019 05:14:57;100;0;100.53;16;-16.96;-5.56;509.7;8.30;69763;4849.261;-13021.611;145;-500;-493.1;70;69.6;-20;-19.0;28.6;0.0;
23/07/2019 05:15:17;100;0;100.70;16;-16.91;-5.59;511.8;8.30;69774;4849.261;-13021.611;145;-500;-493.1;70;69.6;-20;-19.0;28.6;0.0;
23/07/2019 05:15:37;100;0;101.27;16;-16.87;-5.61;514.0;8.30;69769;4849.261;-13021.611;145;-500;-493.1;70;69.6;-20;-19.0;28.6;0.0;
23/07/2019 05:15:57;100;0;101.06;16;-16.73;-5.51;516.1;8.30;69764;4849.261;-13021.611;145;-500;-495.0;70;69.6;-20;-19.0;28.6;0.0;
23/07/2019 05:16:17;100;0;100.17;16;-16.57;-5.56;518.2;8.30;69762;4849.261;-13021.611;145;-500;-493.1;70;69.6;-20;-19.0;28.6;0.0;
23/07/2019 05:16:37;100;0;99.33;16;-16.72;-5.53;520.3;8.20;69752;4849.261;-13021.611;145;-500;-493.1;70;69.6;-21;-21.2;28.6;0.0;
23/07/2019 05:16:57;100;0;100.24;16;-16.82;-6.98;522.3;8.20;69755;4849.261;-13021.611;145;-500;-495.0;70;69.6;-20;-19.4;28.6;0.0;
23/07/2019 05:17:17;100;0;99.73;16;-16.77;-5.47;524.4;8.20;69755;4849.261;-13021.611;145;-500;-493.1;70;69.6;-21;-21.7;28.6;0.0;
23/07/2019 05:17:37;100;0;100.30;16;-16.83;-7.05;526.5;8.20;69745;4849.261;-13021.611;145;-500;-493.1;70;69.6;-20;-19.9;28.7;0.0;
23/07/2019 05:17:57;100;0;100.46;16;-16.82;-5.68;528.5;8.20;69744;4849.261;-13021.611;145;-500;-493.1;70;69.6;-20;-19.0;28.6;0.0;
23/07/2019 05:18:17;100;0;99.96;16;-16.74;-5.64;530.6;8.10;69737;4849.261;-13021.611;145;-500;-493.1;70;69.6;-21;-21.2;28.6;0.0;
23/07/2019 05:18:37;100;0;100.27;16;-16.65;-6.92;532.6;8.20;69736;4849.261;-13021.611;145;-500;-493.1;70;69.6;-20;-19.9;28.6;0.0;
23/07/2019 05:18:57;100;0;100.16;16;-16.57;-5.68;534.6;8.10;69741;4849.261;-13021.611;145;-500;-495.0;70;69.6;-20;-19.4;28.6;0.0;
23/07/2019 05:19:17;100;0;100.93;16;-16.50;-5.74;536.7;8.10;69739;4849.261;-13021.611;145;-500;-493.1;70;69.6;-20;-19.4;28.7;0.0;
23/07/2019 05:19:37;100;0;101.08;16;-16.59;-5.91;538.7;8.10;69740;4849.261;-13021.611;145;-500;-491.1;70;69.7;-19;-19.0;28.6;0.0;
23/07/2019 05:19:57;100;0;100.48;16;-16.46;-5.17;540.8;8.10;69722;4849.261;-13021.611;145;-500;-493.1;70;69.6;-20;-19.9;28.6;0.0;
23/07/2019 05:20:17;100;0;100.42;16;-16.61;-6.17;542.8;8.10;69732;4849.261;-13021.611;145;-500;-491.1;70;69.6;-20;-20.3;28.6;0.0;
23/07/2019 05:20:37;100;0;100.38;16;-16.59;-6.14;544.8;8.00;69721;4849.261;-13021.611;145;-500;-491.1;70;69.6;-20;-20.3;28.6;0.0;
23/07/2019 05:20:57;100;0;100.13;16;-16.36;-6.19;546.8;8.00;69718;4849.261;-13021.611;145;-500;-495.0;70;69.6;-20;-20.3;28.6;0.0;
23/07/2019 05:21:17;100;0;101.25;16;-16.60;-6.23;548.9;8.00;69735;4849.261;-13021.611;145;-500;-493.1;70;69.6;-20;-20.3;28.6;0.0;
23/07/2019 05:21:37;100;0;101.08;16;-16.59;-6.15;550.9;8.00;69728;4849.261;-13021.611;145;-500;-493.1;70;69.6;-20;-20.3;28.6;0.0;
23/07/2019 05:21:57;100;0;101.88;16;-16.63;-6.21;552.9;8.00;69712;4849.261;-13021.611;145;-500;-493.1;70;69.6;-20;-20.3;28.6;0.0;
23/07/2019 05:22:17;100;0;101.80;16;-16.69;-6.17;554.9;8.00;69709;4849.261;-13021.611;145;-500;-491.1;70;69.6;-20;-20.3;28.6;0.0;
23/07/2019 05:22:37;100;0;101.91;16;-16.46;-6.18;557.0;8.00;69709;4849.261;-13021.611;145;-500;-493.1;70;69.6;-20;-20.3;28.6;0.0;
23/07/2019 05:22:57;100;0;101.67;16;-16.63;-6.13;559.0;8.00;69714;4849.261;-13021.611;145;-500;-493.1;70;69.6;-20;-20.3;28.6;0.0;
23/07/2019 05:23:17;100;0;101.44;16;-16.46;-6.22;561.0;8.00;69711;4849.261;-13021.611;145;-500;-495.0;70;69.6;-20;-20.3;28.6;0.0;
23/07/2019 05:23:37;100;0;101.87;16;-16.59;-6.29;563.0;7.90;69712;4849.261;-13021.611;145;-500;-493.1;70;69.6;-20;-20.3;28.6;0.0;
23/07/2019 05:23:57;100;0;102.13;16;-16.60;-6.21;564.9;7.90;69707;4849.261;-13021.611;145;-500;-493.1;70;69.6;-19;-19.0;28.6;0.0;
23/07/2019 05:24:17;100;0;101.22;16;-16.35;-5.34;567.1;7.90;69697;4849.261;-13021.611;145;-500;-493.1;70;69.6;-20;-19.9;28.6;0.0;
23/07/2019 05:24:37;100;0;100.37;16;-16.37;-6.11;569.0;7.90;69701;4849.261;-13021.611;145;-500;-493.1;70;69.6;-21;-21.2;28.6;0.0;
23/07/2019 05:24:57;100;0;100.58;16;-16.26;-7.00;571.2;7.90;69696;4849.261;-13021.611;145;-500;-493.1;70;69.6;-20;-19.9;28.7;0.0;
23/07/2019 05:25:17;100;0;100.04;16;-16.45;-5.66;573.1;7.90;69703;4849.261;-13021.611;145;-500;-493.1;70;69.6;-20;-19.4;28.6;0.0;
23/07/2019 05:25:37;100;0;99.01;16;-16.19;-5.70;575.2;7.80;69698;4849.261;-13021.611;145;-500;-493.1;70;69.6;-21;-21.2;28.7;0.0;
23/07/2019 05:25:57;100;0;97.70;16;-16.55;-6.87;577.3;7.80;69693;4849.261;-13021.611;145;-500;-493.1;70;69.6;-22;-22.1;28.6;0.0;
23/07/2019 05:26:17;100;0;98.92;16;-16.27;-7.29;579.5;7.80;69693;4849.261;-13021.611;145;-500;-491.1;70;69.6;-21;-21.2;28.6;0.0;
23/07/2019 05:26:37;100;0;97.72;16;-16.20;-6.29;581.6;7.80;69690;4849.261;-13021.611;145;-500;-493.1;70;69.6;-21;-20.3;28.6;0.0;
23/07/2019 05:26:57;100;0;97.34;16;-16.22;-6.30;583.6;7.80;69695;4849.261;-13021.611;145;-500;-493.1;70;69.7;-21;-20.3;28.6;0.0;
23/07/2019 05:27:17;100;0;96.88;16;-16.20;-6.34;585.6;7.80;69691;4849.261;-13021.611;145;-500;-491.1;70;69.6;-21;-20.3;28.6;0.0;
23/07/2019 05:27:37;100;0;96.43;16;-16.17;-6.34;587.7;7.80;69681;4849.261;-13021.611;145;-500;-493.1;70;69.6;-21;-20.3;28.7;0.0;
23/07/2019 05:27:57;100;0;95.98;16;-16.26;-6.30;589.8;7.80;69690;4849.261;-13021.611;145;-500;-491.1;70;69.6;-22;-22.1;28.6;0.0;
23/07/2019 05:28:17;100;0;97.45;16;-16.41;-7.47;591.9;7.80;69683;4849.261;-13021.611;145;-500;-495.0;70;69.6;-20;-19.9;28.6;0.0;
23/07/2019 05:28:37;100;0;96.83;16;-16.12;-5.62;594.1;7.70;69686;4849.261;-13021.611;145;-500;-493.1;70;69.6;-21;-21.7;28.6;0.0;
23/07/2019 05:28:57;100;0;97.08;16;-16.08;-7.02;596.0;7.70;69674;4849.261;-13021.611;145;-500;-493.1;70;69.6;-20;-19.9;28.7;0.0;
23/07/2019 05:29:17;100;0;96.09;16;-16.10;-5.56;598.2;7.70;69668;4849.261;-13021.611;145;-500;-493.1;70;69.6;-21;-21.2;28.6;0.0;
23/07/2019 05:29:37;100;0;95.82;16;-16.15;-6.95;600.2;7.70;69681;4849.261;-13021.611;145;-500;-493.1;70;69.6;-22;-22.1;28.7;0.0;
23/07/2019 05:29:57;100;0;96.05;16;-16.13;-7.24;602.2;7.70;69679;4849.261;-13021.611;145;-500;-493.1;70;69.6;-21;-21.2;28.6;0.0;
23/07/2019 05:30:17;100;0;96.15;16;-16.00;-6.42;604.2;7.70;69683;4849.261;-13021.611;145;-500;-493.1;70;69.6;-21;-20.8;28.6;0.0;
23/07/2019 05:30:37;100;0;97.01;16;-16.10;-6.46;606.3;7.70;69664;4849.261;-13021.611;145;-500;-495.0;70;69.6;-20;-19.9;28.6;0.0;
23/07/2019 05:30:57;100;0;97.30;16;-16.06;-5.78;608.4;7.60;69666;4849.261;-13021.611;145;-500;-491.1;70;69.6;-20;-19.0;28.6;0.0;
23/07/2019 05:31:17;100;0;97.23;16;-16.12;-5.77;610.3;7.70;69668;4849.261;-13021.611;145;-500;-491.1;70;69.6;-21;-21.2;28.6;0.0;
23/07/2019 05:31:37;100;0;99.06;16;-16.13;-6.91;612.4;7.60;69661;4849.261;-13021.611;145;-500;-493.1;70;69.6;-19;-18.5;28.6;0.0;
23/07/2019 05:31:57;100;0;100.47;16;-16.06;-5.24;614.4;7.60;69670;4849.261;-13021.611;145;-500;-491.1;70;69.6;-19;-18.1;28.6;0.0;
23/07/2019 05:32:17;100;0;100.40;16;-15.97;-5.20;616.4;7.60;69668;4849.261;-13021.611;145;-500;-491.1;70;69.6;-20;-19.9;28.6;0.0;
23/07/2019 05:32:37;100;0;100.47;16;-16.01;-6.22;618.5;7.60;69667;4849.261;-13021.611;145;-500;-493.1;70;69.6;-20;-19.9;28.6;0.0;
23/07/2019 05:32:57;100;0;101.45;16;-16.04;-6.26;620.6;7.60;69664;4849.261;-13021.611;145;-500;-493.1;70;69.6;-19;-19.0;28.7;0.0;
23/07/2019 05:33:17;100;0;101.11;16;-15.96;-5.39;622.7;7.60;69656;4849.261;-13021.611;145;-500;-493.1;70;69.6;-20;-20.3;28.6;0.0;
23/07/2019 05:33:37;100;0;100.49;16;-15.96;-6.41;624.7;7.60;69655;4849.261;-13021.611;145;-500;-493.1;70;69.6;-20;-20.8;28.6;0.0;
23/07/2019 05:33:57;100;0;99.96;16;-15.98;-6.42;626.9;7.50;69650;4849.261;-13021.611;145;-500;-491.1;70;69.6;-21;-21.2;28.6;0.0;
23/07/2019 05:34:17;100;0;99.42;16;-15.91;-6.92;629.0;7.50;69651;4849.261;-13021.611;145;-500;-493.1;70;69.6;-21;-21.7;28.7;0.0;
23/07/2019 05:34:37;100;0;100.92;16;-15.88;-7.05;631.2;7.50;69652;4849.261;-13021.611;145;-500;-491.1;70;69.6;-20;-19.9;28.6;0.0;
23/07/2019 05:34:57;100;0;101.65;16;-15.76;-5.80;633.2;7.50;69642;4849.261;-13021.611;145;-500;-491.1;70;69.6;-19;-19.0;28.7;0.0;
23/07/2019 05:35:17;100;0;102.42;16;-15.83;-5.27;635.4;7.50;69648;4849.261;-13021.611;145;-500;-489.1;70;69.6;-19;-18.1;28.6;0.0;
23/07/2019 05:35:37;100;0;102.21;16;-15.75;-5.20;637.5;7.50;69644;4849.261;-13021.611;145;-500;-491.1;70;69.6;-19;-18.1;28.7;0.0;
23/07/2019 05:35:57;100;0;101.60;16;-15.75;-5.26;639.6;7.50;69639;4849.261;-13021.611;145;-500;-493.1;70;69.6;-20;-19.9;28.6;0.0;
23/07/2019 05:36:17;100;0;101.26;16;-15.86;-6.30;641.7;7.50;69653;4849.261;-13021.611;145;-500;-491.1;70;69.6;-20;-20.3;28.6;0.0;
23/07/2019 05:36:37;100;0;100.53;16;-15.88;-6.29;643.9;7.40;69643;4849.261;-13021.611;145;-500;-491.1;70;69.6;-21;-21.2;28.6;0.0;
23/07/2019 05:36:57;100;0;101.23;16;-15.89;-7.08;646.0;7.40;69638;4849.261;-13021.611;145;-500;-493.1;70;69.6;-20;-19.4;28.7;0.0;
23/07/2019 05:37:17;100;0;101.15;16;-15.85;-5.65;648.1;7.40;69640;4849.261;-13021.611;145;-500;-491.1;70;69.6;-20;-19.0;28.6;0.0;
23/07/2019 05:37:37;100;0;100.81;16;-15.84;-5.62;650.3;7.40;69629;4849.261;-13021.611;145;-500;-493.1;70;69.6;-20;-19.0;28.6;0.0;
23/07/2019 05:37:57;100;0;99.90;16;-15.84;-5.55;652.4;7.40;69632;4849.261;-13021.611;145;-500;-491.1;70;69.6;-21;-21.2;28.6;0.0;
23/07/2019 05:38:17;100;0;99.22;16;-15.77;-6.97;654.5;7.40;69624;4849.261;-13021.611;145;-500;-493.1;70;69.6;-21;-21.7;28.6;0.0;
23/07/2019 05:38:37;100;0;99.10;16;-15.77;-6.99;656.6;7.40;69633;4849.261;-13021.611;145;-500;-491.1;70;69.6;-20;-19.9;28.6;0.0;
23/07/2019 05:38:57;100;0;98.49;16;-15.71;-5.77;658.7;7.40;69623;4849.261;-13021.611;145;-500;-491.1;70;69.6;-21;-21.2;28.6;0.0;
23/07/2019 05:39:17;100;0;98.47;16;-15.71;-6.82;660.8;7.30;69622;4849.261;-13021.611;145;-500;-491.1;70;69.6;-21;-21.2;28.6;0.0;
23/07/2019 05:39:37;100;0;98.24;16;-15.66;-6.84;663.0;7.30;69627;4849.261;-13021.611;145;-500;-491.1;70;69.6;-21;-21.7;28.6;0.0;
23/07/2019 05:39:57;100;0;97.42;16;-15.72;-6.83;665.0;7.30;69627;4849.261;-13021.611;145;-500;-491.1;70;69.6;-21;-21.7;28.7;0.0;
23/07/2019 05:40:17;100;0;97.63;16;-15.71;-6.86;667.0;7.30;69618;4849.261;-13021.611;145;-500;-491.1;70;69.6;-21;-21.2;28.7;0.0;
23/07/2019 05:40:37;100;0;98.01;16;-15.71;-6.87;669.1;7.30;69618;4849.261;-13021.611;145;-500;-493.1;70;69.6;-20;-19.9;28.7;0.0;
23/07/2019 05:40:57;100;0;96.78;16;-15.65;-5.66;671.2;7.30;69612;4849.261;-13021.611;145;-500;-491.1;70;69.6;-22;-22.1;28.6;0.0;
23/07/2019 05:41:17;100;0;96.57;16;-15.67;-7.35;673.2;7.30;69617;4849.261;-13021.611;145;-500;-495.0;70;69.6;-21;-21.2;28.6;0.0;
23/07/2019 05:41:37;100;0;95.74;16;-15.54;-6.51;675.2;7.30;69615;4849.261;-13021.611;145;-500;-491.1;70;69.6;-22;-22.6;28.6;0.0;
23/07/2019 05:41:57;100;0;96.10;16;-15.53;-7.51;677.2;7.30;69614;4849.261;-13021.611;145;-500;-491.1;70;69.6;-21;-21.2;28.6;0.0;
23/07/2019 05:42:17;100;0;95.68;16;-15.41;-6.35;679.2;7.30;69608;4849.261;-13021.611;145;-500;-491.1;70;69.6;-21;-20.3;28.7;0.0;
23/07/2019 05:42:37;100;0;95.68;16;-15.45;-6.34;681.2;7.20;69612;4849.261;-13021.611;145;-500;-491.1;70;69.6;-21;-20.3;28.6;0.0;
23/07/2019 05:42:57;100;0;95.26;16;-15.43;-6.33;683.2;7.20;69604;4849.261;-13021.611;145;-500;-493.1;70;69.6;-21;-20.3;28.6;0.0;
23/07/2019 05:43:18;100;0;95.01;16;-15.43;-6.35;685.2;7.20;69603;4849.261;-13021.611;145;-500;-491.1;70;69.6;-21;-20.3;28.6;0.0;
23/07/2019 05:43:38;100;0;95.75;16;-15.53;-6.41;687.2;7.20;69607;4849.261;-13021.611;145;-500;-491.1;70;69.6;-21;-20.3;28.6;0.0;
23/07/2019 05:43:58;100;0;95.69;16;-15.52;-6.37;689.2;7.20;69607;4849.261;-13021.611;145;-500;-491.1;70;69.6;-21;-20.3;28.6;0.0;
23/07/2019 05:44:18;100;0;95.11;16;-15.46;-6.34;691.2;7.20;69606;4849.261;-13021.611;145;-500;-491.1;70;69.6;-21;-20.3;28.6;0.0;
23/07/2019 05:44:38;100;0;94.87;16;-15.52;-6.35;693.1;7.20;69598;4849.261;-13021.611;145;-500;-491.1;70;69.6;-22;-22.6;28.6;0.0;
23/07/2019 05:44:58;100;0;95.92;16;-15.46;-7.45;695.1;7.20;69598;4849.261;-13021.611;145;-500;-493.1;70;69.6;-21;-21.2;28.6;0.0;
23/07/2019 05:45:18;100;0;96.24;16;-15.37;-6.41;697.0;7.20;69592;4849.261;-13021.611;145;-500;-491.1;70;69.6;-20;-19.9;28.6;0.0;
23/07/2019 05:45:38;100;0;95.76;16;-15.39;-5.77;699.0;7.20;69599;4849.261;-13021.611;145;-500;-493.1;70;69.6;-21;-21.2;28.6;0.0;
23/07/2019 05:45:58;118;0;96.16;16;-15.40;-6.91;700.9;7.10;69594;4849.261;-13021.611;145;150;-477.2;57;56.8;0;0.5;28.7;0.0;
23/07/2019 05:46:08;118;0;92.95;16;2.12;3.64;701.7;7.10;69502;4849.261;-13021.611;145;150;-316.8;57;57.2;0;0.9;27.3;0.0;
23/07/2019 05:46:18;118;0;89.32;16;16.33;3.37;701.6;7.10;69297;4849.261;-13021.611;145;150;-162.4;57;57.2;0;0.9;27.3;-1.0;
23/07/2019 05:46:28;118;0;88.33;16;19.36;3.43;701.0;7.10;69048;4849.261;-13021.611;145;150;-9.9;57;57.1;0;0.9;27.3;-1.0;
23/07/2019 05:46:38;118;0;87.99;16;19.33;3.54;700.1;7.10;68793;4849.261;-13021.611;145;150;148.5;57;57.2;0;0.5;27.3;-1.0;
23/07/2019 05:46:48;118;0;88.25;16;21.66;3.56;698.9;7.10;68542;4849.261;-13021.611;145;150;156.4;57;57.1;0;0.9;27.3;-1.0;
23/07/2019 05:46:58;118;0;101.46;16;24.16;3.44;697.0;7.20;68552;4849.261;-13021.611;145;150;158.4;57;57.1;0;0.9;28.6;-1.0;
23/07/2019 05:47:08;117;0;100.98;16;25.01;3.44;694.9;7.20;68552;4849.261;-13021.611;145;150;156.4;57;57.1;0;0.9;28.6;-1.0;
23/07/2019 05:47:28;117;0;97.28;16;25.87;3.32;690.0;7.20;68557;4849.261;-13021.611;145;150;158.4;57;57.2;20;19.9;28.6;-1.0;
23/07/2019 05:47:48;117;0;101.97;16;25.57;12.82;684.5;7.20;68551;4849.261;-13021.611;145;150;156.4;57;57.2;18;18.1;28.6;-1.0;
23/07/2019 05:48:08;117;0;107.94;16;25.22;11.13;679.5;7.20;68542;4849.261;-13021.611;145;150;156.4;57;57.2;16;15.8;28.6;-1.0;
23/07/2019 05:48:28;117;0;112.77;16;25.30;9.93;674.3;7.20;68541;4849.261;-13021.611;145;150;158.4;57;57.1;14;14.0;28.6;-1.0;
23/07/2019 05:48:48;117;0;117.52;16;25.29;9.20;669.2;7.20;68541;4849.261;-13021.611;145;150;158.4;57;57.1;13;13.1;28.6;-1.0;
23/07/2019 05:49:08;117;0;120.57;16;25.58;8.81;664.0;7.20;68541;4849.261;-13021.611;145;150;158.4;57;57.2;13;12.6;28.6;-1.0;
23/07/2019 05:49:28;117;0;123.97;16;25.50;8.75;658.8;7.10;68539;4849.261;-13021.611;145;150;156.4;57;57.2;13;12.6;28.6;-1.0;
23/07/2019 05:49:48;117;0;126.74;16;25.51;8.78;653.5;7.10;68538;4849.261;-13021.611;145;150;156.4;57;57.1;12;12.2;28.6;-1.0;
23/07/2019 05:50:08;117;0;128.97;16;25.84;8.24;648.3;7.10;68549;4849.261;-13021.611;145;150;158.4;57;57.1;12;11.3;28.6;-1.0;
23/07/2019 05:50:28;117;0;128.76;16;26.06;8.13;642.9;7.10;68536;4849.261;-13021.611;145;150;156.4;57;57.1;12;11.7;28.6;-1.0;
23/07/2019 05:50:48;117;0;129.49;16;25.86;8.26;637.4;7.10;68532;4849.261;-13021.611;145;150;158.4;57;57.1;12;11.3;28.6;-1.0;
23/07/2019 05:51:08;117;0;129.19;16;25.80;8.19;632.0;7.10;68532;4849.261;-13021.611;145;150;158.4;57;57.2;12;11.3;28.6;-1.0;
23/07/2019 05:51:28;117;0;129.12;16;25.74;8.14;626.7;7.10;68541;4849.261;-13021.611;145;150;158.4;57;57.1;12;11.3;28.6;-1.0;
23/07/2019 05:51:48;117;0;131.23;16;25.51;8.27;621.3;7.10;68541;4849.261;-13021.611;145;150;158.4;57;57.1;12;11.7;28.6;-1.0;
23/07/2019 05:52:08;117;0;131.94;16;25.67;8.11;615.8;7.10;68536;4849.261;-13021.611;145;150;158.4;57;57.2;12;11.7;28.6;-1.0;
23/07/2019 05:52:28;117;0;129.03;16;25.68;8.05;610.4;7.10;68545;4849.261;-13021.611;145;150;160.4;57;57.2;12;11.7;28.6;-1.0;
23/07/2019 05:52:48;117;0;128.57;16;25.79;8.10;605.1;7.00;68535;4849.261;-13021.611;145;150;158.4;57;57.1;12;11.7;28.6;-1.0;
23/07/2019 05:53:08;117;0;128.02;16;25.34;8.26;599.6;7.00;68538;4849.261;-13021.611;145;150;158.4;57;57.2;12;11.7;28.6;-1.0;
23/07/2019 05:53:28;117;0;131.58;16;24.93;8.23;594.5;7.00;68538;4849.261;-13021.611;145;150;156.4;57;57.1;12;11.3;28.6;-1.0;
23/07/2019 05:53:48;117;0;133.37;16;24.81;8.21;589.3;7.00;68544;4849.261;-13021.611;145;150;158.4;57;57.1;12;11.7;28.6;-1.0;
23/07/2019 05:54:08;117;0;135.61;16;24.90;8.26;584.2;7.00;68549;4849.261;-13021.611;145;150;158.4;57;57.1;11;10.4;28.6;-1.0;
23/07/2019 05:54:28;117;0;137.18;16;24.69;7.52;579.1;7.00;68544;4849.261;-13021.611;145;150;158.4;57;57.1;11;9.9;28.6;-1.0;
23/07/2019 05:54:48;117;0;139.72;16;24.68;7.57;574.0;7.00;68542;4849.261;-13021.611;145;150;158.4;57;57.1;10;9.9;28.6;-1.0;
23/07/2019 05:55:08;117;0;142.14;16;24.46;7.51;569.1;7.00;68547;4849.261;-13021.611;145;150;158.4;57;57.2;8;8.1;28.6;-1.0;
23/07/2019 05:55:28;117;0;141.60;16;24.76;6.31;564.0;7.00;68536;4849.261;-13021.611;145;150;158.4;57;57.2;9;9.0;28.6;-1.0;
23/07/2019 05:55:48;117;0;141.80;16;24.96;7.56;559.1;7.00;68541;4849.261;-13021.611;145;150;158.4;57;57.1;9;9.5;28.7;-1.0;
23/07/2019 05:56:08;117;0;142.78;16;25.09;7.46;553.9;7.00;68550;4849.261;-13021.611;145;150;158.4;57;57.1;8;8.1;28.6;-1.0;
23/07/2019 05:56:28;117;0;141.29;16;25.07;6.32;548.8;7.00;68547;4849.261;-13021.611;145;150;158.4;57;57.1;8;7.7;28.6;-1.0;
23/07/2019 05:56:48;117;0;140.64;16;24.96;6.32;543.8;7.00;68553;4849.261;-13021.611;145;150;158.4;57;57.2;8;7.7;28.6;-1.0;
23/07/2019 05:57:08;117;0;139.60;16;24.88;6.33;538.6;7.00;68547;4849.261;-13021.611;145;150;158.4;57;57.2;8;7.2;28.6;-1.0;
23/07/2019 05:57:28;117;0;138.66;16;24.67;6.43;533.7;7.00;68547;4849.261;-13021.611;145;150;158.4;57;57.1;8;7.7;28.6;-1.0;
23/07/2019 05:57:48;117;0;137.92;16;24.75;6.27;528.9;7.00;68547;4849.261;-13021.611;145;150;158.4;57;57.1;8;7.7;28.6;-1.0;
23/07/2019 05:58:08;117;0;137.43;16;24.47;6.47;523.9;7.00;68553;4849.261;-13021.611;145;150;158.4;57;57.2;8;7.7;28.6;-1.0;
23/07/2019 05:58:28;117;0;135.99;16;24.70;6.41;519.1;7.00;68550;4849.261;-13021.611;145;150;156.4;57;57.2;8;7.7;28.6;-1.0;
23/07/2019 05:58:48;117;0;137.38;16;24.55;6.40;514.4;7.00;68542;4849.261;-13021.611;145;150;158.4;57;57.1;6;5.9;28.6;-1.0;
23/07/2019 05:59:08;117;0;136.54;16;24.53;5.22;509.6;7.00;68547;4849.261;-13021.611;145;150;158.4;57;57.1;7;7.7;28.6;-1.0;
23/07/2019 05:59:28;117;0;134.12;16;24.78;6.94;504.8;7.00;68555;4849.261;-13021.611;145;150;158.4;57;57.2;8;8.1;28.6;-1.0;
23/07/2019 05:59:48;117;0;134.23;16;24.62;6.87;499.9;7.00;68561;4849.261;-13021.611;145;150;158.4;57;57.2;7;7.2;28.6;-1.0;
23/07/2019 06:00:08;117;0;132.17;16;24.69;6.10;495.2;7.00;68556;4849.261;-13021.611;145;150;160.4;57;57.2;8;8.6;28.6;-1.0;
23/07/2019 06:00:28;117;0;131.18;16;24.57;7.34;490.3;7.00;68569;4849.261;-13021.611;145;150;158.4;57;57.1;8;9.0;28.6;-1.0;
23/07/2019 06:00:48;117;0;132.60;16;24.07;7.40;485.7;7.00;68569;4849.261;-13021.611;145;150;158.4;57;57.1;7;7.2;28.6;-1.0;
23/07/2019 06:01:08;117;0;133.59;16;24.02;6.05;481.1;7.00;68561;4849.261;-13021.611;145;150;158.4;57;57.1;6;5.9;28.6;-1.0;
23/07/2019 06:01:28;117;0;133.92;16;24.18;5.53;476.5;7.00;68578;4849.261;-13021.611;145;150;158.4;57;57.2;6;5.4;28.6;-1.0;
23/07/2019 06:01:48;117;0;131.06;16;24.46;5.48;472.0;7.00;68569;4849.261;-13021.611;145;150;158.4;57;57.1;7;7.7;28.6;-1.0;
23/07/2019 06:02:08;117;0;127.75;16;24.53;6.85;467.2;7.00;68582;4849.261;-13021.611;145;150;158.4;57;57.2;7;8.1;28.6;-1.0;
23/07/2019 06:02:28;117;0;126.24;16;24.30;6.70;462.6;7.00;68583;4849.261;-13021.611;145;150;160.4;57;57.1;7;8.1;28.6;-1.0;
23/07/2019 06:02:48;117;0;125.08;16;23.89;6.61;458.1;7.00;68578;4849.261;-13021.611;145;150;158.4;57;57.1;9;9.5;28.7;-1.0;
23/07/2019 06:03:08;117;0;127.61;16;23.60;7.72;453.4;7.00;68581;4849.261;-13021.611;145;150;160.4;57;57.1;7;7.2;28.6;-1.0;
23/07/2019 06:03:28;117;0;129.98;16;23.35;6.00;449.1;7.00;68575;4849.261;-13021.611;145;150;158.4;57;57.1;7;6.3;28.6;-1.0;
23/07/2019 06:03:48;117;0;131.30;16;23.69;5.99;444.8;7.00;68595;4849.261;-13021.611;145;150;158.4;57;57.1;7;6.3;28.6;-1.0;
23/07/2019 06:04:08;117;0;132.51;16;23.86;6.03;440.3;7.10;68591;4849.261;-13021.611;145;150;158.4;57;57.2;5;5.0;28.7;-1.0;
23/07/2019 06:04:28;117;0;132.05;16;23.79;4.79;435.7;7.10;68596;4849.261;-13021.611;145;150;158.4;57;57.1;6;5.9;28.6;-1.0;
23/07/2019 06:04:48;117;0;131.24;16;23.72;6.14;431.3;7.10;68598;4849.261;-13021.611;145;150;158.4;57;57.1;6;6.8;28.6;-1.0;
23/07/2019 06:05:08;117;0;132.19;16;23.65;6.05;426.8;7.10;68601;4849.261;-13021.611;145;150;160.4;57;57.2;6;6.3;28.7;-1.0;
23/07/2019 06:05:28;117;0;133.25;16;23.71;6.10;422.5;7.10;68592;4849.261;-13021.611;145;150;158.4;57;57.1;5;5.0;28.6;-1.0;
23/07/2019 06:05:48;117;0;131.88;16;23.96;4.88;417.8;7.10;68586;4849.261;-13021.611;145;150;160.4;57;57.2;7;7.2;28.6;-1.0;
23/07/2019 06:06:08;117;0;131.69;16;23.82;6.66;413.2;7.10;68597;4849.261;-13021.611;145;150;158.4;57;57.1;6;5.9;28.6;-1.0;
23/07/2019 06:06:28;117;0;130.12;16;23.65;5.46;408.7;7.10;68597;4849.261;-13021.611;145;150;160.4;57;57.1;7;7.7;28.6;-1.0;
23/07/2019 06:06:48;117;0;130.52;16;23.46;6.93;404.2;7.10;68601;4849.261;-13021.611;145;150;158.4;57;57.1;6;5.9;28.6;-1.0;
23/07/2019 06:07:08;117;0;130.65;16;23.37;5.50;399.9;7.10;68597;4849.261;-13021.611;145;150;160.4;57;57.2;6;5.4;28.6;-1.0;
23/07/2019 06:07:28;117;0;130.22;16;23.17;5.47;395.5;7.10;68601;4849.261;-13021.611;145;150;158.4;57;57.1;6;5.4;28.6;-1.0;
23/07/2019 06:07:48;117;0;129.16;16;23.52;5.49;391.2;7.10;68600;4849.261;-13021.611;145;150;160.4;57;57.2;6;5.4;28.6;-1.0;
23/07/2019 06:08:08;117;0;128.47;16;23.51;5.53;386.7;7.10;68611;4849.261;-13021.611;145;150;160.4;57;57.2;6;5.4;28.6;-1.0;
23/07/2019 06:08:28;117;0;128.35;16;23.50;5.51;382.2;7.10;68600;4849.261;-13021.611;145;150;158.4;57;57.2;6;5.4;28.6;-1.0;
23/07/2019 06:08:48;117;0;127.65;16;23.53;5.54;377.6;7.10;68607;4849.261;-13021.611;145;150;158.4;57;57.1;6;5.4;28.6;-1.0;
23/07/2019 06:09:08;117;0;126.87;16;23.37;5.48;373.1;7.10;68604;4849.261;-13021.611;145;150;158.4;57;57.1;6;5.4;28.6;-1.0;
23/07/2019 06:09:28;117;0;125.93;16;23.41;5.60;368.7;7.20;68603;4849.261;-13021.611;145;150;160.4;57;57.1;8;8.1;28.6;-1.0;
23/07/2019 06:09:48;117;0;125.47;16;23.41;7.20;364.2;7.20;68615;4849.261;-13021.611;145;150;158.4;57;57.1;7;7.2;28.6;-1.0;
23/07/2019 06:10:08;117;0;125.17;16;23.04;5.93;359.8;7.20;68616;4849.261;-13021.611;145;150;158.4;57;57.2;7;6.3;28.6;-1.0;
23/07/2019 06:10:28;117;0;124.92;16;23.28;6.03;355.4;7.20;68608;4849.261;-13021.611;145;150;160.4;57;57.1;8;8.1;28.6;-1.0;
23/07/2019 06:10:48;117;0;125.29;16;23.19;7.36;351.0;7.20;68610;4849.261;-13021.611;145;150;158.4;57;57.1;7;7.2;28.6;-1.0;
23/07/2019 06:11:08;117;0;124.82;16;23.11;6.09;346.5;7.20;68622;4849.261;-13021.611;145;150;160.4;57;57.2;8;8.1;28.7;-1.0;
23/07/2019 06:11:28;117;0;125.39;16;23.06;7.27;342.1;7.20;68625;4849.261;-13021.611;145;150;160.4;57;57.1;8;9.0;28.6;-1.0;
23/07/2019 06:11:48;117;0;126.39;16;22.82;7.48;337.8;7.20;68628;4849.261;-13021.611;145;150;158.4;57;57.1;7;7.2;28.6;-1.0;
23/07/2019 06:12:08;117;0;125.30;16;22.85;6.15;333.6;7.20;68627;4849.261;-13021.611;145;150;158.4;57;57.2;8;8.1;28.6;-1.0;
23/07/2019 06:12:28;117;0;125.88;16;22.80;7.27;329.2;7.20;68619;4849.261;-13021.611;145;150;158.4;57;57.2;8;9.0;28.6;-1.0;
23/07/2019 06:12:48;117;0;123.89;16;22.93;7.29;325.1;7.20;68620;4849.261;-13021.611;145;150;160.4;57;57.2;9;9.0;28.6;-1.0;
23/07/2019 06:13:08;117;0;125.03;16;22.44;7.33;320.9;7.20;68615;4849.261;-13021.611;145;150;160.4;57;57.1;8;8.1;28.6;-1.0;
23/07/2019 06:13:28;117;0;125.92;16;22.51;6.66;316.8;7.30;68640;4849.261;-13021.611;145;150;158.4;57;57.2;8;8.1;28.6;-1.0;
23/07/2019 06:13:48;117;0;126.88;16;22.60;6.73;312.7;7.30;68639;4849.261;-13021.611;145;150;158.4;57;57.1;8;7.7;28.6;-1.0;
23/07/2019 06:14:08;117;0;128.31;16;22.56;6.69;308.4;7.30;68639;4849.261;-13021.611;145;150;158.4;57;57.1;8;7.7;28.6;-1.0;
23/07/2019 06:14:28;117;0;129.86;16;22.42;6.80;304.3;7.30;68641;4849.261;-13021.611;145;150;160.4;57;57.1;8;7.7;28.6;-1.0;
23/07/2019 06:14:48;117;0;130.87;16;22.31;6.81;300.3;7.30;68633;4849.261;-13021.611;145;150;158.4;57;57.1;8;8.1;28.6;-1.0;
23/07/2019 06:15:09;117;0;134.28;16;22.21;6.75;296.2;7.30;68651;4849.261;-13021.611;145;150;158.4;57;57.1;5;5.0;28.6;-1.0;
23/07/2019 06:15:29;117;0;132.86;16;22.45;5.07;292.1;7.30;68645;4849.261;-13021.611;145;150;160.4;57;57.2;7;7.2;28.6;-1.0;
23/07/2019 06:15:49;117;0;133.26;16;22.36;6.73;288.0;7.30;68639;4849.261;-13021.611;145;150;158.4;57;57.1;6;5.9;28.6;-1.0;
23/07/2019 06:16:09;117;0;133.64;16;22.30;5.58;283.8;7.30;68634;4849.261;-13021.611;145;150;158.4;57;57.1;6;5.9;28.6;-1.0;
23/07/2019 06:16:29;117;0;134.30;16;22.28;5.57;279.8;7.40;68654;4849.261;-13021.611;145;150;160.4;57;57.2;6;5.4;28.6;-1.0;
23/07/2019 06:16:49;117;0;134.55;16;22.32;5.61;275.7;7.40;68648;4849.261;-13021.611;145;150;160.4;57;57.1;6;5.4;28.6;-1.0;
23/07/2019 06:17:09;117;0;135.58;16;22.23;5.60;271.6;7.30;68645;4849.261;-13021.611;145;150;160.4;57;57.1;5;5.0;28.6;-1.0;
23/07/2019 06:17:29;117;0;133.14;16;22.41;5.01;267.5;7.40;68650;4849.261;-13021.611;145;150;158.4;57;57.1;6;5.9;28.6;-1.0;
23/07/2019 06:17:49;117;0;133.16;16;22.25;6.20;263.4;7.40;68652;4849.261;-13021.611;145;150;160.4;57;57.2;6;6.3;28.6;-1.0;
23/07/2019 06:18:09;117;0;132.56;16;22.17;6.19;259.4;7.40;68655;4849.261;-13021.611;145;150;160.4;57;57.1;6;6.3;28.6;-1.0;
23/07/2019 06:18:29;117;0;132.88;16;22.09;6.11;255.3;7.40;68661;4849.261;-13021.611;145;150;158.4;57;57.1;6;6.3;28.6;-1.0;
23/07/2019 06:18:49;117;0;131.88;16;22.12;6.17;251.3;7.40;68653;4849.261;-13021.611;145;150;160.4;57;57.2;6;6.8;28.6;-1.0;
23/07/2019 06:19:09;117;0;130.35;16;22.13;6.11;247.3;7.40;68664;4849.261;-13021.611;145;150;158.4;57;57.1;6;6.3;28.7;-1.0;
23/07/2019 06:19:29;117;0;129.40;16;22.08;6.11;243.3;7.40;68662;4849.261;-13021.611;145;150;160.4;57;57.1;6;6.3;28.6;-1.0;
23/07/2019 06:19:49;117;0;128.18;16;22.22;6.18;239.1;7.40;68666;4849.261;-13021.611;145;150;160.4;57;57.1;6;6.3;28.7;-1.0;
23/07/2019 06:20:09;117;0;129.44;16;22.01;6.21;234.9;7.50;68670;4849.261;-13021.611;145;150;158.4;57;57.1;6;6.8;28.6;-1.0;
23/07/2019 06:20:29;117;0;130.82;16;21.94;6.17;231.0;7.50;68678;4849.261;-13021.611;145;150;160.4;57;57.1;6;6.3;28.6;-1.0;
23/07/2019 06:20:49;117;0;132.77;16;21.87;6.27;226.9;7.50;68661;4849.261;-13021.611;145;150;160.4;57;57.2;4;4.1;28.6;-1.0;
23/07/2019 06:21:09;117;0;131.69;16;21.96;4.68;222.8;7.50;68667;4849.261;-13021.611;145;150;160.4;57;57.1;5;5.0;28.7;-1.0;
23/07/2019 06:21:29;117;0;130.50;16;21.98;5.49;218.6;7.50;68673;4849.261;-13021.611;145;150;160.4;57;57.1;6;5.9;28.6;-1.0;
23/07/2019 06:21:49;117;0;129.58;16;21.86;6.16;214.6;7.50;68673;4849.261;-13021.611;145;150;160.4;57;57.2;6;6.3;28.6;-1.0;
23/07/2019 06:22:09;117;0;129.15;16;21.71;6.10;210.6;7.50;68682;4849.261;-13021.611;145;150;158.4;57;57.2;6;6.3;28.6;-1.0;
23/07/2019 06:22:29;117;0;128.37;16;21.65;6.12;206.5;7.50;68687;4849.261;-13021.611;145;150;160.4;57;57.1;6;6.3;28.6;-1.0;
23/07/2019 06:22:49;117;0;126.66;16;21.87;6.17;202.5;7.50;68683;4849.261;-13021.611;145;150;158.4;57;57.1;6;6.3;28.6;-1.0;
23/07/2019 06:23:09;117;0;125.55;16;21.92;6.19;198.4;7.50;68680;4849.261;-13021.611;145;150;160.4;57;57.2;7;7.7;28.6;-1.0;
23/07/2019 06:23:29;117;0;126.32;16;21.41;6.88;194.4;7.60;68680;4849.261;-13021.611;145;150;158.4;57;57.2;6;5.9;28.6;-1.0;
23/07/2019 06:23:49;117;0;123.73;16;21.72;5.63;190.5;7.60;68684;4849.261;-13021.611;145;150;160.4;57;57.2;8;8.1;28.6;-1.0;
23/07/2019 06:24:09;117;0;126.06;16;21.45;7.30;186.4;7.60;68686;4849.261;-13021.611;145;150;158.4;57;57.2;6;5.9;28.6;-1.0;
23/07/2019 06:24:29;117;0;129.39;16;21.31;5.55;182.4;7.60;68692;4849.261;-13021.611;145;150;158.4;57;57.1;6;5.4;28.6;-1.0;
23/07/2019 06:24:49;117;0;129.50;16;21.41;5.58;178.5;7.60;68707;4849.261;-13021.611;145;150;160.4;57;57.1;6;5.4;28.6;-1.0;
23/07/2019 06:25:09;117;0;129.87;16;21.45;5.57;174.5;7.60;68698;4849.261;-13021.611;145;150;160.4;57;57.1;6;5.4;28.6;-1.0;
23/07/2019 06:25:29;117;0;126.25;16;21.62;5.57;170.5;7.60;68698;4849.261;-13021.611;145;150;158.4;57;57.1;6;5.4;28.6;-1.0;
23/07/2019 06:25:49;117;0;123.42;16;21.47;5.56;166.5;7.60;68707;4849.261;-13021.611;145;150;160.4;57;57.1;9;9.0;28.6;-1.0;
23/07/2019 06:26:09;117;0;122.72;16;21.44;7.84;162.4;7.70;68710;4849.261;-13021.611;145;150;160.4;57;57.1;9;9.5;28.6;-1.0;
23/07/2019 06:26:29;117;0;125.15;16;21.11;7.77;158.6;7.70;68709;4849.261;-13021.611;145;150;160.4;57;57.1;7;7.2;28.6;-1.0;
23/07/2019 06:26:49;117;0;125.85;16;21.10;6.12;154.5;7.70;68713;4849.261;-13021.611;145;150;158.4;57;57.1;7;6.3;28.6;-1.0;
23/07/2019 06:27:09;117;0;126.52;16;21.09;6.16;150.6;7.70;68715;4849.261;-13021.611;145;150;160.4;57;57.1;7;6.3;28.6;-1.0;
23/07/2019 06:27:29;117;0;126.76;16;21.07;6.13;146.8;7.70;68723;4849.261;-13021.611;145;150;158.4;57;57.1;7;6.8;28.6;-1.0;
23/07/2019 06:27:49;117;0;132.42;16;20.78;5.84;142.9;7.70;68729;4849.261;-13021.611;145;150;158.4;57;57.1;7;6.3;28.6;-1.0;
23/07/2019 06:28:09;117;0;134.63;16;20.36;6.36;139.0;7.70;68729;4849.261;-13021.611;145;150;160.4;57;57.1;4;4.1;28.6;-1.0;
23/07/2019 06:28:29;117;0;137.52;16;20.58;4.85;135.3;7.80;68745;4849.261;-13021.611;145;150;160.4;57;57.1;3;3.2;28.6;-1.0;
23/07/2019 06:28:49;117;0;134.69;16;20.64;4.10;131.5;7.80;68743;4849.261;-13021.611;145;150;158.4;57;57.1;5;5.0;28.6;-1.0;
23/07/2019 06:29:09;117;0;130.96;16;20.43;5.68;127.8;7.80;68749;4849.261;-13021.611;145;150;160.4;57;57.1;8;8.1;28.6;-1.0;
23/07/2019 06:29:29;117;0;131.36;16;19.71;7.46;124.3;7.80;68746;4849.261;-13021.611;145;150;160.4;57;57.2;6;5.9;28.6;-1.0;
23/07/2019 06:29:49;117;0;131.63;16;19.79;5.74;121.1;7.80;68754;4849.261;-13021.611;145;150;160.4;57;57.2;6;5.4;28.6;-1.0;
23/07/2019 06:30:09;117;0;135.64;16;18.86;5.83;117.6;7.80;68745;4849.261;-13021.611;145;150;158.4;57;57.2;3;3.2;28.6;-1.0;
23/07/2019 06:30:29;117;0;138.34;16;18.47;4.24;114.5;7.80;68757;4849.261;-13021.611;145;150;158.4;57;57.1;2;1.4;28.6;-1.0;
23/07/2019 06:30:49;117;0;136.01;16;17.93;3.35;111.5;7.90;68764;4849.261;-13021.611;145;150;160.4;57;57.1;4;4.5;28.6;-1.0;
23/07/2019 06:31:09;117;0;129.12;16;17.66;5.42;108.6;7.90;68762;4849.261;-13021.611;145;150;160.4;57;57.2;4;5.0;28.6;-1.0;
23/07/2019 06:31:29;117;0;127.51;16;16.80;5.33;105.9;7.90;68766;4849.261;-13021.611;145;150;160.4;57;57.2;4;5.0;28.7;-1.0;
23/07/2019 06:31:49;117;0;135.76;16;16.28;5.64;103.4;7.90;68767;4849.261;-13021.611;145;150;160.4;57;57.1;2;1.4;28.6;-1.0;
23/07/2019 06:32:09;117;0;135.39;16;16.04;3.36;100.9;7.90;68767;4849.261;-13021.611;145;150;160.4;57;57.1;3;3.2;28.6;-1.0;
23/07/2019 06:32:29;117;0;130.69;16;15.87;4.94;98.3;7.90;68765;4849.261;-13021.611;145;150;160.4;57;57.2;6;5.9;28.6;-1.0;
23/07/2019 06:32:49;117;0;127.37;16;15.42;6.33;95.8;8.00;68756;4849.261;-13021.611;145;150;160.4;57;57.1;6;6.3;28.6;-1.0;
23/07/2019 06:33:09;117;0;125.35;16;15.08;6.15;93.5;8.00;68761;4849.261;-13021.611;145;150;158.4;57;57.2;7;7.2;28.6;-1.0;
23/07/2019 06:33:29;117;0;129.11;16;14.62;6.98;91.0;8.00;68765;4849.261;-13021.611;145;150;160.4;57;57.2;7;7.7;28.6;-1.0;
23/07/2019 06:33:49;117;0;130.89;16;14.60;6.96;88.7;8.00;68773;4849.261;-13021.611;145;150;158.4;57;57.2;7;7.7;28.6;-1.0;
23/07/2019 06:34:09;117;0;137.35;16;14.45;7.20;86.3;8.00;68765;4849.261;-13021.611;145;150;158.4;57;57.1;0;0.0;28.7;-1.0;
23/07/2019 06:34:29;117;0;136.98;16;14.22;2.70;83.8;8.00;68776;4849.261;-13021.611;145;150;158.4;57;57.2;2;2.3;28.6;-1.0;
23/07/2019 06:34:49;117;0;136.87;16;13.97;4.62;81.5;8.00;68781;4849.261;-13021.611;145;150;160.4;57;57.2;2;2.7;28.6;-1.0;
23/07/2019 06:35:09;117;0;135.34;16;13.71;4.41;79.4;8.00;68784;4849.261;-13021.611;145;150;160.4;57;57.2;3;3.2;28.6;-1.0;
23/07/2019 06:35:29;117;0;137.38;16;13.50;5.15;77.2;8.10;68787;4849.261;-13021.611;145;150;160.4;57;57.2;1;0.9;28.6;-1.0;
23/07/2019 06:35:49;117;0;138.55;16;13.16;3.47;75.1;8.10;68792;4849.261;-13021.611;145;150;160.4;57;57.1;1;0.5;28.6;-1.0;
