Timestamp;NavState;SecurityLevel;Heading;Declination;Pitch;Roll;Depth;Temperature;Pa;Lat;Lon;DesiredH;BallastCmd;BallastPos;LinCmd;LinPos;AngCmd;AngPos;Voltage;Altitude;
22/07/2019 22:22:31;117;0;144.32;16;8.10;-1.52;8.8;10.20;69863;4852.768;-13031.701;145;150;160.4;57;57.1;-7;-7.2;28.7;-1.0;
22/07/2019 22:22:41;115;0;145.37;16;7.91;1.15;8.1;10.30;69873;4852.768;-13031.701;145;300;160.4;100;95.5;0;0.9;28.7;-1.0;
22/07/2019 22:22:51;115;0;128.43;16;-23.28;4.33;7.4;10.30;69838;4852.768;-13031.701;145;300;303.0;100;100.4;0;0.9;28.3;-1.0;
22/07/2019 22:23:01;115;0;121.53;16;-68.86;4.64;7.6;10.40;69654;4852.768;-13031.701;145;300;306.9;100;100.3;0;0.9;28.6;-1.0;
22/07/2019 22:23:11;115;0;125.42;16;-56.98;-7.46;5.8;10.50;69682;4852.768;-13031.701;145;300;306.9;100;100.3;0;1.4;28.7;-1.0;
22/07/2019 22:23:21;116;0;121.74;16;-38.85;-1.35;2.9;10.50;69694;4852.768;-13031.701;145;300;312.9;100;100.3;0;0.9;28.7;-1.0;
22/07/2019 22:23:41;116;0;195.77;16;-32.35;5.08;2.9;10.60;69704;4852.768;-13031.701;145;300;310.9;100;100.1;0;0.9;28.7;-1.0;
22/07/2019 22:24:01;116;0;229.20;16;-23.29;9.57;2.8;10.80;69737;4852.768;-13031.701;145;300;310.9;100;100.1;0;1.4;28.7;-1.0;
22/07/2019 22:24:21;116;0;210.52;16;-31.96;-1.34;2.8;10.90;69739;4852.768;-13031.701;145;300;310.9;100;100.3;0;0.9;28.7;-1.0;
22/07/2019 22:24:42;116;0;264.21;16;-27.30;-0.37;3.0;11.00;69760;4852.768;-13031.701;145;300;312.9;100;100.1;0;0.9;28.7;-1.0;
22/07/2019 22:25:01;116;0;254.51;16;-34.47;9.81;3.1;11.10;69781;4851.699;-13028.250;145;300;312.9;100;100.1;0;1.4;28.5;-1.0;
22/07/2019 22:26:38;116;0;223.78;16;-32.24;2.58;3.0;11.60;69824;4851.698;-13028.250;145;300;312.9;100;100.1;0;0.9;28.7;-1.0;
22/07/2019 22:26:58;116;0;226.62;16;-34.25;4.54;3.0;11.70;69842;4851.695;-13028.248;145;300;310.9;100;100.3;0;1.4;28.7;-1.0;
22/07/2019 22:27:18;116;0;242.84;16;-12.35;-0.21;2.7;11.80;69850;4851.642;-13028.209;145;300;308.9;100;100.3;0;1.4;28.8;-1.0;
22/07/2019 22:32:54;116;0;264.32;16;-29.09;-0.72;3.0;13.40;69977;4851.641;-13028.208;145;300;308.9;100;100.3;0;0.9;28.7;-1.0;
22/07/2019 22:33:14;116;0;263.38;16;-23.14;9.43;2.8;13.50;69993;4851.637;-13028.204;145;300;308.9;100;100.3;0;1.4;28.7;-1.0;
22/07/2019 22:33:34;116;0;244.61;16;-6.37;6.46;2.6;13.60;69988;4851.636;-13028.204;145;300;310.9;100;100.3;0;1.4;28.7;-1.0;
22/07/2019 22:33:54;116;0;213.67;16;-24.31;3.97;2.8;13.60;70005;4851.632;-13028.202;145;300;310.9;100;100.1;0;1.4;28.7;-1.0;
22/07/2019 22:34:14;116;0;262.79;16;-51.88;-2.20;3.3;13.70;70006;4851.618;-13028.194;145;300;310.9;100;100.1;0;1.4;28.7;-1.0;
22/07/2019 22:35:26;116;0;221.64;16;-27.83;4.53;3.0;14.00;70020;4851.617;-13028.195;145;300;310.9;100;100.1;0;1.4;28.7;-1.0;
22/07/2019 22:35:46;116;0;248.97;16;-35.50;5.20;3.1;14.00;70029;4851.613;-13028.193;145;300;308.9;100;100.3;0;0.9;28.7;-1.0;
22/07/2019 22:36:06;116;0;257.06;16;-19.65;4.61;2.7;14.10;70043;4851.609;-13028.190;145;300;306.9;100;100.3;0;0.9;28.7;-1.0;
22/07/2019 22:36:26;116;0;270.32;16;-33.08;6.55;3.0;14.20;70043;4851.605;-13028.190;145;300;308.9;100;100.1;0;1.4;28.6;-1.0;
22/07/2019 22:36:46;110;0;250.29;16;-31.44;5.76;2.9;14.20;70051;4851.605;-13028.190;145;-500;213.9;100;100.3;0;1.4;28.7;-1.0;
22/07/2019 22:36:56;110;0;265.22;16;-25.06;8.82;2.7;14.30;70282;4851.605;-13028.190;145;-500;63.4;100;100.3;0;1.4;28.5;-1.0;
22/07/2019 22:37:06;110;0;268.38;16;-23.40;0.71;2.8;14.30;70484;4851.605;-13028.190;145;-500;-103.0;100;100.3;0;1.4;28.6;-1.0;
22/07/2019 22:37:16;110;0;283.20;16;-46.31;1.17;3.4;14.30;70747;4851.605;-13028.190;145;-500;-299.0;94;93.9;0;1.4;28.6;-1.0;
22/07/2019 22:37:26;110;0;283.01;16;-53.58;5.58;5.1;14.40;71064;4851.605;-13028.190;145;-500;-499.0;82;81.5;0;1.4;28.6;-1.0;
22/07/2019 22:37:36;110;0;256.75;16;-51.32;6.08;7.9;14.40;71379;4851.605;-13028.190;145;-500;-501.0;70;69.9;0;1.4;28.6;-1.0;
22/07/2019 22:37:46;100;0;252.15;16;-39.91;2.81;11.6;14.40;71356;4851.605;-13028.190;145;-500;-501.0;70;69.7;0;1.4;28.6;-1.0;
22/07/2019 22:38:06;100;0;235.86;16;-28.53;3.88;18.2;14.50;71362;4851.605;-13028.190;145;-500;-499.0;70;69.9;45;45.1;28.7;0.0;
22/07/2019 22:38:26;100;0;228.64;16;-24.74;24.31;23.8;14.50;71346;4851.605;-13028.190;145;-500;-499.0;70;69.7;42;42.0;28.7;0.0;
22/07/2019 22:38:46;100;0;217.80;16;-23.24;21.60;28.7;14.50;71292;4851.605;-13028.190;145;-500;-501.0;70;69.7;32;32.0;28.7;0.0;
22/07/2019 22:39:06;100;0;194.68;16;-21.86;17.91;33.0;14.50;71198;4851.605;-13028.190;145;-500;-499.0;70;69.7;20;19.9;28.6;0.0;
22/07/2019 22:39:26;100;0;177.93;16;-22.92;11.84;37.1;14.50;71110;4851.605;-13028.190;145;-500;-497.0;70;69.7;14;14.0;28.7;0.0;
22/07/2019 22:39:46;100;0;158.27;16;-22.34;9.24;41.3;14.40;71032;4851.605;-13028.190;145;-500;-497.0;70;69.7;8;8.1;28.7;0.0;
22/07/2019 22:40:06;100;0;139.87;16;-23.90;6.55;45.1;14.30;70945;4851.605;-13028.190;145;-500;-497.0;70;69.7;4;4.1;28.7;0.0;
22/07/2019 22:40:26;100;0;132.99;16;-23.90;4.65;49.2;14.30;70869;4851.605;-13028.190;145;-500;-497.0;70;69.7;6;5.9;28.7;0.0;
22/07/2019 22:40:46;100;0;120.69;16;-23.31;5.87;53.0;14.20;70805;4851.605;-13028.190;145;-500;-497.0;70;69.7;6;6.3;28.7;0.0;
22/07/2019 22:41:06;100;0;110.01;16;-23.66;5.99;56.6;14.10;70745;4851.605;-13028.190;145;-500;-499.0;70;69.7;2;1.8;28.7;0.0;
22/07/2019 22:41:26;100;0;100.55;16;-23.63;3.54;60.3;14.10;70695;4851.605;-13028.190;145;-500;-497.0;70;69.7;0;0.0;28.7;0.0;
22/07/2019 22:41:46;100;0;95.61;16;-23.79;2.87;64.1;14.00;70639;4851.605;-13028.190;145;-500;-497.0;70;69.7;0;-0.5;28.7;0.0;
22/07/2019 22:42:06;100;0;85.98;16;-23.48;2.91;68.0;13.90;70596;4851.605;-13028.190;145;-500;-497.0;70;69.7;-2;-1.8;28.7;0.0;
22/07/2019 22:42:26;100;0;74.56;16;-23.17;2.09;71.9;13.80;70548;4851.605;-13028.190;145;-500;-497.0;70;69.7;-8;-8.1;28.7;0.0;
22/07/2019 22:42:46;100;0;69.97;16;-23.00;-0.78;75.8;13.70;70509;4851.605;-13028.190;145;-500;-497.0;70;69.7;-9;-9.0;28.7;0.0;
22/07/2019 22:43:06;100;0;66.57;16;-22.13;-1.06;79.7;13.70;70470;4851.605;-13028.190;145;-500;-497.0;70;69.7;-11;-11.3;28.7;0.0;
22/07/2019 22:43:26;100;0;63.41;16;-22.69;-2.09;83.1;13.60;70435;4851.605;-13028.190;145;-500;-497.0;70;69.7;-13;-13.5;28.7;0.0;
22/07/2019 22:43:46;100;0;60.14;16;-22.95;-3.12;86.6;13.50;70426;4851.605;-13028.190;145;-500;-497.0;70;69.7;-16;-16.2;28.7;0.0;
22/07/2019 22:44:06;100;0;62.95;16;-22.44;-4.38;90.1;13.40;70395;4851.605;-13028.190;145;-500;-497.0;70;69.7;-16;-16.7;28.7;0.0;
22/07/2019 22:44:26;100;0;66.67;16;-21.97;-4.25;93.6;13.30;70373;4851.605;-13028.190;145;-500;-497.0;70;69.7;-16;-16.7;28.7;0.0;
22/07/2019 22:44:46;100;0;62.30;16;-21.66;-4.25;96.9;13.20;70357;4851.605;-13028.190;145;-500;-497.0;70;69.6;-21;-21.7;28.7;0.0;
22/07/2019 22:45:06;100;0;67.67;16;-21.23;-6.68;100.3;13.20;70352;4851.605;-13028.190;145;-500;-497.0;70;69.7;-20;-19.9;28.7;0.0;
22/07/2019 22:45:26;100;0;72.63;16;-20.59;-5.26;103.6;13.10;70340;4851.605;-13028.190;145;-500;-495.0;70;69.7;-21;-21.2;28.7;0.0;
22/07/2019 22:45:46;100;0;73.83;16;-20.86;-6.67;106.6;13.10;70326;4851.605;-13028.190;145;-500;-495.0;70;69.7;-23;-23.0;28.7;0.0;
22/07/2019 22:46:06;100;0;74.04;16;-20.94;-7.55;109.9;13.00;70315;4851.605;-13028.190;145;-500;-495.0;70;69.7;-24;-23.9;28.7;0.0;
22/07/2019 22:46:26;100;0;76.76;16;-20.11;-7.97;113.1;12.90;70311;4851.605;-13028.190;145;-500;-497.0;70;69.7;-24;-24.4;28.7;0.0;
22/07/2019 22:46:46;100;0;78.67;16;-20.02;-8.04;116.3;12.90;70305;4851.605;-13028.190;145;-500;-497.0;70;69.6;-23;-22.6;28.7;0.0;
22/07/2019 22:47:06;100;0;77.62;16;-20.20;-6.88;119.0;12.80;70299;4851.605;-13028.190;145;-500;-495.0;70;69.6;-24;-23.9;28.7;0.0;
22/07/2019 22:47:26;100;0;79.39;16;-20.13;-7.97;122.0;12.70;70289;4851.605;-13028.190;145;-500;-497.0;70;69.6;-23;-23.0;28.7;0.0;
22/07/2019 22:47:46;100;0;80.25;16;-20.13;-7.09;124.9;12.70;70283;4851.605;-13028.190;145;-500;-497.0;70;69.6;-23;-22.6;28.7;0.0;
22/07/2019 22:48:06;100;0;81.83;16;-19.96;-7.10;127.8;12.60;70264;4851.605;-13028.190;145;-500;-495.0;70;69.6;-23;-22.6;28.7;0.0;
22/07/2019 22:48:26;100;0;83.00;16;-19.74;-7.13;130.8;12.60;70266;4851.605;-13028.190;145;-500;-497.0;70;69.6;-23;-22.6;28.7;0.0;
22/07/2019 22:48:46;100;0;84.41;16;-19.69;-7.08;133.7;12.50;70261;4851.605;-13028.190;145;-500;-495.0;70;69.6;-22;-22.1;28.7;0.0;
22/07/2019 22:49:06;100;0;83.90;16;-19.60;-6.54;136.6;12.40;70246;4851.605;-13028.190;145;-500;-495.0;70;69.7;-23;-23.0;28.7;0.0;
22/07/2019 22:49:26;100;0;82.36;16;-19.86;-7.48;139.3;12.40;70245;4851.605;-13028.190;145;-500;-497.0;70;69.6;-24;-23.9;28.6;0.0;
22/07/2019 22:49:46;100;0;84.16;16;-19.50;-8.07;142.1;12.30;70233;4851.605;-13028.190;145;-500;-495.0;70;69.7;-23;-22.6;28.7;0.0;
22/07/2019 22:50:06;100;0;86.11;16;-19.37;-6.92;145.0;12.30;70231;4851.605;-13028.190;145;-500;-495.0;70;69.7;-22;-22.1;28.7;0.0;
22/07/2019 22:50:26;100;0;87.46;16;-19.33;-6.89;147.8;12.20;70226;4851.605;-13028.190;145;-500;-497.0;70;69.6;-22;-22.1;28.7;0.0;
22/07/2019 22:50:46;100;0;87.18;16;-19.27;-6.90;150.6;12.20;70208;4851.605;-13028.190;145;-500;-497.0;70;69.6;-22;-21.7;28.7;0.0;
22/07/2019 22:51:06;100;0;88.01;16;-19.05;-6.92;153.3;12.10;70215;4851.605;-13028.190;145;-500;-495.0;70;69.6;-22;-22.1;28.7;0.0;
22/07/2019 22:51:26;100;0;90.10;16;-19.04;-6.92;156.1;12.10;70204;4851.605;-13028.190;145;-500;-495.0;70;69.6;-21;-21.2;28.6;0.0;
22/07/2019 22:51:46;100;0;89.72;16;-19.09;-6.10;158.9;12.00;70201;4851.605;-13028.190;145;-500;-495.0;70;69.7;-22;-22.1;28.6;0.0;
22/07/2019 22:52:06;100;0;90.35;16;-19.11;-7.06;161.7;12.00;70194;4851.605;-13028.190;145;-500;-495.0;70;69.6;-22;-22.6;28.6;0.0;
22/07/2019 22:52:26;100;0;89.83;16;-19.05;-7.14;164.6;11.90;70191;4851.605;-13028.190;145;-500;-495.0;70;69.6;-22;-22.6;28.7;0.0;
22/07/2019 22:52:46;100;0;88.31;16;-19.10;-7.19;167.4;11.90;70178;4851.605;-13028.190;145;-500;-495.0;70;69.6;-23;-23.0;28.7;0.0;
22/07/2019 22:53:06;100;0;88.48;16;-19.27;-7.43;170.1;11.80;70164;4851.605;-13028.190;145;-500;-497.0;70;69.7;-23;-23.5;28.6;0.0;
22/07/2019 22:53:26;100;0;88.83;16;-19.19;-7.55;172.8;11.80;70165;4851.605;-13028.190;145;-500;-493.1;70;69.6;-23;-23.5;28.7;0.0;
22/07/2019 22:53:46;100;0;89.74;16;-19.27;-7.56;175.5;11.70;70156;4851.605;-13028.190;145;-500;-495.0;70;69.6;-22;-22.1;28.7;0.0;
22/07/2019 22:54:06;100;0;90.49;16;-19.15;-6.67;178.4;11.70;70153;4851.605;-13028.190;145;-500;-495.0;70;69.6;-22;-21.7;28.7;0.0;
22/07/2019 22:54:26;100;0;90.77;16;-19.17;-6.68;181.1;11.60;70147;4851.605;-13028.190;145;-500;-495.0;70;69.7;-22;-21.7;28.7;0.0;
22/07/2019 22:54:46;100;0;91.01;16;-19.21;-6.74;183.9;11.60;70145;4851.605;-13028.190;145;-500;-497.0;70;69.7;-21;-21.2;28.7;0.0;
22/07/2019 22:55:06;100;0;90.44;16;-19.02;-6.07;186.5;11.50;70138;4851.605;-13028.190;145;-500;-495.0;70;69.6;-22;-22.1;28.7;0.0;
22/07/2019 22:55:26;100;0;91.37;16;-19.11;-7.16;189.3;11.50;70126;4851.605;-13028.190;145;-500;-495.0;70;69.7;-22;-22.6;28.7;0.0;
22/07/2019 22:55:46;100;0;91.41;16;-19.07;-7.20;192.0;11.40;70134;4851.605;-13028.190;145;-500;-495.0;70;69.6;-22;-22.6;28.7;0.0;
22/07/2019 22:56:06;100;0;92.76;16;-19.16;-7.24;194.6;11.40;70130;4851.605;-13028.190;145;-500;-495.0;70;69.7;-21;-21.2;28.7;0.0;
22/07/2019 22:56:26;100;0;94.56;16;-18.91;-6.01;197.3;11.30;70119;4851.605;-13028.190;145;-500;-495.0;70;69.6;-20;-19.9;28.6;0.0;
22/07/2019 22:56:46;100;0;95.95;16;-18.84;-5.48;199.8;11.30;70113;4851.605;-13028.190;145;-500;-495.0;70;69.7;-20;-19.0;28.7;0.0;
22/07/2019 22:57:06;100;0;97.14;16;-18.88;-5.47;202.3;11.20;70113;4851.605;-13028.190;145;-500;-495.0;70;69.7;-20;-19.0;28.7;0.0;
22/07/2019 22:57:26;100;0;98.04;16;-18.90;-5.48;204.8;11.20;70107;4851.605;-13028.190;145;-500;-495.0;70;69.7;-20;-19.0;28.7;0.0;
22/07/2019 22:57:46;100;0;98.34;16;-19.04;-5.43;207.3;11.20;70113;4851.605;-13028.190;145;-500;-495.0;70;69.6;-20;-19.0;28.7;0.0;
22/07/2019 22:58:06;100;0;98.35;16;-18.75;-5.45;209.8;11.10;70101;4851.605;-13028.190;145;-500;-495.0;70;69.6;-20;-19.0;28.6;0.0;
22/07/2019 22:58:26;100;0;96.87;16;-18.76;-5.42;212.3;11.10;70086;4851.605;-13028.190;145;-500;-495.0;70;69.6;-22;-22.1;28.7;0.0;
22/07/2019 22:58:46;100;0;99.41;16;-18.60;-7.08;214.8;11.00;70092;4851.605;-13028.190;145;-500;-495.0;70;69.7;-19;-19.0;28.6;0.0;
22/07/2019 22:59:06;100;0;97.86;16;-18.65;-5.06;217.3;11.00;70093;4851.605;-13028.190;145;-500;-495.0;70;69.7;-21;-21.2;28.6;0.0;
22/07/2019 22:59:26;100;0;98.38;16;-18.45;-6.60;219.7;11.00;70080;4851.605;-13028.190;145;-500;-495.0;70;69.6;-20;-19.9;28.7;0.0;
22/07/2019 22:59:46;100;0;98.81;16;-18.49;-5.47;222.1;10.90;70071;4851.605;-13028.190;145;-500;-495.0;70;69.7;-20;-19.0;28.7;0.0;
22/07/2019 23:00:06;100;0;99.73;16;-18.55;-5.48;224.6;10.90;70075;4851.605;-13028.190;145;-500;-495.0;70;69.6;-20;-19.0;28.7;0.0;
22/07/2019 23:00:26;100;0;99.68;16;-18.54;-5.47;226.9;10.80;70066;4851.605;-13028.190;145;-500;-495.0;70;69.7;-20;-19.0;28.7;0.0;
22/07/2019 23:00:46;100;0;100.07;16;-18.53;-5.48;229.3;10.80;70057;4851.605;-13028.190;145;-500;-495.0;70;69.6;-20;-19.0;28.7;0.0;
22/07/2019 23:01:06;100;0;98.24;16;-18.51;-5.47;231.6;10.70;70057;4851.605;-13028.190;145;-500;-495.0;70;69.6;-21;-21.2;28.7;0.0;
22/07/2019 23:01:26;100;0;99.53;16;-18.51;-6.66;234.0;10.70;70050;4851.605;-13028.190;145;-500;-495.0;70;69.7;-20;-19.4;28.7;0.0;
22/07/2019 23:01:46;100;0;98.66;16;-17.95;-5.70;236.4;10.70;70051;4851.605;-13028.190;145;-500;-495.0;70;69.6;-21;-21.2;28.7;0.0;
22/07/2019 23:02:06;100;0;98.27;16;-18.97;-6.95;238.7;10.60;70035;4851.605;-13028.190;145;-500;-495.0;70;69.6;-21;-21.7;28.7;0.0;
22/07/2019 23:02:26;100;0;98.20;16;-18.80;-6.95;241.1;10.60;70045;4851.605;-13028.190;145;-500;-495.0;70;69.6;-21;-21.7;28.7;0.0;
22/07/2019 23:02:46;100;0;97.89;16;-18.76;-6.80;243.5;10.60;70037;4851.605;-13028.190;145;-500;-495.0;70;69.6;-21;-22.1;28.7;0.0;
22/07/2019 23:03:06;100;0;98.94;16;-18.72;-6.86;245.9;10.50;70036;4851.605;-13028.190;145;-500;-495.0;70;69.7;-20;-19.4;28.7;0.0;
22/07/2019 23:03:26;100;0;99.30;16;-18.47;-5.36;248.5;10.50;70040;4851.605;-13028.190;145;-500;-495.0;70;69.6;-20;-18.5;28.7;0.0;
22/07/2019 23:03:46;100;0;98.70;16;-18.48;-5.36;251.0;10.50;70026;4851.605;-13028.190;145;-500;-495.0;70;69.6;-21;-21.7;28.7;0.0;
22/07/2019 23:04:06;100;0;98.60;16;-18.49;-6.92;253.6;10.40;70028;4851.605;-13028.190;145;-500;-495.0;70;69.7;-21;-22.1;28.7;0.0;
22/07/2019 23:04:26;100;0;99.13;16;-18.52;-6.90;256.1;10.40;70032;4851.605;-13028.190;145;-500;-495.0;70;69.6;-20;-19.9;28.6;0.0;
22/07/2019 23:04:46;100;0;99.06;16;-18.43;-5.46;258.6;10.40;70029;4851.605;-13028.190;145;-500;-495.0;70;69.6;-20;-19.0;28.7;0.0;
22/07/2019 23:05:06;100;0;99.59;16;-18.41;-5.47;261.1;10.40;70031;4851.605;-13028.190;145;-500;-493.1;70;69.6;-20;-19.0;28.7;0.0;
22/07/2019 23:05:26;100;0;99.60;16;-18.45;-5.42;263.6;10.30;70027;4851.605;-13028.190;145;-500;-495.0;70;69.7;-20;-19.0;28.7;0.0;
22/07/2019 23:05:46;100;0;99.43;16;-18.51;-5.40;266.1;10.30;70013;4851.605;-13028.190;145;-500;-495.0;70;69.6;-20;-19.0;28.7;0.0;
22/07/2019 23:06:07;100;0;98.75;16;-18.49;-5.45;268.7;10.30;70018;4851.605;-13028.190;145;-500;-497.0;70;69.7;-21;-21.2;28.7;0.0;
22/07/2019 23:06:27;100;0;100.31;16;-18.59;-6.88;271.2;10.20;70011;4851.605;-13028.190;145;-500;-495.0;70;69.6;-20;-19.9;28.7;0.0;
22/07/2019 23:06:47;100;0;101.26;16;-18.37;-5.63;273.8;10.20;70005;4851.605;-13028.190;145;-500;-495.0;70;69.6;-19;-19.0;28.7;0.0;
22/07/2019 23:07:07;100;0;100.99;16;-18.39;-5.04;276.4;10.20;70013;4851.605;-13028.190;145;-500;-495.0;70;69.6;-20;-19.9;28.7;0.0;
22/07/2019 23:07:27;100;0;100.82;16;-18.61;-6.23;278.8;10.20;70011;4851.605;-13028.190;145;-500;-495.0;70;69.7;-20;-20.3;28.7;0.0;
22/07/2019 23:07:47;100;0;101.21;16;-18.58;-6.10;281.3;10.10;70004;4851.605;-13028.190;145;-500;-495.0;70;69.6;-20;-20.3;28.6;0.0;
22/07/2019 23:08:07;100;0;101.23;16;-18.50;-6.15;283.8;10.10;70006;4851.605;-13028.190;145;-500;-495.0;70;69.6;-20;-20.3;28.7;0.0;
22/07/2019 23:08:27;100;0;101.07;16;-18.39;-6.12;286.4;10.10;70001;4851.605;-13028.190;145;-500;-495.0;70;69.6;-20;-20.3;28.7;0.0;
22/07/2019 23:08:47;100;0;102.13;16;-18.38;-6.17;289.1;10.00;69987;4851.605;-13028.190;145;-500;-495.0;70;69.6;-19;-18.5;28.7;0.0;
22/07/2019 23:09:07;100;0;102.66;16;-18.22;-5.00;291.8;10.00;69992;4851.605;-13028.190;145;-500;-495.0;70;69.6;-19;-17.6;28.7;0.0;
22/07/2019 23:09:27;100;0;103.67;16;-18.22;-4.97;294.4;10.00;69990;4851.605;-13028.190;145;-500;-495.0;70;69.6;-19;-17.6;28.7;0.0;
22/07/2019 23:09:47;100;0;103.70;16;-18.09;-4.99;297.0;10.00;69987;4851.605;-13028.190;145;-500;-497.0;70;69.6;-19;-17.6;28.7;0.0;
22/07/2019 23:10:07;100;0;104.49;16;-18.12;-4.99;299.6;9.90;69991;4851.605;-13028.190;145;-500;-495.0;70;69.6;-19;-18.1;28.7;0.0;
22/07/2019 23:10:27;100;0;104.57;16;-18.07;-5.04;302.2;9.90;69979;4851.605;-13028.190;145;-500;-495.0;70;69.6;-19;-17.6;28.7;0.0;
22/07/2019 23:10:47;100;0;104.81;16;-18.08;-4.97;304.8;9.90;69986;4851.605;-13028.190;145;-500;-495.0;70;69.6;-19;-17.6;28.6;0.0;
22/07/2019 23:11:07;100;0;104.43;16;-18.03;-4.94;307.5;9.90;69982;4851.605;-13028.190;145;-500;-497.0;70;69.6;-19;-17.6;28.7;0.0;
22/07/2019 23:11:27;100;0;104.68;16;-18.07;-5.00;310.0;9.80;69976;4851.605;-13028.190;145;-500;-493.1;70;69.6;-19;-17.6;28.7;0.0;
22/07/2019 23:11:47;100;0;104.14;16;-18.14;-4.99;312.6;9.80;69969;4851.605;-13028.190;145;-500;-495.0;70;69.6;-19;-17.6;28.7;0.0;
22/07/2019 23:12:07;100;0;102.69;16;-18.21;-4.96;315.2;9.80;69968;4851.605;-13028.190;145;-500;-495.0;70;69.7;-20;-19.9;28.7;0.0;
22/07/2019 23:12:27;100;0;102.31;16;-18.18;-6.11;317.8;9.80;69969;4851.605;-13028.190;145;-500;-495.0;70;69.7;-20;-20.3;28.7;0.0;
22/07/2019 23:12:47;100;0;102.29;16;-18.03;-6.09;320.4;9.80;69970;4851.605;-13028.190;145;-500;-495.0;70;69.7;-20;-20.3;28.6;0.0;
22/07/2019 23:13:07;100;0;103.04;16;-18.13;-6.11;323.0;9.70;69967;4851.605;-13028.190;145;-500;-495.0;70;69.6;-19;-18.5;28.7;0.0;
22/07/2019 23:13:27;100;0;104.09;16;-18.07;-5.25;325.5;9.70;69962;4851.605;-13028.190;145;-500;-495.0;70;69.6;-19;-18.5;28.7;0.0;
22/07/2019 23:13:47;100;0;104.44;16;-18.09;-5.29;327.9;9.70;69966;4851.605;-13028.190;145;-500;-495.0;70;69.6;-19;-18.1;28.6;0.0;
22/07/2019 23:14:07;100;0;104.87;16;-18.08;-5.25;330.4;9.70;69954;4851.605;-13028.190;145;-500;-495.0;70;69.6;-19;-18.5;28.7;0.0;
22/07/2019 23:14:27;100;0;104.69;16;-18.03;-5.20;333.0;9.70;69961;4851.605;-13028.190;145;-500;-495.0;70;69.7;-19;-18.1;28.7;0.0;
22/07/2019 23:14:47;100;0;104.84;16;-18.03;-5.24;335.5;9.60;69952;4851.605;-13028.190;145;-500;-495.0;70;69.7;-19;-18.1;28.7;0.0;
22/07/2019 23:15:07;100;0;103.59;16;-17.98;-5.18;338.0;9.60;69945;4851.605;-13028.190;145;-500;-495.0;70;69.6;-20;-19.9;28.7;0.0;
22/07/2019 23:15:27;100;0;103.48;16;-17.92;-6.16;340.4;9.60;69949;4851.605;-13028.190;145;-500;-495.0;70;69.6;-20;-20.3;28.7;0.0;
22/07/2019 23:15:47;100;0;103.71;16;-18.00;-6.17;342.9;9.60;69953;4851.605;-13028.190;145;-500;-495.0;70;69.6;-20;-20.3;28.7;0.0;
22/07/2019 23:16:07;100;0;104.28;16;-17.92;-6.15;345.3;9.50;69940;4851.605;-13028.190;145;-500;-495.0;70;69.6;-19;-19.0;28.7;0.0;
22/07/2019 23:16:27;100;0;104.86;16;-17.79;-5.29;347.7;9.50;69944;4851.605;-13028.190;145;-500;-495.0;70;69.7;-19;-18.5;28.7;0.0;
22/07/2019 23:16:47;100;0;105.55;16;-17.90;-5.28;350.2;9.50;69937;4851.605;-13028.190;145;-500;-497.0;70;69.6;-19;-18.5;28.7;0.0;
22/07/2019 23:17:07;100;0;104.88;16;-17.83;-5.24;352.6;9.50;69935;4851.605;-13028.190;145;-500;-495.0;70;69.6;-19;-18.5;28.6;0.0;
22/07/2019 23:17:27;100;0;103.77;16;-17.82;-5.23;355.0;9.50;69926;4851.605;-13028.190;145;-500;-495.0;70;69.6;-20;-19.9;28.7;0.0;
22/07/2019 23:17:47;100;0;103.28;16;-17.86;-6.10;357.3;9.40;69932;4851.605;-13028.190;145;-500;-495.0;70;69.6;-20;-20.3;28.7;0.0;
22/07/2019 23:18:07;100;0;102.89;16;-17.78;-6.09;359.8;9.40;69932;4851.605;-13028.190;145;-500;-495.0;70;69.6;-20;-20.3;28.7;0.0;
22/07/2019 23:18:27;100;0;103.72;16;-17.97;-6.19;362.1;9.40;69920;4851.605;-13028.190;145;-500;-495.0;70;69.6;-19;-19.0;28.7;0.0;
22/07/2019 23:18:47;100;0;102.70;16;-17.71;-5.20;364.4;9.40;69918;4851.605;-13028.190;145;-500;-495.0;70;69.6;-20;-20.3;28.7;0.0;
22/07/2019 23:19:07;100;0;102.47;16;-17.76;-6.27;366.7;9.40;69919;4851.605;-13028.190;145;-500;-493.1;70;69.6;-20;-20.3;28.7;0.0;
22/07/2019 23:19:27;100;0;102.46;16;-17.74;-6.27;369.0;9.30;69914;4851.605;-13028.190;145;-500;-493.1;70;69.6;-20;-20.3;28.7;0.0;
22/07/2019 23:19:47;100;0;102.73;16;-17.66;-6.31;371.4;9.30;69917;4851.605;-13028.190;145;-500;-495.0;70;69.6;-20;-20.3;28.6;0.0;
22/07/2019 23:20:07;100;0;103.32;16;-17.70;-6.28;373.7;9.30;69907;4851.605;-13028.190;145;-500;-495.0;70;69.6;-19;-19.0;28.6;0.0;
22/07/2019 23:20:27;100;0;102.96;16;-17.72;-5.12;376.0;9.30;69911;4851.605;-13028.190;145;-500;-493.1;70;69.6;-20;-20.3;28.7;0.0;
22/07/2019 23:20:47;100;0;103.26;16;-17.77;-6.23;378.3;9.30;69900;4851.605;-13028.190;145;-500;-495.0;70;69.6;-19;-19.0;28.7;0.0;
22/07/2019 23:21:07;100;0;103.17;16;-17.69;-5.36;380.5;9.20;69903;4851.605;-13028.190;145;-500;-495.0;70;69.7;-19;-18.5;28.6;0.0;
22/07/2019 23:21:27;100;0;102.36;16;-17.63;-5.35;382.7;9.20;69895;4851.605;-13028.190;145;-500;-495.0;70;69.7;-20;-19.9;28.7;0.0;
22/07/2019 23:21:47;100;0;102.05;16;-17.60;-6.26;384.9;9.20;69894;4851.605;-13028.190;145;-500;-495.0;70;69.7;-20;-20.3;28.7;0.0;
22/07/2019 23:22:07;100;0;101.17;16;-17.61;-6.22;387.2;9.20;69899;4851.605;-13028.190;145;-500;-495.0;70;69.6;-20;-20.3;28.7;0.0;
22/07/2019 23:22:27;100;0;100.89;16;-17.57;-6.23;389.3;9.20;69897;4851.605;-13028.190;145;-500;-495.0;70;69.6;-21;-21.7;28.7;0.0;
22/07/2019 23:22:47;100;0;101.18;16;-17.55;-7.04;391.5;9.20;69897;4851.605;-13028.190;145;-500;-495.0;70;69.7;-20;-19.9;28.7;0.0;
22/07/2019 23:23:07;100;0;100.89;16;-17.42;-5.53;393.8;9.10;69891;4851.605;-13028.190;145;-500;-495.0;70;69.6;-20;-19.0;28.7;0.0;
22/07/2019 23:23:27;100;0;101.38;16;-17.52;-5.54;395.9;9.10;69889;4851.605;-13028.190;145;-500;-495.0;70;69.6;-20;-19.0;28.7;0.0;
22/07/2019 23:23:47;100;0;101.65;16;-17.62;-5.56;398.1;9.10;69887;4851.605;-13028.190;145;-500;-495.0;70;69.6;-20;-19.0;28.7;0.0;
22/07/2019 23:24:07;100;0;101.78;16;-17.63;-5.51;400.3;9.10;69879;4851.605;-13028.190;145;-500;-495.0;70;69.6;-20;-19.0;28.6;0.0;
22/07/2019 23:24:27;100;0;102.18;16;-17.68;-5.51;402.4;9.10;69887;4851.605;-13028.190;145;-500;-495.0;70;69.6;-19;-19.0;28.7;0.0;
22/07/2019 23:24:47;100;0;100.13;16;-17.54;-5.48;404.7;9.00;69877;4851.605;-13028.190;145;-500;-495.0;70;69.6;-21;-21.2;28.7;0.0;
22/07/2019 23:25:07;100;0;100.64;16;-17.54;-6.82;406.9;9.00;69880;4851.605;-13028.190;145;-500;-495.0;70;69.6;-20;-19.9;28.7;0.0;
22/07/2019 23:25:27;100;0;101.47;16;-17.50;-5.65;409.3;9.00;69865;4851.605;-13028.190;145;-500;-495.0;70;69.6;-20;-19.0;28.7;0.0;
22/07/2019 23:25:47;100;0;101.05;16;-17.60;-5.67;411.4;9.00;69858;4851.605;-13028.190;145;-500;-495.0;70;69.6;-20;-19.0;28.7;0.0;
22/07/2019 23:26:07;100;0;100.24;16;-17.51;-5.61;413.6;9.00;69869;4851.605;-13028.190;145;-500;-495.0;70;69.6;-20;-19.0;28.7;0.0;
22/07/2019 23:26:27;100;0;100.28;16;-17.34;-5.61;415.8;9.00;69865;4851.605;-13028.190;145;-500;-495.0;70;69.6;-20;-19.0;28.7;0.0;
22/07/2019 23:26:47;100;0;99.33;16;-17.48;-5.62;418.2;8.90;69852;4851.605;-13028.190;145;-500;-495.0;70;69.6;-21;-21.7;28.7;0.0;
22/07/2019 23:27:07;100;0;99.78;16;-17.40;-7.03;420.5;8.90;69855;4851.605;-13028.190;145;-500;-495.0;70;69.6;-21;-22.1;28.7;0.0;
22/07/2019 23:27:27;100;0;99.84;16;-17.44;-6.99;422.7;8.90;69855;4851.605;-13028.190;145;-500;-495.0;70;69.7;-20;-19.9;28.7;0.0;
22/07/2019 23:27:47;100;0;100.11;16;-17.32;-5.53;425.0;8.90;69851;4851.605;-13028.190;145;-500;-495.0;70;69.7;-20;-19.0;28.6;0.0;
22/07/2019 23:28:07;100;0;100.86;16;-17.37;-5.51;427.3;8.90;69852;4851.605;-13028.190;145;-500;-495.0;70;69.6;-20;-19.0;28.6;0.0;
22/07/2019 23:28:27;100;0;100.59;16;-17.31;-5.51;429.6;8.90;69853;4851.605;-13028.190;145;-500;-493.1;70;69.6;-20;-19.0;28.7;0.0;
22/07/2019 23:28:47;100;0;100.81;16;-17.23;-5.51;431.8;8.90;69853;4851.605;-13028.190;145;-500;-497.0;70;69.6;-20;-19.0;28.7;0.0;
22/07/2019 23:29:07;100;0;99.70;16;-17.24;-5.48;434.2;8.80;69855;4851.605;-13028.190;145;-500;-495.0;70;69.7;-21;-21.2;28.7;0.0;
22/07/2019 23:29:27;100;0;99.58;16;-17.33;-6.86;436.4;8.80;69846;4851.605;-13028.190;145;-500;-495.0;70;69.6;-20;-19.4;28.7;0.0;
22/07/2019 23:29:47;100;0;98.76;16;-17.28;-5.38;438.7;8.80;69839;4851.605;-13028.190;145;-500;-495.0;70;69.6;-21;-21.2;28.7;0.0;
22/07/2019 23:30:07;100;0;100.44;16;-17.24;-6.78;441.0;8.80;69844;4851.605;-13028.190;145;-500;-493.1;70;69.6;-20;-19.9;28.7;0.0;
22/07/2019 23:30:27;100;0;100.55;16;-17.19;-5.57;443.3;8.80;69837;4851.605;-13028.190;145;-500;-495.0;70;69.6;-20;-19.0;28.7;0.0;
22/07/2019 23:30:47;100;0;100.31;16;-17.15;-5.60;445.6;8.80;69839;4851.605;-13028.190;145;-500;-493.1;70;69.7;-20;-19.0;28.7;0.0;
22/07/2019 23:31:07;100;0;101.33;16;-17.26;-5.68;447.8;8.70;69837;4851.605;-13028.190;145;-500;-495.0;70;69.6;-19;-19.0;28.6;0.0;
22/07/2019 23:31:27;100;0;102.27;16;-17.30;-5.60;450.2;8.70;69831;4851.605;-13028.190;145;-500;-493.1;70;69.6;-19;-19.0;28.7;0.0;
22/07/2019 23:31:47;100;0;102.61;16;-17.22;-5.62;452.5;8.70;69831;4851.605;-13028.190;145;-500;-495.0;70;69.7;-19;-19.0;28.6;0.0;
22/07/2019 23:32:07;100;0;103.34;16;-17.18;-5.59;455.0;8.70;69825;4851.605;-13028.190;145;-500;-493.1;70;69.6;-19;-19.0;28.7;0.0;
22/07/2019 23:32:27;100;0;103.30;16;-17.10;-5.59;457.1;8.70;69820;4851.605;-13028.190;145;-500;-493.1;70;69.6;-19;-19.0;28.7;0.0;
22/07/2019 23:32:47;100;0;102.31;16;-16.99;-5.58;459.5;8.70;69821;4851.605;-13028.190;145;-500;-493.1;70;69.6;-20;-19.9;28.7;0.0;
22/07/2019 23:33:07;100;0;103.22;16;-17.17;-6.20;461.8;8.70;69830;4851.605;-13028.190;145;-500;-493.1;70;69.6;-19;-19.0;28.6;0.0;
22/07/2019 23:33:27;100;0;102.86;16;-17.19;-5.29;464.2;8.60;69821;4851.605;-13028.190;145;-500;-495.0;70;69.6;-20;-19.9;28.7;0.0;
22/07/2019 23:33:47;100;0;103.76;16;-17.07;-6.19;466.4;8.60;69815;4851.605;-13028.190;145;-500;-493.1;70;69.6;-19;-18.5;28.7;0.0;
22/07/2019 23:34:07;100;0;102.99;16;-17.05;-5.08;468.7;8.60;69813;4851.605;-13028.190;145;-500;-497.0;70;69.6;-20;-20.3;28.7;0.0;
22/07/2019 23:34:27;100;0;103.66;16;-17.05;-6.42;471.1;8.60;69809;4851.605;-13028.190;145;-500;-495.0;70;69.6;-19;-19.0;28.7;0.0;
22/07/2019 23:34:47;100;0;104.18;16;-17.14;-5.28;473.5;8.60;69810;4851.605;-13028.190;145;-500;-493.1;70;69.6;-19;-18.5;28.7;0.0;
22/07/2019 23:35:07;100;0;104.21;16;-17.05;-5.30;475.8;8.60;69804;4851.605;-13028.190;145;-500;-495.0;70;69.7;-19;-18.5;28.6;0.0;
22/07/2019 23:35:27;100;0;102.66;16;-17.00;-5.26;478.0;8.60;69795;4851.605;-13028.190;145;-500;-495.0;70;69.6;-20;-19.9;28.6;0.0;
22/07/2019 23:35:47;100;0;102.26;16;-16.99;-6.09;480.4;8.50;69802;4851.605;-13028.190;145;-500;-493.1;70;69.6;-20;-19.9;28.7;0.0;
22/07/2019 23:36:07;100;0;104.00;16;-16.92;-6.10;482.8;8.50;69784;4851.605;-13028.190;145;-500;-493.1;70;69.6;-19;-18.5;28.7;0.0;
22/07/2019 23:36:27;100;0;104.06;16;-16.93;-5.26;485.1;8.50;69795;4851.605;-13028.190;145;-500;-493.1;70;69.6;-19;-18.1;28.7;0.0;
22/07/2019 23:36:47;100;0;103.51;16;-16.83;-5.20;487.5;8.50;69791;4851.605;-13028.190;145;-500;-493.1;70;69.6;-20;-19.9;28.7;0.0;
22/07/2019 23:37:07;100;0;105.45;16;-16.97;-6.39;489.9;8.50;69780;4851.605;-13028.190;145;-500;-493.1;70;69.6;-19;-18.5;28.6;0.0;
22/07/2019 23:37:27;100;0;105.66;16;-16.90;-5.10;492.3;8.40;69780;4851.605;-13028.190;145;-500;-493.1;70;69.6;-19;-18.1;28.7;0.0;
22/07/2019 23:37:47;100;0;104.43;16;-16.88;-5.14;494.6;8.40;69776;4851.605;-13028.190;145;-500;-493.1;70;69.6;-20;-19.9;28.6;0.0;
22/07/2019 23:38:07;100;0;103.82;16;-17.02;-6.16;496.9;8.40;69779;4851.605;-13028.190;145;-500;-493.1;70;69.6;-20;-20.3;28.6;0.0;
22/07/2019 23:38:27;100;0;103.30;16;-17.01;-6.17;499.2;8.40;69777;4851.605;-13028.190;145;-500;-493.1;70;69.7;-20;-20.3;28.7;0.0;
22/07/2019 23:38:47;100;0;102.55;16;-16.89;-6.18;501.6;8.40;69772;4851.605;-13028.190;145;-500;-493.1;70;69.6;-20;-20.3;28.7;0.0;
22/07/2019 23:39:07;100;0;102.60;16;-16.83;-6.20;504.0;8.40;69769;4851.605;-13028.190;145;-500;-493.1;70;69.6;-20;-20.3;28.6;0.0;
22/07/2019 23:39:27;100;0;103.38;16;-16.75;-6.20;506.3;8.40;69764;4851.605;-13028.190;145;-500;-493.1;70;69.6;-19;-18.5;28.6;0.0;
22/07/2019 23:39:47;100;0;103.08;16;-16.62;-5.07;508.8;8.30;69762;4851.605;-13028.190;145;-500;-493.1;70;69.6;-19;-17.6;28.7;0.0;
22/07/2019 23:40:07;100;0;102.32;16;-16.65;-5.09;511.1;8.30;69766;4851.605;-13028.190;145;-500;-495.0;70;69.6;-20;-19.9;28.7;0.0;
22/07/2019 23:40:28;100;0;102.48;16;-16.57;-6.28;513.6;8.30;69753;4851.605;-13028.190;145;-500;-493.1;70;69.6;-20;-20.3;28.7;0.0;
22/07/2019 23:40:48;100;0;102.13;16;-16.69;-6.12;516.1;8.30;69757;4851.605;-13028.190;145;-500;-493.1;70;69.6;-20;-20.3;28.7;0.0;
22/07/2019 23:41:08;100;0;103.36;16;-16.44;-6.16;518.5;8.30;69757;4851.605;-13028.190;145;-500;-493.1;70;69.6;-19;-19.0;28.7;0.0;
22/07/2019 23:41:28;100;0;103.19;16;-16.67;-5.33;521.0;8.30;69750;4851.605;-13028.190;145;-500;-493.1;70;69.6;-19;-18.5;28.6;0.0;
22/07/2019 23:41:48;100;0;103.04;16;-16.73;-5.32;523.5;8.20;69752;4851.605;-13028.190;145;-500;-493.1;70;69.7;-19;-18.5;28.7;0.0;
22/07/2019 23:42:08;100;0;102.66;16;-16.77;-5.34;525.9;8.20;69735;4851.605;-13028.190;145;-500;-493.1;70;69.6;-20;-19.9;28.7;0.0;
22/07/2019 23:42:28;100;0;102.42;16;-16.80;-6.16;528.4;8.20;69732;4851.605;-13028.190;145;-500;-491.1;70;69.6;-20;-19.9;28.7;0.0;
22/07/2019 23:42:48;100;0;101.77;16;-16.77;-6.15;530.8;8.20;69742;4851.605;-13028.190;145;-500;-495.0;70;69.6;-20;-20.3;28.7;0.0;
22/07/2019 23:43:08;100;0;101.01;16;-16.61;-6.14;533.3;8.20;69742;4851.605;-13028.190;145;-500;-493.1;70;69.6;-20;-20.3;28.6;0.0;
22/07/2019 23:43:28;100;0;100.88;16;-16.64;-6.15;535.7;8.20;69740;4851.605;-13028.190;145;-500;-493.1;70;69.6;-21;-21.2;28.7;0.0;
22/07/2019 23:43:48;100;0;101.82;16;-16.71;-6.98;538.3;8.10;69731;4851.605;-13028.190;145;-500;-493.1;70;69.6;-20;-19.9;28.7;0.0;
22/07/2019 23:44:08;100;0;102.52;16;-16.57;-5.55;540.7;8.10;69728;4851.605;-13028.190;145;-500;-493.1;70;69.6;-19;-19.0;28.7;0.0;
22/07/2019 23:44:28;100;0;102.81;16;-16.43;-5.54;543.2;8.10;69730;4851.605;-13028.190;145;-500;-495.0;70;69.6;-19;-19.0;28.7;0.0;
22/07/2019 23:44:48;100;0;102.97;16;-16.33;-5.54;545.7;8.10;69730;4851.605;-13028.190;145;-500;-493.1;70;69.6;-20;-19.9;28.7;0.0;
22/07/2019 23:45:08;100;0;102.55;16;-16.35;-6.22;548.3;8.10;69723;4851.605;-13028.190;145;-500;-493.1;70;69.6;-20;-20.3;28.7;0.0;
22/07/2019 23:45:28;100;0;102.30;16;-16.44;-6.27;550.7;8.10;69727;4851.605;-13028.190;145;-500;-493.1;70;69.6;-20;-20.3;28.7;0.0;
22/07/2019 23:45:48;100;0;101.85;16;-16.29;-6.27;553.1;8.10;69722;4851.605;-13028.190;145;-500;-493.1;70;69.6;-20;-20.3;28.7;0.0;
22/07/2019 23:46:08;100;0;101.77;16;-16.57;-6.30;555.5;8.10;69720;4851.605;-13028.190;145;-500;-493.1;70;69.6;-20;-20.3;28.7;0.0;
22/07/2019 23:46:28;100;0;102.12;16;-16.36;-6.37;558.0;8.00;69721;4851.605;-13028.190;145;-500;-493.1;70;69.6;-19;-19.0;28.6;0.0;
22/07/2019 23:46:48;100;0;101.29;16;-16.53;-5.45;560.3;8.00;69724;4851.605;-13028.190;145;-500;-495.0;70;69.6;-20;-19.9;28.7;0.0;
22/07/2019 23:47:08;100;0;101.28;16;-16.42;-6.26;562.7;8.00;69710;4851.605;-13028.190;145;-500;-493.1;70;69.6;-20;-20.3;28.7;0.0;
22/07/2019 23:47:28;100;0;101.74;16;-16.46;-6.29;565.0;8.00;69713;4851.605;-13028.190;145;-500;-493.1;70;69.6;-20;-20.3;28.6;0.0;
22/07/2019 23:47:48;100;0;102.28;16;-16.43;-6.31;567.4;8.00;69712;4851.605;-13028.190;145;-500;-493.1;70;69.6;-19;-19.0;28.6;0.0;
22/07/2019 23:48:08;100;0;101.01;16;-16.33;-5.46;569.7;8.00;69715;4851.605;-13028.190;145;-500;-493.1;70;69.6;-20;-19.9;28.7;0.0;
22/07/2019 23:48:28;100;0;100.44;16;-16.19;-6.20;572.1;8.00;69716;4851.605;-13028.190;145;-500;-491.1;70;69.6;-21;-21.2;28.6;0.0;
22/07/2019 23:48:48;100;0;100.54;16;-16.20;-6.98;574.4;7.90;69701;4851.605;-13028.190;145;-500;-493.1;70;69.6;-20;-19.4;28.7;0.0;
22/07/2019 23:49:08;100;0;99.66;16;-16.17;-5.50;576.7;7.90;69707;4851.605;-13028.190;145;-500;-493.1;70;69.6;-21;-21.2;28.6;0.0;
22/07/2019 23:49:28;100;0;99.38;16;-16.28;-6.85;579.0;7.90;69700;4851.605;-13028.190;145;-500;-493.1;70;69.6;-21;-21.7;28.6;0.0;
22/07/2019 23:49:48;100;0;99.26;16;-16.31;-6.92;581.1;7.90;69709;4851.605;-13028.190;145;-500;-493.1;70;69.6;-20;-19.9;28.7;0.0;
22/07/2019 23:50:08;100;0;99.26;16;-16.20;-5.66;583.3;7.90;69707;4851.605;-13028.190;145;-500;-493.1;70;69.7;-20;-19.0;28.7;0.0;
22/07/2019 23:50:28;100;0;99.12;16;-16.13;-5.66;585.5;7.90;69696;4851.605;-13028.190;145;-500;-493.1;70;69.7;-20;-19.4;28.7;0.0;
22/07/2019 23:50:48;100;0;98.15;16;-16.13;-5.72;587.7;7.90;69702;4851.605;-13028.190;145;-500;-493.1;70;69.6;-21;-21.7;28.7;0.0;
22/07/2019 23:51:08;100;0;98.90;16;-16.16;-7.10;589.9;7.80;69693;4851.605;-13028.190;145;-500;-493.1;70;69.6;-21;-22.1;28.7;0.0;
22/07/2019 23:51:28;100;0;100.41;16;-16.22;-7.11;592.1;7.80;69688;4851.605;-13028.190;145;-500;-493.1;70;69.6;-19;-19.0;28.7;0.0;
22/07/2019 23:51:48;100;0;100.54;16;-16.14;-5.36;594.0;7.80;69697;4851.605;-13028.190;145;-500;-491.1;70;69.6;-20;-20.3;28.6;0.0;
22/07/2019 23:52:08;100;0;100.75;16;-16.16;-6.41;596.2;7.80;69691;4851.605;-13028.190;145;-500;-491.1;70;69.6;-20;-20.8;28.7;0.0;
22/07/2019 23:52:28;100;0;101.64;16;-16.17;-6.44;598.2;7.80;69691;4851.605;-13028.190;145;-500;-491.1;70;69.6;-19;-19.0;28.7;0.0;
22/07/2019 23:52:48;100;0;101.95;16;-16.12;-5.28;600.3;7.80;69684;4851.605;-13028.190;145;-500;-493.1;70;69.6;-20;-19.9;28.7;0.0;
22/07/2019 23:53:08;100;0;102.51;16;-16.07;-6.17;602.3;7.80;69677;4851.605;-13028.190;145;-500;-491.1;70;69.6;-19;-19.0;28.6;0.0;
22/07/2019 23:53:28;100;0;103.41;16;-15.94;-5.44;604.3;7.80;69683;4851.605;-13028.190;145;-500;-491.1;70;69.6;-19;-18.5;28.6;0.0;
22/07/2019 23:53:48;100;0;102.30;16;-15.98;-5.33;606.2;7.70;69684;4851.605;-13028.190;145;-500;-493.1;70;69.6;-20;-19.9;28.7;0.0;
22/07/2019 23:54:08;100;0;101.24;16;-16.10;-6.19;608.1;7.70;69683;4851.605;-13028.190;145;-500;-491.1;70;69.6;-20;-20.3;28.7;0.0;
22/07/2019 23:54:28;100;0;102.30;16;-16.01;-6.27;610.1;7.70;69677;4851.605;-13028.190;145;-500;-493.1;70;69.6;-20;-20.3;28.7;0.0;
22/07/2019 23:54:48;100;0;103.52;16;-16.13;-6.30;612.0;7.70;69673;4851.605;-13028.190;145;-500;-493.1;70;69.6;-19;-19.0;28.7;0.0;
22/07/2019 23:55:08;100;0;103.72;16;-16.03;-5.48;613.9;7.70;69673;4851.605;-13028.190;145;-500;-493.1;70;69.6;-19;-18.5;28.7;0.0;
22/07/2019 23:55:28;100;0;103.17;16;-15.97;-5.47;615.7;7.70;69676;4851.605;-13028.190;145;-500;-493.1;70;69.6;-19;-18.5;28.6;0.0;
22/07/2019 23:55:48;100;0;102.18;16;-16.03;-5.44;617.5;7.70;69669;4851.605;-13028.190;145;-500;-493.1;70;69.6;-20;-19.9;28.7;0.0;
22/07/2019 23:56:08;100;0;101.41;16;-16.03;-6.29;619.4;7.70;69673;4851.605;-13028.190;145;-500;-491.1;70;69.6;-20;-20.3;28.7;0.0;
22/07/2019 23:56:28;100;0;100.88;16;-16.00;-6.29;621.3;7.60;69665;4851.605;-13028.190;145;-500;-493.1;70;69.6;-21;-21.2;28.6;0.0;
22/07/2019 23:56:48;100;0;101.05;16;-16.01;-6.78;623.1;7.60;69661;4851.605;-13028.190;145;-500;-493.1;70;69.6;-20;-19.9;28.7;0.0;
22/07/2019 23:57:08;100;0;100.29;16;-15.91;-5.56;625.0;7.60;69671;4851.605;-13028.190;145;-500;-493.1;70;69.6;-20;-19.0;28.7;0.0;
22/07/2019 23:57:28;100;0;99.41;16;-15.94;-5.59;626.7;7.60;69668;4851.605;-13028.190;145;-500;-493.1;70;69.6;-21;-21.2;28.6;0.0;
22/07/2019 23:57:48;100;0;99.51;16;-16.05;-6.99;628.5;7.60;69663;4851.605;-13028.190;145;-500;-493.1;70;69.6;-21;-21.7;28.7;0.0;
22/07/2019 23:58:08;100;0;99.67;16;-15.98;-7.02;630.4;7.60;69659;4851.605;-13028.190;145;-500;-491.1;70;69.6;-20;-19.4;28.7;0.0;
22/07/2019 23:58:28;100;0;99.14;16;-15.80;-5.47;632.2;7.60;69661;4851.605;-13028.190;145;-500;-493.1;70;69.6;-20;-19.0;28.7;0.0;
22/07/2019 23:58:48;100;0;98.45;16;-15.77;-5.49;634.0;7.60;69659;4851.605;-13028.190;145;-500;-491.1;70;69.6;-21;-21.2;28.7;0.0;
22/07/2019 23:59:08;100;0;98.22;16;-15.81;-6.88;635.9;7.60;69658;4851.605;-13028.190;145;-500;-491.1;70;69.6;-21;-21.7;28.6;0.0;
22/07/2019 23:59:28;100;0;98.71;16;-15.79;-6.90;637.7;7.50;69655;4851.605;-13028.190;145;-500;-493.1;70;69.6;-21;-21.7;28.7;0.0;
22/07/2019 23:59:48;100;0;99.14;16;-15.90;-6.87;639.6;7.50;69654;4851.605;-13028.190;145;-500;-491.1;70;69.6;-20;-19.9;28.7;0.0;
23/07/2019 00:00:08;100;0;99.30;16;-15.90;-5.74;641.4;7.50;69650;4851.605;-13028.190;145;-500;-491.1;70;69.6;-20;-19.0;28.7;0.0;
23/07/2019 00:00:28;100;0;100.30;16;-15.79;-5.75;643.2;7.50;69639;4851.605;-13028.190;145;-500;-491.1;70;69.6;-20;-19.0;28.7;0.0;
23/07/2019 00:00:48;100;0;99.33;16;-15.73;-5.68;645.1;7.50;69639;4851.605;-13028.190;145;-500;-491.1;70;69.6;-20;-19.0;28.7;0.0;
23/07/2019 00:01:08;100;0;98.29;16;-15.65;-5.66;646.9;7.50;69647;4851.605;-13028.190;145;-500;-491.1;70;69.6;-21;-21.2;28.6;0.0;
23/07/2019 00:01:28;100;0;97.77;16;-15.78;-6.96;648.9;7.50;69639;4851.605;-13028.190;145;-500;-491.1;70;69.6;-21;-21.7;28.7;0.0;
23/07/2019 00:01:48;100;0;97.35;16;-15.75;-6.89;650.7;7.50;69645;4851.605;-13028.190;145;-500;-491.1;70;69.6;-21;-21.7;28.6;0.0;
23/07/2019 00:02:08;100;0;96.03;16;-15.68;-6.94;652.6;7.50;69637;4851.605;-13028.190;145;-500;-493.1;70;69.6;-21;-21.7;28.7;0.0;
23/07/2019 00:02:28;100;0;96.35;16;-15.51;-7.02;654.4;7.40;69643;4851.605;-13028.190;145;-500;-491.1;70;69.6;-21;-21.7;28.7;0.0;
23/07/2019 00:02:48;100;0;96.01;16;-15.68;-7.03;656.4;7.40;69646;4851.605;-13028.190;145;-500;-491.1;70;69.6;-21;-21.7;28.7;0.0;
23/07/2019 00:03:08;100;0;95.55;16;-15.62;-7.01;658.4;7.40;69644;4851.605;-13028.190;145;-500;-491.1;70;69.6;-22;-22.6;28.7;0.0;
23/07/2019 00:03:28;100;0;96.46;16;-15.69;-7.55;660.3;7.40;69632;4851.605;-13028.190;145;-500;-491.1;70;69.6;-21;-21.2;28.7;0.0;
23/07/2019 00:03:48;100;0;96.48;16;-15.68;-6.34;662.2;7.40;69634;4851.605;-13028.190;145;-500;-491.1;70;69.6;-21;-20.3;28.7;0.0;
23/07/2019 00:04:08;100;0;96.30;16;-15.75;-6.37;664.1;7.40;69636;4851.605;-13028.190;145;-500;-491.1;70;69.6;-21;-20.3;28.6;0.0;
23/07/2019 00:04:28;100;0;96.21;16;-15.75;-6.36;665.9;7.40;69626;4851.605;-13028.190;145;-500;-491.1;70;69.6;-21;-20.3;28.6;0.0;
23/07/2019 00:04:48;100;0;95.01;16;-15.67;-6.33;667.9;7.40;69631;4851.605;-13028.190;145;-500;-493.1;70;69.6;-21;-20.3;28.7;0.0;
23/07/2019 00:05:08;100;0;94.94;16;-15.67;-6.37;669.9;7.40;69633;4851.605;-13028.190;145;-500;-493.1;70;69.6;-22;-22.1;28.7;0.0;
23/07/2019 00:05:28;100;0;95.33;16;-15.67;-7.41;671.8;7.30;69620;4851.605;-13028.190;145;-500;-491.1;70;69.6;-21;-21.2;28.7;0.0;
23/07/2019 00:05:48;100;0;94.93;16;-15.53;-6.26;673.8;7.30;69616;4851.605;-13028.190;145;-500;-491.1;70;69.6;-22;-22.1;28.7;0.0;
23/07/2019 00:06:08;100;0;94.88;16;-15.57;-7.38;675.7;7.30;69618;4851.605;-13028.190;145;-500;-491.1;70;69.6;-21;-21.2;28.7;0.0;
23/07/2019 00:06:28;100;0;94.39;16;-15.60;-6.57;677.6;7.30;69618;4851.605;-13028.190;145;-500;-491.1;70;69.6;-21;-20.8;28.7;0.0;
23/07/2019 00:06:48;100;0;95.55;16;-15.47;-6.54;679.6;7.30;69612;4851.605;-13028.190;145;-500;-491.1;70;69.6;-21;-20.8;28.6;0.0;
23/07/2019 00:07:08;100;0;96.19;16;-15.47;-6.60;681.6;7.30;69619;4851.605;-13028.190;145;-500;-491.1;70;69.6;-20;-19.4;28.7;0.0;
23/07/2019 00:07:28;100;0;95.99;16;-15.43;-5.71;683.5;7.20;69598;4851.605;-13028.190;145;-500;-493.1;70;69.6;-21;-21.2;28.7;0.0;
23/07/2019 00:07:48;100;0;96.34;16;-15.43;-6.99;685.6;7.30;69608;4851.605;-13028.190;145;-500;-491.1;70;69.6;-21;-21.7;28.6;0.0;
23/07/2019 00:08:08;100;0;96.29;16;-15.41;-7.02;687.5;7.20;69605;4851.605;-13028.190;145;-500;-491.1;70;69.6;-21;-21.7;28.7;0.0;
23/07/2019 00:08:28;100;0;96.67;16;-15.46;-6.98;689.5;7.20;69605;4851.605;-13028.190;145;-500;-491.1;70;69.6;-21;-21.7;28.7;0.0;
23/07/2019 00:08:48;100;0;97.52;16;-15.45;-7.02;691.5;7.20;69604;4851.605;-13028.190;145;-500;-491.1;70;69.6;-20;-19.9;28.6;0.0;
23/07/2019 00:09:08;100;0;96.94;16;-15.35;-5.86;693.5;7.20;69596;4851.605;-13028.190;145;-500;-493.1;70;69.7;-21;-21.2;28.6;0.0;
23/07/2019 00:09:28;100;0;96.80;16;-15.38;-7.00;695.5;7.20;69596;4851.605;-13028.190;145;-500;-491.1;70;69.7;-21;-21.7;28.7;0.0;
23/07/2019 00:09:48;100;0;97.00;16;-15.34;-6.90;697.4;7.20;69606;4851.605;-13028.190;145;-500;-489.1;70;69.6;-21;-21.2;28.7;0.0;
23/07/2019 00:10:08;100;0;97.80;16;-15.42;-6.95;699.4;7.20;69595;4851.605;-13028.190;145;-500;-491.1;70;69.6;-20;-19.9;28.7;0.0;
23/07/2019 00:10:28;118;0;97.23;16;-15.24;-5.89;701.4;7.20;69599;4851.605;-13028.190;145;150;-489.1;57;56.8;0;0.5;28.7;0.0;
23/07/2019 00:10:38;118;0;95.74;16;-0.31;3.29;702.3;7.20;69525;4851.605;-13028.190;145;150;-334.7;57;57.1;0;0.5;27.3;0.0;
23/07/2019 00:10:48;118;0;91.59;16;15.23;3.31;702.3;7.20;69320;4851.605;-13028.190;145;150;-178.2;57;57.1;0;0.5;27.4;-1.0;
23/07/2019 00:10:58;118;0;90.21;16;19.83;3.28;701.8;7.10;69062;4851.605;-13028.190;145;150;-25.7;57;57.1;0;0.5;27.3;-1.0;
23/07/2019 00:11:08;118;0;90.25;16;19.37;3.47;701.0;7.20;68818;4851.605;-13028.190;145;150;130.7;57;57.1;0;0.5;27.3;-1.0;
23/07/2019 00:11:18;118;0;90.67;16;21.68;3.43;699.8;7.20;68568;4851.605;-13028.190;145;150;156.4;57;57.1;0;0.5;27.3;-1.0;
23/07/2019 00:11:28;118;0;112.39;16;24.36;3.36;698.1;7.20;68546;4851.605;-13028.190;145;150;158.4;57;57.1;0;0.5;28.6;-1.0;
23/07/2019 00:11:38;117;0;111.69;16;25.22;3.35;696.0;7.20;68557;4851.605;-13028.190;145;150;158.4;57;57.1;0;0.5;28.6;-1.0;
23/07/2019 00:11:58;117;0;108.86;16;26.05;3.27;691.4;7.20;68550;4851.605;-13028.190;145;150;160.4;57;57.1;14;14.0;28.6;-1.0;
23/07/2019 00:12:19;117;0;110.32;16;26.09;9.98;685.9;7.20;68555;4851.605;-13028.190;145;150;158.4;57;57.1;15;14.9;28.6;-1.0;
23/07/2019 00:12:39;117;0;110.95;16;26.19;10.02;681.0;7.20;68549;4851.605;-13028.190;145;150;158.4;57;57.1;17;17.1;28.7;-1.0;
23/07/2019 00:12:59;117;0;116.04;16;25.69;11.50;676.0;7.20;68551;4851.605;-13028.190;145;150;158.4;57;57.1;14;14.0;28.6;-1.0;
23/07/2019 00:13:19;117;0;119.14;16;25.92;9.19;671.1;7.20;68537;4851.605;-13028.190;145;150;158.4;57;57.1;14;13.5;28.7;-1.0;
23/07/2019 00:13:39;117;0;120.82;16;26.20;9.07;666.0;7.20;68548;4851.605;-13028.190;145;150;158.4;57;57.1;14;13.5;28.6;-1.0;
23/07/2019 00:13:59;117;0;123.40;16;25.72;9.19;661.0;7.20;68549;4851.605;-13028.190;145;150;158.4;57;57.1;13;13.1;28.7;-1.0;
23/07/2019 00:14:19;117;0;127.09;16;25.55;8.80;656.1;7.20;68541;4851.605;-13028.190;145;150;158.4;57;57.1;12;12.2;28.6;-1.0;
23/07/2019 00:14:39;117;0;128.84;16;25.72;8.28;651.3;7.20;68547;4851.605;-13028.190;145;150;158.4;57;57.1;12;11.3;28.6;-1.0;
23/07/2019 00:14:59;117;0;130.97;16;25.72;8.21;646.3;7.10;68545;4851.605;-13028.190;145;150;158.4;57;57.1;12;11.3;28.7;-1.0;
23/07/2019 00:15:19;117;0;129.64;16;26.15;8.27;641.5;7.10;68549;4851.605;-13028.190;145;150;158.4;57;57.1;12;11.3;28.6;-1.0;
23/07/2019 00:15:39;117;0;131.86;16;25.91;8.19;636.6;7.10;68551;4851.605;-13028.190;145;150;158.4;57;57.1;12;11.3;28.6;-1.0;
23/07/2019 00:15:59;117;0;133.15;16;25.94;8.21;631.7;7.10;68552;4851.605;-13028.190;145;150;158.4;57;57.1;12;11.3;28.7;-1.0;
23/07/2019 00:16:19;117;0;133.67;16;25.90;8.23;626.9;7.10;68546;4851.605;-13028.190;145;150;158.4;57;57.1;13;13.1;28.6;-1.0;
23/07/2019 00:16:39;117;0;136.21;16;25.56;9.52;621.9;7.10;68546;4851.605;-13028.190;145;150;158.4;57;57.1;11;10.4;28.6;-1.0;
23/07/2019 00:16:59;117;0;136.84;16;25.65;7.58;617.1;7.10;68540;4851.605;-13028.190;145;150;158.4;57;57.1;11;9.9;28.7;-1.0;
23/07/2019 00:17:19;117;0;136.17;16;25.86;7.52;612.2;7.10;68549;4851.605;-13028.190;145;150;158.4;57;57.1;11;9.9;28.6;-1.0;
23/07/2019 00:17:39;117;0;134.05;16;25.81;7.56;607.2;7.10;68541;4851.605;-13028.190;145;150;158.4;57;57.1;13;13.5;28.6;-1.0;
23/07/2019 00:17:59;117;0;135.14;16;25.51;9.59;602.5;7.10;68549;4851.605;-13028.190;145;150;158.4;57;57.1;11;10.8;28.7;-1.0;
23/07/2019 00:18:19;117;0;133.66;16;25.65;7.75;597.6;7.10;68548;4851.605;-13028.190;145;150;158.4;57;56.9;13;13.1;28.7;-1.0;
23/07/2019 00:18:39;117;0;134.02;16;25.51;9.44;592.9;7.00;68546;4851.605;-13028.190;145;150;158.4;57;57.1;11;10.8;28.6;-1.0;
23/07/2019 00:18:59;117;0;133.77;16;25.39;7.66;588.1;7.10;68550;4851.605;-13028.190;145;150;158.4;57;57.1;12;12.2;28.7;-1.0;
23/07/2019 00:19:19;117;0;134.84;16;25.21;9.00;583.5;7.10;68550;4851.605;-13028.190;145;150;160.4;57;57.1;11;10.8;28.6;-1.0;
23/07/2019 00:19:39;117;0;137.77;16;25.07;7.74;578.8;7.00;68544;4851.605;-13028.190;145;150;158.4;57;57.1;9;9.0;28.7;-1.0;
23/07/2019 00:19:59;117;0;137.99;16;25.12;6.83;574.1;7.00;68549;4851.605;-13028.190;145;150;158.4;57;57.1;9;8.1;28.7;-1.0;
23/07/2019 00:20:19;117;0;138.41;16;25.08;6.80;569.5;7.00;68541;4851.605;-13028.190;145;150;158.4;57;57.1;9;8.1;28.7;-1.0;
23/07/2019 00:20:39;117;0;137.48;16;25.31;6.78;564.7;7.00;68555;4851.605;-13028.190;145;150;160.4;57;57.1;9;8.1;28.6;-1.0;
23/07/2019 00:20:59;117;0;137.71;16;25.39;6.89;559.8;7.00;68550;4851.605;-13028.190;145;150;158.4;57;57.1;9;8.1;28.7;-1.0;
23/07/2019 00:21:19;117;0;136.70;16;25.39;6.62;555.0;7.00;68553;4851.605;-13028.190;145;150;158.4;57;57.1;9;8.1;28.6;-1.0;
23/07/2019 00:21:39;117;0;136.50;16;25.05;6.81;550.3;7.00;68556;4851.605;-13028.190;145;150;158.4;57;57.1;9;8.1;28.7;-1.0;
23/07/2019 00:21:59;117;0;135.11;16;25.17;6.73;545.5;7.00;68539;4851.605;-13028.190;145;150;158.4;57;57.1;9;8.1;28.7;-1.0;
23/07/2019 00:22:19;117;0;133.61;16;25.31;6.88;540.7;7.00;68561;4851.605;-13028.190;145;150;160.4;57;57.1;10;9.9;28.6;-1.0;
23/07/2019 00:22:39;117;0;134.21;16;25.29;8.00;535.8;7.00;68544;4851.605;-13028.190;145;150;160.4;57;57.1;8;8.1;28.7;-1.0;
23/07/2019 00:22:59;117;0;131.63;16;25.53;6.53;530.9;7.00;68547;4851.605;-13028.190;145;150;160.4;57;57.1;10;9.9;28.6;-1.0;
23/07/2019 00:23:19;117;0;130.78;16;24.97;7.91;526.2;7.00;68550;4851.605;-13028.190;145;150;160.4;57;57.1;10;10.4;28.7;-1.0;
23/07/2019 00:23:39;117;0;131.76;16;24.54;7.88;521.5;7.00;68553;4851.605;-13028.190;145;150;160.4;57;57.1;9;9.0;28.7;-1.0;
23/07/2019 00:23:59;117;0;132.48;16;24.49;6.81;517.0;7.00;68561;4851.605;-13028.190;145;150;160.4;57;57.1;8;8.1;28.7;-1.0;
23/07/2019 00:24:19;117;0;132.44;16;24.65;6.80;512.3;7.00;68547;4851.605;-13028.190;145;150;158.4;57;57.1;8;8.1;28.6;-1.0;
23/07/2019 00:24:39;117;0;131.94;16;24.85;6.73;507.6;7.00;68561;4851.605;-13028.190;145;150;158.4;57;57.1;9;9.5;28.7;-1.0;
23/07/2019 00:24:59;117;0;132.38;16;24.77;7.57;502.9;7.00;68564;4851.605;-13028.190;145;150;160.4;57;57.1;8;8.1;28.7;-1.0;
23/07/2019 00:25:19;117;0;130.04;16;24.83;6.45;498.1;7.00;68569;4851.605;-13028.190;145;150;158.4;57;57.1;9;9.0;28.7;-1.0;
23/07/2019 00:25:39;117;0;128.63;16;24.65;7.76;493.5;7.00;68567;4851.605;-13028.190;145;150;160.4;57;57.1;9;9.9;28.6;-1.0;
23/07/2019 00:25:59;117;0;129.44;16;24.41;7.77;488.8;7.00;68566;4851.605;-13028.190;145;150;160.4;57;57.1;9;9.9;28.7;-1.0;
23/07/2019 00:26:19;117;0;131.80;16;24.20;7.82;484.3;7.00;68572;4851.605;-13028.190;145;150;160.4;57;57.1;9;9.9;28.7;-1.0;
23/07/2019 00:26:39;117;0;131.67;16;24.43;7.72;479.6;7.00;68569;4851.605;-13028.190;145;150;160.4;57;57.1;9;9.9;28.6;-1.0;
23/07/2019 00:26:59;117;0;131.66;16;24.20;7.86;474.9;7.00;68569;4851.605;-13028.190;145;150;158.4;57;57.1;9;9.9;28.6;-1.0;
23/07/2019 00:27:19;117;0;133.10;16;24.15;7.76;470.3;7.00;68569;4851.605;-13028.190;145;150;158.4;57;57.2;7;7.2;28.6;-1.0;
23/07/2019 00:27:39;117;0;133.00;16;24.05;6.14;465.8;7.00;68566;4851.605;-13028.190;145;150;158.4;57;57.1;7;6.3;28.7;-1.0;
23/07/2019 00:27:59;117;0;130.64;16;24.49;5.92;461.3;7.10;68580;4851.605;-13028.190;145;150;160.4;57;57.1;9;9.5;28.7;-1.0;
23/07/2019 00:28:19;117;0;129.67;16;24.02;7.77;456.7;7.10;68588;4851.605;-13028.190;145;150;160.4;57;57.1;9;9.9;28.6;-1.0;
23/07/2019 00:28:39;117;0;129.82;16;24.04;7.66;452.2;7.10;68573;4851.605;-13028.190;145;150;158.4;57;57.1;9;9.9;28.6;-1.0;
23/07/2019 00:28:59;117;0;129.85;16;23.94;7.81;447.7;7.10;68584;4851.605;-13028.190;145;150;160.4;57;57.1;9;9.9;28.7;-1.0;
23/07/2019 00:29:19;117;0;130.91;16;23.76;7.75;443.2;7.10;68581;4851.605;-13028.190;145;150;158.4;57;57.1;9;9.9;28.6;-1.0;
23/07/2019 00:29:39;117;0;131.95;16;23.80;7.68;438.8;7.10;68592;4851.605;-13028.190;145;150;158.4;57;57.1;9;9.9;28.7;-1.0;
23/07/2019 00:29:59;117;0;134.34;16;23.66;7.79;434.4;7.10;68599;4851.605;-13028.190;145;150;160.4;57;57.1;5;4.5;28.7;-1.0;
23/07/2019 00:30:19;117;0;133.35;16;23.96;4.94;429.9;7.10;68591;4851.605;-13028.190;145;150;160.4;57;57.1;6;5.9;28.6;-1.0;
23/07/2019 00:30:39;117;0;132.86;16;23.93;6.06;425.6;7.10;68596;4851.605;-13028.190;145;150;160.4;57;57.1;7;7.7;28.7;-1.0;
23/07/2019 00:30:59;117;0;133.94;16;23.55;6.77;421.1;7.10;68590;4851.605;-13028.190;145;150;160.4;57;57.1;6;5.9;28.6;-1.0;
23/07/2019 00:31:19;117;0;134.85;16;23.67;5.55;416.7;7.10;68601;4851.605;-13028.190;145;150;160.4;57;57.1;6;5.4;28.7;-1.0;
23/07/2019 00:31:39;117;0;132.98;16;24.04;5.54;412.3;7.10;68603;4851.605;-13028.190;145;150;160.4;57;57.1;7;7.7;28.6;-1.0;
23/07/2019 00:31:59;117;0;130.58;16;24.12;6.82;407.7;7.10;68605;4851.605;-13028.190;145;150;160.4;57;57.1;8;8.1;28.7;-1.0;
23/07/2019 00:32:19;117;0;130.12;16;23.90;6.83;403.2;7.10;68593;4851.605;-13028.190;145;150;160.4;57;57.1;7;7.2;28.6;-1.0;
23/07/2019 00:32:39;117;0;129.08;16;23.95;6.07;398.6;7.10;68597;4851.605;-13028.190;145;150;160.4;57;57.1;7;6.8;28.6;-1.0;
23/07/2019 00:32:59;117;0;129.08;16;23.64;6.04;394.2;7.10;68596;4851.605;-13028.190;145;150;158.4;57;57.1;7;6.8;28.6;-1.0;
23/07/2019 00:33:19;117;0;128.96;16;23.41;6.11;389.8;7.20;68612;4851.605;-13028.190;145;150;160.4;57;57.1;7;6.8;28.7;-1.0;
23/07/2019 00:33:39;117;0;129.30;16;23.44;6.13;385.5;7.10;68607;4851.605;-13028.190;145;150;160.4;57;57.1;7;6.3;28.7;-1.0;
23/07/2019 00:33:59;117;0;130.24;16;23.45;6.08;381.1;7.20;68603;4851.605;-13028.190;145;150;160.4;57;57.1;7;6.3;28.7;-1.0;
23/07/2019 00:34:19;117;0;130.34;16;23.31;6.17;376.8;7.20;68614;4851.605;-13028.190;145;150;160.4;57;57.1;7;6.3;28.6;-1.0;
23/07/2019 00:34:39;117;0;130.88;16;23.21;6.16;372.6;7.20;68618;4851.605;-13028.190;145;150;160.4;57;57.1;7;6.3;28.6;-1.0;
23/07/2019 00:34:59;117;0;130.95;16;23.11;6.18;368.3;7.20;68618;4851.605;-13028.190;145;150;160.4;57;57.1;7;6.8;28.7;-1.0;
23/07/2019 00:35:19;117;0;131.81;16;23.28;6.13;364.1;7.20;68620;4851.605;-13028.190;145;150;160.4;57;57.1;7;6.8;28.6;-1.0;
23/07/2019 00:35:39;117;0;130.69;16;23.50;6.18;359.7;7.20;68625;4851.605;-13028.190;145;150;160.4;57;57.1;7;6.8;28.7;-1.0;
23/07/2019 00:35:59;117;0;129.83;16;23.36;6.17;355.4;7.20;68633;4851.605;-13028.190;145;150;160.4;57;57.1;7;6.8;28.7;-1.0;
23/07/2019 00:36:19;117;0;128.93;16;23.22;6.13;351.2;7.20;68630;4851.605;-13028.190;145;150;160.4;57;57.1;7;6.8;28.7;-1.0;
23/07/2019 00:36:39;117;0;128.54;16;23.26;6.13;346.9;7.20;68630;4851.605;-13028.190;145;150;160.4;57;57.1;7;6.8;28.6;-1.0;
23/07/2019 00:36:59;117;0;127.18;16;23.26;6.12;342.7;7.20;68634;4851.605;-13028.190;145;150;160.4;57;57.1;7;6.3;28.6;-1.0;
23/07/2019 00:37:19;117;0;125.40;16;23.35;6.23;338.6;7.30;68640;4851.605;-13028.190;145;150;160.4;57;57.1;8;8.1;28.7;-1.0;
23/07/2019 00:37:39;117;0;124.39;16;23.13;7.27;334.3;7.30;68646;4851.605;-13028.190;145;150;160.4;57;57.1;9;9.0;28.7;-1.0;
23/07/2019 00:37:59;117;0;125.18;16;22.75;7.93;330.3;7.30;68644;4851.605;-13028.190;145;150;158.4;57;57.1;8;8.1;28.6;-1.0;
23/07/2019 00:38:19;117;0;125.31;16;22.64;6.70;326.2;7.30;68655;4851.605;-13028.190;145;150;158.4;57;57.1;8;7.7;28.7;-1.0;
23/07/2019 00:38:39;117;0;125.06;16;22.76;6.79;322.3;7.30;68655;4851.605;-13028.190;145;150;160.4;57;57.1;8;7.7;28.6;-1.0;
23/07/2019 00:38:59;117;0;125.50;16;22.72;6.69;318.3;7.30;68638;4851.605;-13028.190;145;150;160.4;57;57.1;8;7.7;28.7;-1.0;
23/07/2019 00:39:19;117;0;124.12;16;22.90;6.73;314.3;7.30;68650;4851.605;-13028.190;145;150;160.4;57;57.1;9;9.0;28.7;-1.0;
23/07/2019 00:39:39;117;0;122.97;16;22.96;7.85;310.3;7.30;68653;4851.605;-13028.190;145;150;160.4;57;57.1;10;9.9;28.7;-1.0;
23/07/2019 00:39:59;117;0;122.77;16;22.74;7.87;306.2;7.30;68660;4851.605;-13028.190;145;150;160.4;57;57.1;10;9.9;28.7;-1.0;
23/07/2019 00:40:19;117;0;123.64;16;22.49;7.89;302.3;7.30;68654;4851.605;-13028.190;145;150;158.4;57;57.1;9;8.6;28.7;-1.0;
23/07/2019 00:40:39;117;0;124.71;16;22.66;6.97;298.4;7.40;68659;4851.605;-13028.190;145;150;160.4;57;57.1;9;8.1;28.7;-1.0;
23/07/2019 00:40:59;117;0;124.52;16;22.64;6.89;294.3;7.40;68668;4851.605;-13028.190;145;150;160.4;57;57.1;9;8.1;28.7;-1.0;
23/07/2019 00:41:19;117;0;124.29;16;22.76;6.95;290.2;7.40;68667;4851.605;-13028.190;145;150;160.4;57;57.1;9;8.1;28.7;-1.0;
23/07/2019 00:41:39;117;0;123.15;16;22.93;6.97;286.0;7.40;68667;4851.605;-13028.190;145;150;160.4;57;57.1;10;9.9;28.7;-1.0;
23/07/2019 00:41:59;117;0;121.99;16;22.72;8.20;281.8;7.40;68666;4851.605;-13028.190;145;150;160.4;57;57.1;12;12.2;28.7;-1.0;
23/07/2019 00:42:19;117;0;124.72;16;22.34;9.30;277.7;7.40;68684;4851.605;-13028.190;145;150;160.4;57;57.1;9;8.6;28.6;-1.0;
23/07/2019 00:42:39;117;0;126.83;16;22.34;6.91;273.6;7.40;68676;4851.605;-13028.190;145;150;160.4;57;57.1;9;8.1;28.6;-1.0;
23/07/2019 00:42:59;117;0;128.27;16;22.24;6.93;269.5;7.40;68683;4851.605;-13028.190;145;150;160.4;57;57.1;9;8.1;28.7;-1.0;
23/07/2019 00:43:19;117;0;128.30;16;22.38;6.92;265.4;7.40;68677;4851.605;-13028.190;145;150;158.4;57;57.1;9;8.1;28.7;-1.0;
23/07/2019 00:43:39;117;0;128.41;16;22.28;6.96;261.3;7.50;68681;4851.605;-13028.190;145;150;160.4;57;57.1;9;8.1;28.7;-1.0;
23/07/2019 00:43:59;117;0;130.56;16;21.98;6.90;257.2;7.50;68673;4851.605;-13028.190;145;150;160.4;57;57.1;9;8.1;28.7;-1.0;
23/07/2019 00:44:19;117;0;130.91;16;22.12;6.96;253.2;7.50;68673;4851.605;-13028.190;145;150;160.4;57;57.1;9;8.1;28.6;-1.0;
23/07/2019 00:44:39;117;0;131.27;16;22.06;7.00;249.2;7.50;68686;4851.605;-13028.190;145;150;160.4;57;57.1;9;8.1;28.6;-1.0;
23/07/2019 00:44:59;117;0;131.77;16;22.14;6.98;245.2;7.50;68687;4851.605;-13028.190;145;150;160.4;57;57.1;9;8.1;28.7;-1.0;
23/07/2019 00:45:19;117;0;132.24;16;22.33;6.89;241.0;7.50;68683;4851.605;-13028.190;145;150;160.4;57;57.1;8;8.1;28.6;-1.0;
23/07/2019 00:45:39;117;0;134.79;16;21.98;6.94;237.0;7.50;68687;4851.605;-13028.190;145;150;160.4;57;57.1;7;7.2;28.6;-1.0;
23/07/2019 00:45:59;117;0;134.67;16;22.31;6.09;233.0;7.50;68684;4851.605;-13028.190;145;150;160.4;57;57.1;7;6.3;28.7;-1.0;
23/07/2019 00:46:19;117;0;134.78;16;22.29;6.26;228.9;7.50;68686;4851.605;-13028.190;145;150;160.4;57;57.1;7;6.3;28.6;-1.0;
23/07/2019 00:46:39;117;0;136.24;16;21.99;6.08;224.9;7.60;68689;4851.605;-13028.190;145;150;160.4;57;57.1;6;5.9;28.6;-1.0;
23/07/2019 00:46:59;117;0;136.79;16;21.85;5.57;221.0;7.60;68693;4851.605;-13028.190;145;150;160.4;57;57.1;6;5.4;28.7;-1.0;
23/07/2019 00:47:19;117;0;136.89;16;21.75;5.66;217.1;7.60;68693;4851.605;-13028.190;145;150;160.4;57;57.1;6;5.4;28.7;-1.0;
23/07/2019 00:47:39;117;0;136.94;16;21.73;5.56;213.4;7.60;68700;4851.605;-13028.190;145;150;160.4;57;57.1;6;5.4;28.7;-1.0;
23/07/2019 00:47:59;117;0;137.06;16;21.66;5.59;209.6;7.60;68700;4851.605;-13028.190;145;150;160.4;57;57.1;5;4.5;28.7;-1.0;
23/07/2019 00:48:19;117;0;136.34;16;21.86;5.02;206.0;7.60;68712;4851.605;-13028.190;145;150;160.4;57;57.1;6;5.9;28.7;-1.0;
23/07/2019 00:48:39;117;0;133.99;16;22.32;6.21;202.1;7.60;68706;4851.605;-13028.190;145;150;160.4;57;57.1;7;7.7;28.6;-1.0;
23/07/2019 00:49:00;117;0;132.66;16;22.24;6.88;198.2;7.60;68713;4851.605;-13028.190;145;150;160.4;57;57.1;7;7.7;28.7;-1.0;
23/07/2019 00:49:20;117;0;133.84;16;21.85;6.87;194.3;7.60;68712;4851.605;-13028.190;145;150;160.4;57;57.1;6;5.9;28.7;-1.0;
23/07/2019 00:49:40;117;0;134.91;16;21.83;5.62;190.4;7.70;68723;4851.605;-13028.190;145;150;160.4;57;57.1;5;4.5;28.6;-1.0;
23/07/2019 00:50:00;117;0;133.47;16;21.96;5.07;186.6;7.70;68717;4851.605;-13028.190;145;150;160.4;57;57.1;5;4.1;28.7;-1.0;
23/07/2019 00:50:20;117;0;133.99;16;21.85;5.12;182.7;7.70;68706;4851.605;-13028.190;145;150;160.4;57;57.1;5;4.5;28.6;-1.0;
23/07/2019 00:50:40;117;0;135.15;16;21.72;5.05;178.9;7.70;68731;4851.605;-13028.190;145;150;160.4;57;57.1;4;4.1;28.7;-1.0;
23/07/2019 00:51:00;117;0;133.86;16;21.62;5.13;175.1;7.70;68725;4851.605;-13028.190;145;150;160.4;57;57.1;5;5.4;28.7;-1.0;
23/07/2019 00:51:20;117;0;134.68;16;21.37;5.81;171.3;7.70;68735;4851.605;-13028.190;145;150;160.4;57;57.1;4;4.1;28.6;-1.0;
23/07/2019 00:51:40;117;0;135.22;16;21.34;4.75;167.6;7.70;68728;4851.605;-13028.190;145;150;160.4;57;57.1;3;3.2;28.6;-1.0;
23/07/2019 00:52:00;117;0;135.53;16;21.35;4.17;163.7;7.70;68728;4851.605;-13028.190;145;150;160.4;57;57.1;3;2.3;28.6;-1.0;
23/07/2019 00:52:20;117;0;135.60;16;21.13;4.18;159.9;7.80;68741;4851.605;-13028.190;145;150;160.4;57;57.1;3;2.3;28.6;-1.0;
23/07/2019 00:52:40;117;0;134.63;16;21.01;4.20;155.9;7.80;68740;4851.605;-13028.190;145;150;160.4;57;57.1;4;4.1;28.7;-1.0;
23/07/2019 00:53:00;117;0;135.60;16;20.95;5.50;152.2;7.80;68738;4851.605;-13028.190;145;150;160.4;57;57.1;3;3.2;28.6;-1.0;
23/07/2019 00:53:20;117;0;132.53;16;20.92;4.21;148.4;7.80;68748;4851.605;-13028.190;145;150;160.4;57;57.1;4;4.1;28.7;-1.0;
23/07/2019 00:53:40;117;0;131.89;16;20.80;5.43;144.4;7.80;68748;4851.605;-13028.190;145;150;160.4;57;57.1;4;5.0;28.7;-1.0;
23/07/2019 00:54:00;117;0;130.21;16;21.00;5.41;140.7;7.80;68752;4851.605;-13028.190;145;150;162.4;57;57.1;4;5.0;28.7;-1.0;
23/07/2019 00:54:20;117;0;128.00;16;20.81;5.47;136.7;7.80;68768;4851.605;-13028.190;145;150;160.4;57;57.1;4;5.0;28.6;-1.0;
23/07/2019 00:54:40;117;0;126.99;16;20.49;5.64;132.8;7.90;68762;4851.605;-13028.190;145;150;158.4;57;57.1;4;5.0;28.7;-1.0;
23/07/2019 00:55:00;117;0;132.10;16;20.31;5.59;129.1;7.90;68755;4851.605;-13028.190;145;150;160.4;57;57.1;2;1.8;28.6;-1.0;
23/07/2019 00:55:20;117;0;132.60;16;20.70;3.70;125.3;7.90;68770;4851.605;-13028.190;145;150;162.4;57;57.1;2;1.4;28.6;-1.0;
23/07/2019 00:55:40;117;0;128.14;16;20.57;3.70;121.5;7.90;68762;4851.605;-13028.190;145;150;160.4;57;57.1;2;1.8;28.7;-1.0;
23/07/2019 00:56:00;117;0;130.04;16;19.34;3.74;117.9;7.90;68766;4851.605;-13028.190;145;150;160.4;57;57.1;2;1.4;28.6;-1.0;
23/07/2019 00:56:20;117;0;127.40;16;19.26;3.78;114.6;7.90;68770;4851.605;-13028.190;145;150;160.4;57;57.1;2;1.4;28.6;-1.0;
23/07/2019 00:56:40;117;0;122.81;16;18.93;3.71;111.1;7.90;68765;4851.605;-13028.190;145;150;160.4;57;57.1;7;7.2;28.7;-1.0;
23/07/2019 00:57:00;117;0;119.83;16;18.68;6.91;107.6;8.00;68767;4851.605;-13028.190;145;150;160.4;57;57.1;8;8.1;28.6;-1.0;
23/07/2019 00:57:20;117;0;116.65;16;18.10;7.70;104.1;8.00;68768;4851.605;-13028.190;145;150;160.4;57;57.2;9;9.0;28.7;-1.0;
23/07/2019 00:57:40;117;0;118.58;16;16.94;8.01;101.1;8.00;68762;4851.605;-13028.190;145;150;160.4;57;57.1;8;7.7;28.7;-1.0;
23/07/2019 00:58:00;117;0;120.90;16;16.39;6.66;98.5;8.00;68760;4851.605;-13028.190;145;150;160.4;57;57.1;6;5.9;28.7;-1.0;
23/07/2019 00:58:20;117;0;116.55;16;16.33;6.10;96.0;8.00;68765;4851.605;-13028.190;145;150;160.4;57;57.1;10;10.4;28.7;-1.0;
23/07/2019 00:58:40;117;0;115.94;16;16.05;8.47;93.5;8.00;68768;4851.605;-13028.190;145;150;162.4;57;57.1;10;10.8;28.6;-1.0;
23/07/2019 00:59:00;117;0;120.29;16;14.94;8.48;91.0;8.00;68764;4851.605;-13028.190;145;150;160.4;57;57.1;7;7.2;28.7;-1.0;
23/07/2019 00:59:20;117;0;122.01;16;15.03;6.66;88.8;8.00;68777;4851.605;-13028.190;145;150;160.4;57;57.2;7;6.8;28.7;-1.0;
23/07/2019 00:59:40;117;0;126.75;16;14.31;6.73;86.5;8.10;68783;4851.605;-13028.190;145;150;162.4;57;57.1;5;5.0;28.6;-1.0;
23/07/2019 01:00:00;117;0;129.61;16;14.09;5.37;84.5;8.10;68784;4851.605;-13028.190;145;150;160.4;57;57.1;5;4.5;28.7;-1.0;
23/07/2019 01:00:20;117;0;129.68;16;14.13;5.35;82.5;8.10;68796;4851.605;-13028.190;145;150;160.4;57;57.1;5;4.5;28.7;-1.0;
23/07/2019 01:00:40;117;0;128.89;16;13.75;5.37;80.4;8.10;68798;4851.605;-13028.190;145;150;160.4;57;57.1;5;4.5;28.6;-1.0;
23/07/2019 01:01:00;117;0;128.15;16;13.62;5.38;78.3;8.10;68801;4851.605;-13028.190;145;150;160.4;57;57.1;5;4.5;28.7;-1.0;
23/07/2019 01:01:20;117;0;127.05;16;13.46;5.43;76.2;8.10;68820;4851.605;-13028.190;145;150;158.4;57;57.1;5;4.5;28.7;-1.0;
23/07/2019 01:01:40;117;0;130.97;16;13.18;5.41;74.1;8.10;68835;4851.605;-13028.190;145;150;160.4;57;57.1;5;4.5;28.7;-1.0;
23/07/2019 01:02:00;117;0;134.24;16;13.10;5.43;71.9;8.20;68842;4851.605;-13028.190;145;150;160.4;57;57.1;4;4.1;28.7;-1.0;
23/07/2019 01:02:20;117;0;136.76;16;13.06;4.83;69.7;8.20;68846;4851.605;-13028.190;145;150;160.4;57;57.1;4;3.2;28.6;-1.0;
23/07/2019 01:02:40;117;0;137.04;16;13.13;4.81;67.7;8.20;68861;4851.605;-13028.190;145;150;160.4;57;57.1;4;3.6;28.6;-1.0;
23/07/2019 01:03:00;117;0;135.52;16;12.94;4.78;65.4;8.20;68876;4851.605;-13028.190;145;150;162.4;57;57.1;5;5.0;28.7;-1.0;
23/07/2019 01:03:20;117;0;135.77;16;12.80;6.08;63.4;8.30;68876;4851.605;-13028.190;145;150;160.4;57;57.1;5;5.9;28.7;-1.0;
