Timestamp;NavState;SecurityLevel;Heading;Declination;Pitch;Roll;Depth;Temperature;Pa;Lat;Lon;DesiredH;BallastCmd;BallastPos;LinCmd;LinPos;AngCmd;AngPos;Voltage;Altitude;
22/07/2019 02:29:15;117;0;267.16;16;8.46;5.15;9.4;10.80;70001;4854.711;-13035.922;270;150;146.5;57;57.1;-3;-3.6;28.8;-1.0;
22/07/2019 02:29:25;115;0;269.51;16;7.45;1.74;8.7;10.80;70004;4854.711;-13035.922;270;325;158.4;100;99.9;0;0.9;28.8;-1.0;
22/07/2019 02:29:35;115;0;268.84;16;-35.03;3.73;8.4;10.80;69934;4854.711;-13035.922;270;325;308.9;100;100.0;0;0.9;28.5;-1.0;
22/07/2019 02:29:45;115;0;242.67;16;-70.81;-4.61;8.6;10.90;69739;4854.711;-13035.922;270;325;332.7;100;100.0;0;0.9;28.5;-1.0;
22/07/2019 02:29:55;115;0;266.61;16;-50.96;1.39;6.5;10.90;69736;4854.711;-13035.922;270;325;334.7;100;100.0;0;0.9;28.8;-1.0;
22/07/2019 02:30:05;116;0;245.40;16;-39.93;3.60;3.3;11.00;69746;4854.711;-13035.922;270;325;336.6;100;99.9;0;0.9;28.8;-1.0;
22/07/2019 02:30:24;116;0;124.03;16;-9.43;10.13;2.3;11.10;69747;4854.677;-13036.632;270;325;338.6;100;99.9;0;0.9;28.8;-1.0;
22/07/2019 02:30:44;116;0;103.79;16;-5.85;12.39;2.4;11.20;69775;4854.679;-13036.632;270;325;338.6;100;99.9;0;0.9;28.8;-1.0;
22/07/2019 02:31:04;116;0;103.61;16;-6.37;4.05;2.4;11.30;69792;4854.680;-13036.628;270;325;338.6;100;99.9;0;0.9;28.8;-1.0;
22/07/2019 02:31:24;116;0;94.00;16;-37.95;4.92;2.8;11.40;69805;4854.678;-13036.621;270;325;336.6;100;99.9;0;0.9;28.8;-1.0;
22/07/2019 02:31:44;116;0;94.96;16;-26.51;3.18;2.5;11.50;69823;4854.676;-13036.594;270;325;338.6;100;99.9;0;0.9;28.7;-1.0;
22/07/2019 02:33:26;116;0;97.37;16;-26.17;0.12;2.6;12.10;69867;4854.676;-13036.593;270;325;338.6;100;99.9;0;0.9;28.8;-1.0;
22/07/2019 02:33:46;116;0;81.36;16;-31.34;2.41;2.7;12.20;69878;4854.677;-13036.588;270;325;336.6;100;99.9;0;0.9;28.8;-1.0;
22/07/2019 02:34:06;116;0;85.61;16;-9.89;4.43;2.4;12.30;69886;4854.683;-13036.506;270;325;338.6;100;99.9;0;0.9;28.8;-1.0;
22/07/2019 02:39:42;116;0;91.91;16;-8.17;4.57;2.4;13.80;70001;4854.683;-13036.505;270;325;338.6;100;99.9;0;0.9;28.8;-1.0;
22/07/2019 02:40:02;116;0;93.18;16;-6.57;3.26;2.3;13.90;70005;4854.683;-13036.499;270;325;338.6;100;99.9;0;0.9;28.8;-1.0;
22/07/2019 02:40:22;116;0;81.83;16;-17.77;1.67;2.5;14.00;70017;4854.683;-13036.495;270;325;338.6;100;99.9;0;0.9;28.8;-1.0;
22/07/2019 02:40:42;116;0;93.39;16;-10.01;6.30;2.4;14.00;70023;4854.681;-13036.485;270;325;336.6;100;100.0;0;0.9;28.8;-1.0;
22/07/2019 02:41:02;116;0;92.98;16;-43.09;1.28;2.9;14.10;70030;4854.681;-13036.484;270;325;336.6;100;100.0;0;0.9;28.8;-1.0;
22/07/2019 02:41:22;116;0;86.43;16;-16.85;7.81;2.5;14.20;70048;4854.682;-13036.481;270;325;336.6;100;99.9;0;0.9;28.9;-1.0;
22/07/2019 02:41:42;116;0;118.40;16;-9.96;-0.54;2.4;14.20;70034;4854.683;-13036.467;270;325;338.6;100;99.9;0;0.9;28.6;-1.0;
22/07/2019 02:42:39;116;0;109.42;16;-7.39;2.20;2.4;14.40;70045;4854.682;-13036.466;270;325;336.6;100;99.9;0;0.9;28.8;-1.0;
22/07/2019 02:42:59;116;0;97.17;16;-9.43;2.52;2.4;14.50;70046;4854.682;-13036.460;270;325;338.6;100;99.7;0;0.9;28.8;-1.0;
22/07/2019 02:43:19;116;0;96.35;16;-5.86;2.22;2.4;14.50;70057;4854.681;-13036.457;270;325;338.6;100;99.9;0;0.9;28.8;-1.0;
22/07/2019 02:43:39;116;0;81.52;16;-22.14;5.34;2.6;14.60;70066;4854.681;-13036.451;270;325;338.6;100;99.9;0;0.9;28.8;-1.0;
22/07/2019 02:43:59;116;0;84.46;16;-26.79;4.66;2.6;14.60;70068;4854.680;-13036.447;270;325;340.6;100;99.9;0;0.9;28.8;-1.0;
22/07/2019 02:44:19;116;0;106.37;16;-12.72;1.68;2.4;14.70;70074;4854.682;-13036.443;270;325;336.6;100;99.9;0;0.9;28.8;-1.0;
22/07/2019 02:44:39;116;0;120.81;16;-6.69;2.74;2.4;14.70;70066;4854.681;-13036.438;270;325;338.6;100;99.9;0;0.9;28.8;-1.0;
22/07/2019 02:44:59;116;0;130.41;16;-4.78;2.28;2.4;14.80;70068;4854.681;-13036.434;270;325;336.6;100;99.9;0;0.9;28.8;-1.0;
22/07/2019 02:45:19;116;0;126.62;16;-6.48;-1.27;2.4;14.80;70074;4854.679;-13036.429;270;325;338.6;100;99.9;0;0.9;29.0;-1.0;
22/07/2019 02:45:39;116;0;107.89;16;-7.79;3.28;2.4;14.90;70076;4854.679;-13036.424;270;325;338.6;100;99.9;0;0.9;28.8;-1.0;
22/07/2019 02:45:59;116;0;91.84;16;-8.55;1.13;2.4;15.00;70091;4854.677;-13036.419;270;325;338.6;100;99.9;0;0.9;28.8;-1.0;
22/07/2019 02:46:19;116;0;116.68;16;-11.46;2.05;2.5;15.00;70095;4854.678;-13036.414;270;325;338.6;100;99.9;0;0.9;28.8;-1.0;
22/07/2019 02:46:39;116;0;110.41;16;-10.25;5.00;2.4;15.10;70099;4854.678;-13036.411;270;325;338.6;100;99.9;0;0.9;28.8;-1.0;
22/07/2019 02:46:59;110;0;101.48;16;-18.82;4.55;2.5;15.10;70097;4854.678;-13036.411;270;-500;223.8;100;99.9;0;0.9;28.8;-1.0;
22/07/2019 02:47:09;110;0;93.97;16;-25.32;1.82;2.7;15.10;70373;4854.678;-13036.411;270;-500;63.4;100;99.9;0;0.9;28.7;-1.0;
22/07/2019 02:47:19;110;0;112.58;16;-37.87;-0.29;2.9;15.10;70582;4854.678;-13036.411;270;-500;-118.8;100;100.0;0;0.9;28.7;-1.0;
22/07/2019 02:47:29;110;0;93.21;16;-66.90;7.49;3.7;15.20;70875;4854.678;-13036.411;270;-500;-318.8;93;92.8;0;0.9;28.8;-1.0;
22/07/2019 02:47:39;110;0;91.12;16;-56.99;3.48;4.9;15.20;71200;4854.678;-13036.411;270;-500;-501.0;81;81.1;0;0.9;28.7;-1.0;
22/07/2019 02:47:49;110;0;85.32;16;-48.39;2.62;7.4;15.20;71481;4854.678;-13036.411;270;-500;-499.0;70;70.0;0;0.9;28.8;-1.0;
22/07/2019 02:47:59;100;0;82.62;16;-38.39;3.80;10.9;15.20;71469;4854.678;-13036.411;270;-500;-499.0;70;69.9;0;0.9;28.8;-1.0;
22/07/2019 02:48:19;100;0;82.02;16;-29.31;4.03;17.1;15.20;71484;4854.678;-13036.411;270;-500;-499.0;70;69.9;0;0.9;28.8;0.0;
22/07/2019 02:48:39;100;0;72.94;16;-26.75;3.86;23.1;15.30;71482;4854.678;-13036.411;270;-500;-497.0;70;69.9;45;45.1;28.8;0.0;
22/07/2019 02:48:59;100;0;53.65;16;-22.98;24.51;28.0;15.30;71467;4854.678;-13036.411;270;-500;-499.0;70;69.9;45;45.6;28.9;0.0;
22/07/2019 02:49:19;100;0;36.34;16;-21.11;25.06;32.5;15.30;71424;4854.678;-13036.411;270;-500;-497.0;70;69.9;45;45.6;28.8;0.0;
22/07/2019 02:49:39;100;0;15.50;16;-19.89;24.69;36.6;15.30;71343;4854.678;-13036.411;270;-500;-499.0;70;69.9;37;36.6;28.8;0.0;
22/07/2019 02:49:59;100;0;2.83;16;-21.65;19.77;40.3;15.20;71246;4854.678;-13036.411;270;-500;-499.0;70;69.9;30;29.8;28.8;0.0;
22/07/2019 02:50:19;100;0;349.49;16;-21.82;16.25;44.2;15.10;71174;4854.678;-13036.411;270;-500;-497.0;70;69.9;26;26.2;28.8;0.0;
22/07/2019 02:50:39;100;0;335.73;16;-22.00;14.61;47.9;15.10;71107;4854.678;-13036.411;270;-500;-497.0;70;69.9;22;22.1;28.8;0.0;
22/07/2019 02:50:59;100;0;322.45;16;-22.76;12.93;51.6;15.00;71054;4854.678;-13036.411;270;-500;-497.0;70;69.9;19;19.0;28.8;0.0;
22/07/2019 02:51:19;100;0;310.14;16;-22.69;11.20;55.5;14.90;70994;4854.678;-13036.411;270;-500;-497.0;70;70.0;16;15.8;28.8;0.0;
22/07/2019 02:51:39;100;0;296.69;16;-23.30;9.76;59.2;14.80;70928;4854.678;-13036.411;270;-500;-497.0;70;69.9;13;13.1;28.8;0.0;
22/07/2019 02:51:59;100;0;280.53;16;-23.18;8.50;63.1;14.70;70870;4854.678;-13036.411;270;-500;-497.0;70;69.9;9;9.0;28.8;0.0;
22/07/2019 02:52:19;100;0;259.99;16;-23.03;6.70;67.2;14.70;70821;4854.678;-13036.411;270;-500;-495.0;70;69.9;2;1.4;28.8;0.0;
22/07/2019 02:52:39;100;0;245.34;16;-23.84;3.32;71.3;14.60;70767;4854.678;-13036.411;270;-500;-495.0;70;69.9;2;0.9;28.8;0.0;
22/07/2019 02:52:59;100;0;233.95;16;-23.69;3.30;75.5;14.50;70737;4854.678;-13036.411;270;-500;-495.0;70;69.7;0;0.0;28.9;0.0;
22/07/2019 02:53:19;100;0;217.72;16;-23.63;2.77;79.7;14.40;70708;4854.678;-13036.411;270;-500;-497.0;70;69.9;-4;-4.1;28.8;0.0;
22/07/2019 02:53:39;100;0;212.69;16;-23.50;1.07;84.0;14.30;70668;4854.678;-13036.411;270;-500;-497.0;70;69.7;-2;-1.8;28.8;0.0;
22/07/2019 02:53:59;100;0;201.78;16;-23.05;2.70;88.1;14.30;70628;4854.678;-13036.411;270;-500;-497.0;70;69.7;-7;-7.2;28.8;0.0;
22/07/2019 02:54:19;100;0;194.36;16;-23.15;-0.39;92.1;14.20;70576;4854.678;-13036.411;270;-500;-495.0;70;69.9;-9;-9.0;28.8;0.0;
22/07/2019 02:54:39;100;0;185.41;16;-23.26;-1.24;96.0;14.10;70546;4854.678;-13036.411;270;-500;-495.0;70;69.9;-14;-14.4;28.8;0.0;
22/07/2019 02:54:59;100;0;182.00;16;-22.42;-3.38;100.0;14.00;70512;4854.678;-13036.411;270;-500;-497.0;70;69.7;-15;-14.9;28.8;0.0;
22/07/2019 02:55:19;100;0;169.68;16;-22.78;-3.46;103.7;13.90;70487;4854.678;-13036.411;270;-500;-497.0;70;69.9;-24;-23.9;28.8;0.0;
22/07/2019 02:55:39;100;0;167.80;16;-22.22;-7.82;107.6;13.80;70465;4854.678;-13036.411;270;-500;-495.0;70;69.9;-25;-24.8;28.9;0.0;
22/07/2019 02:55:59;100;0;163.55;16;-22.16;-8.42;111.2;13.70;70436;4854.678;-13036.411;270;-500;-497.0;70;69.7;-29;-29.3;28.8;0.0;
22/07/2019 02:56:19;100;0;161.67;16;-21.87;-10.15;114.9;13.60;70433;4854.678;-13036.411;270;-500;-495.0;70;69.7;-32;-32.0;28.8;0.0;
22/07/2019 02:56:39;100;0;167.85;16;-21.44;-11.51;118.2;13.60;70416;4854.678;-13036.411;270;-500;-495.0;70;69.9;-30;-29.3;28.8;0.0;
22/07/2019 02:56:59;100;0;172.88;16;-21.52;-9.91;121.2;13.50;70410;4854.678;-13036.411;270;-500;-495.0;70;69.7;-28;-27.5;28.8;0.0;
22/07/2019 02:57:19;100;0;179.85;16;-21.65;-8.93;124.4;13.40;70397;4854.678;-13036.411;270;-500;-495.0;70;69.7;-25;-24.8;28.8;0.0;
22/07/2019 02:57:39;100;0;177.41;16;-21.49;-8.40;127.5;13.30;70389;4854.678;-13036.411;270;-500;-495.0;70;69.9;-29;-29.3;28.8;0.0;
22/07/2019 02:57:59;100;0;175.30;16;-21.80;-10.16;130.8;13.30;70379;4854.678;-13036.411;270;-500;-495.0;70;69.7;-30;-29.8;28.8;0.0;
22/07/2019 02:58:19;100;0;175.76;16;-21.50;-10.30;134.2;13.20;70374;4854.678;-13036.411;270;-500;-495.0;70;69.7;-30;-29.8;28.8;0.0;
22/07/2019 02:58:39;100;0;173.86;16;-20.51;-10.13;137.6;13.10;70379;4854.678;-13036.411;270;-500;-495.0;70;69.9;-31;-31.6;28.8;0.0;
22/07/2019 02:58:59;100;0;172.20;16;-20.67;-11.42;140.7;13.10;70371;4854.678;-13036.411;270;-500;-495.0;70;69.7;-31;-31.6;28.8;0.0;
22/07/2019 02:59:19;100;0;172.93;16;-20.83;-11.28;143.8;13.00;70357;4854.678;-13036.411;270;-500;-495.0;70;69.7;-31;-32.0;28.8;0.0;
22/07/2019 02:59:39;100;0;182.08;16;-20.22;-11.50;146.8;13.00;70363;4854.678;-13036.411;270;-500;-495.0;70;69.7;-25;-24.4;28.8;0.0;
22/07/2019 03:00:00;100;0;184.48;16;-20.30;-7.67;149.7;12.90;70345;4854.678;-13036.411;270;-500;-495.0;70;69.9;-26;-26.2;28.8;0.0;
22/07/2019 03:00:20;100;0;187.06;16;-19.77;-8.78;152.6;12.90;70342;4854.678;-13036.411;270;-500;-495.0;70;69.7;-25;-24.8;28.8;0.0;
22/07/2019 03:00:40;100;0;190.69;16;-19.65;-7.81;155.3;12.80;70348;4854.678;-13036.411;270;-500;-495.0;70;69.7;-25;-24.4;28.9;0.0;
22/07/2019 03:01:00;100;0;191.76;16;-20.02;-7.83;158.1;12.70;70340;4854.678;-13036.411;270;-500;-495.0;70;69.7;-25;-23.9;28.8;0.0;
22/07/2019 03:01:20;100;0;194.54;16;-20.03;-7.91;160.9;12.70;70338;4854.678;-13036.411;270;-500;-493.1;70;69.9;-24;-23.9;28.8;0.0;
22/07/2019 03:01:40;100;0;195.94;16;-19.94;-7.52;163.7;12.60;70339;4854.678;-13036.411;270;-500;-495.0;70;69.7;-25;-24.8;28.8;0.0;
22/07/2019 03:02:00;100;0;194.60;16;-19.92;-8.37;166.5;12.60;70321;4854.678;-13036.411;270;-500;-495.0;70;69.7;-26;-26.2;28.8;0.0;
22/07/2019 03:02:20;100;0;197.39;16;-19.90;-9.11;169.2;12.50;70320;4854.678;-13036.411;270;-500;-497.0;70;69.7;-24;-23.9;28.8;0.0;
22/07/2019 03:02:40;100;0;196.01;16;-19.74;-7.44;172.0;12.50;70321;4854.678;-13036.411;270;-500;-497.0;70;69.9;-26;-26.2;28.8;0.0;
22/07/2019 03:03:00;100;0;195.21;16;-19.74;-9.09;174.7;12.40;70312;4854.678;-13036.411;270;-500;-493.1;70;69.7;-26;-26.6;28.8;0.0;
22/07/2019 03:03:20;100;0;195.95;16;-19.62;-9.08;177.4;12.40;70304;4854.678;-13036.411;270;-500;-493.1;70;69.7;-26;-26.6;28.8;0.0;
22/07/2019 03:03:40;100;0;198.57;16;-19.59;-9.14;180.1;12.30;70306;4854.678;-13036.411;270;-500;-495.0;70;69.7;-24;-23.5;28.8;0.0;
22/07/2019 03:04:00;100;0;202.70;16;-19.53;-7.43;182.6;12.30;70292;4854.678;-13036.411;270;-500;-493.1;70;69.9;-23;-23.0;28.8;0.0;
22/07/2019 03:04:20;100;0;207.00;16;-19.54;-7.31;185.3;12.20;70283;4854.678;-13036.411;270;-500;-495.0;70;69.7;-21;-21.2;28.8;0.0;
22/07/2019 03:04:40;100;0;207.70;16;-19.38;-6.14;187.9;12.20;70275;4854.678;-13036.411;270;-500;-493.1;70;69.9;-22;-22.6;28.8;0.0;
22/07/2019 03:05:00;100;0;209.19;16;-19.49;-7.28;190.5;12.10;70277;4854.678;-13036.411;270;-500;-495.0;70;69.9;-22;-23.0;28.8;0.0;
22/07/2019 03:05:20;100;0;210.47;16;-19.46;-7.31;193.0;12.10;70257;4854.678;-13036.411;270;-500;-493.1;70;69.9;-22;-23.0;28.8;0.0;
22/07/2019 03:05:40;100;0;213.10;16;-19.36;-7.33;195.6;12.00;70260;4854.678;-13036.411;270;-500;-493.1;70;69.7;-21;-21.2;28.8;0.0;
22/07/2019 03:06:00;100;0;214.91;16;-19.25;-6.21;198.2;12.00;70247;4854.678;-13036.411;270;-500;-495.0;70;69.9;-21;-20.3;28.8;0.0;
22/07/2019 03:06:20;100;0;217.67;16;-19.25;-6.20;200.8;11.90;70250;4854.678;-13036.411;270;-500;-495.0;70;69.7;-20;-19.4;28.8;0.0;
22/07/2019 03:06:40;100;0;218.17;16;-19.25;-5.34;203.4;11.90;70237;4854.678;-13036.411;270;-500;-495.0;70;69.9;-20;-19.0;28.8;0.0;
22/07/2019 03:07:00;100;0;217.69;16;-19.13;-5.35;205.9;11.80;70232;4854.678;-13036.411;270;-500;-495.0;70;69.7;-21;-21.2;28.8;0.0;
22/07/2019 03:07:20;100;0;218.23;16;-19.21;-6.74;208.5;11.80;70223;4854.678;-13036.411;270;-500;-495.0;70;69.7;-21;-21.7;28.8;0.0;
22/07/2019 03:07:40;100;0;219.73;16;-19.36;-6.68;211.1;11.70;70228;4854.678;-13036.411;270;-500;-495.0;70;69.7;-21;-21.7;28.8;0.0;
22/07/2019 03:08:00;100;0;220.55;16;-19.38;-6.73;213.7;11.70;70223;4854.678;-13036.411;270;-500;-495.0;70;69.7;-20;-19.9;28.8;0.0;
22/07/2019 03:08:20;100;0;220.60;16;-19.53;-5.38;216.4;11.60;70214;4854.678;-13036.411;270;-500;-495.0;70;69.7;-21;-21.2;28.8;0.0;
22/07/2019 03:08:40;100;0;217.42;16;-18.99;-6.73;219.2;11.60;70208;4854.678;-13036.411;270;-500;-495.0;70;69.9;-23;-23.0;28.9;0.0;
22/07/2019 03:09:00;100;0;218.68;16;-19.06;-7.74;221.9;11.50;70205;4854.678;-13036.411;270;-500;-495.0;70;69.7;-22;-21.7;28.8;0.0;
22/07/2019 03:09:20;100;0;218.55;16;-19.01;-6.62;224.6;11.50;70197;4854.678;-13036.411;270;-500;-495.0;70;69.7;-22;-21.2;28.8;0.0;
22/07/2019 03:09:40;100;0;218.52;16;-18.91;-6.49;227.3;11.40;70192;4854.678;-13036.411;270;-500;-495.0;70;69.7;-22;-21.2;28.9;0.0;
22/07/2019 03:10:00;100;0;217.90;16;-19.35;-6.60;230.0;11.40;70193;4854.678;-13036.411;270;-500;-495.0;70;69.7;-22;-21.2;28.8;0.0;
22/07/2019 03:10:20;100;0;216.37;16;-19.19;-6.48;232.6;11.40;70191;4854.678;-13036.411;270;-500;-495.0;70;69.7;-22;-21.2;28.8;0.0;
22/07/2019 03:10:40;100;0;216.99;16;-19.05;-6.60;235.4;11.30;70189;4854.678;-13036.411;270;-500;-493.1;70;69.9;-22;-21.2;28.8;0.0;
22/07/2019 03:11:00;100;0;218.36;16;-18.80;-6.29;238.1;11.30;70179;4854.678;-13036.411;270;-500;-495.0;70;69.7;-21;-21.2;28.8;0.0;
22/07/2019 03:11:20;100;0;220.14;16;-19.23;-6.53;240.7;11.20;70175;4854.678;-13036.411;270;-500;-495.0;70;69.7;-20;-19.9;28.8;0.0;
22/07/2019 03:11:40;100;0;220.60;16;-19.14;-5.73;243.4;11.20;70168;4854.678;-13036.411;270;-500;-495.0;70;69.7;-21;-21.2;28.8;0.0;
22/07/2019 03:12:00;100;0;219.70;16;-19.21;-6.76;246.1;11.20;70173;4854.678;-13036.411;270;-500;-495.0;70;69.7;-21;-21.7;28.9;0.0;
22/07/2019 03:12:20;100;0;220.15;16;-18.90;-6.74;248.8;11.10;70163;4854.678;-13036.411;270;-500;-495.0;70;69.7;-21;-21.7;28.8;0.0;
22/07/2019 03:12:40;100;0;225.22;16;-19.06;-6.77;251.5;11.10;70162;4854.678;-13036.411;270;-500;-495.0;70;69.7;-18;-18.1;28.8;0.0;
22/07/2019 03:13:00;100;0;225.30;16;-18.90;-4.74;254.2;11.10;70163;4854.678;-13036.411;270;-500;-495.0;70;69.7;-19;-19.4;28.8;0.0;
22/07/2019 03:13:20;100;0;227.13;16;-18.94;-5.84;256.9;11.00;70151;4854.678;-13036.411;270;-500;-493.1;70;69.7;-18;-18.1;28.8;0.0;
22/07/2019 03:13:40;100;0;229.22;16;-18.76;-4.65;259.6;11.00;70147;4854.678;-13036.411;270;-500;-493.1;70;69.7;-18;-17.1;28.8;0.0;
22/07/2019 03:14:00;100;0;230.60;16;-18.66;-4.68;262.2;10.90;70147;4854.678;-13036.411;270;-500;-495.0;70;69.7;-18;-17.1;28.8;0.0;
22/07/2019 03:14:20;100;0;227.93;16;-18.76;-4.63;264.9;10.90;70146;4854.678;-13036.411;270;-500;-495.0;70;69.7;-20;-19.9;28.8;0.0;
22/07/2019 03:14:40;100;0;227.87;16;-18.90;-6.01;267.5;10.90;70138;4854.678;-13036.411;270;-500;-495.0;70;69.7;-20;-20.3;28.8;0.0;
22/07/2019 03:15:00;100;0;226.59;16;-18.89;-6.03;270.1;10.80;70137;4854.678;-13036.411;270;-500;-493.1;70;69.7;-20;-20.3;28.8;0.0;
22/07/2019 03:15:20;100;0;226.46;16;-18.86;-6.03;272.8;10.80;70123;4854.678;-13036.411;270;-500;-495.0;70;69.7;-20;-20.3;28.9;0.0;
22/07/2019 03:15:40;100;0;226.16;16;-18.84;-6.05;275.4;10.80;70122;4854.678;-13036.411;270;-500;-493.1;70;69.7;-20;-20.3;28.9;0.0;
22/07/2019 03:16:00;100;0;226.74;16;-18.74;-6.06;278.0;10.70;70113;4854.678;-13036.411;270;-500;-495.0;70;69.7;-20;-20.3;28.8;0.0;
22/07/2019 03:16:20;100;0;227.80;16;-18.74;-6.08;280.6;10.70;70110;4854.678;-13036.411;270;-500;-495.0;70;69.7;-19;-18.5;28.8;0.0;
22/07/2019 03:16:40;100;0;228.88;16;-18.56;-4.91;283.2;10.70;70114;4854.678;-13036.411;270;-500;-495.0;70;69.7;-19;-17.6;28.8;0.0;
22/07/2019 03:17:00;100;0;229.95;16;-18.54;-4.89;285.8;10.60;70101;4854.678;-13036.411;270;-500;-495.0;70;69.7;-19;-17.6;28.8;0.0;
22/07/2019 03:17:20;100;0;227.05;16;-18.58;-4.78;288.3;10.60;70101;4854.678;-13036.411;270;-500;-495.0;70;69.7;-20;-20.3;28.8;0.0;
22/07/2019 03:17:40;100;0;225.28;16;-18.56;-6.23;290.8;10.60;70086;4854.678;-13036.411;270;-500;-495.0;70;69.7;-21;-21.2;28.8;0.0;
22/07/2019 03:18:00;100;0;224.48;16;-18.69;-6.77;293.3;10.50;70082;4854.678;-13036.411;270;-500;-495.0;70;69.9;-21;-21.7;28.8;0.0;
22/07/2019 03:18:20;100;0;224.88;16;-18.66;-6.72;295.8;10.50;70079;4854.678;-13036.411;270;-500;-495.0;70;69.9;-21;-21.7;28.8;0.0;
22/07/2019 03:18:40;100;0;222.51;16;-18.61;-6.74;298.3;10.50;70072;4854.678;-13036.411;270;-500;-495.0;70;69.7;-22;-22.1;28.8;0.0;
22/07/2019 03:19:00;100;0;221.13;16;-18.56;-7.06;300.8;10.50;70079;4854.678;-13036.411;270;-500;-495.0;70;69.7;-22;-22.6;28.8;0.0;
22/07/2019 03:19:20;100;0;220.09;16;-18.55;-7.26;303.3;10.40;70067;4854.678;-13036.411;270;-500;-495.0;70;69.7;-22;-22.6;28.9;0.0;
22/07/2019 03:19:40;100;0;220.47;16;-18.53;-7.27;305.8;10.40;70070;4854.678;-13036.411;270;-500;-495.0;70;69.7;-22;-22.6;28.8;0.0;
22/07/2019 03:20:00;100;0;221.72;16;-18.53;-7.29;308.2;10.40;70066;4854.678;-13036.411;270;-500;-495.0;70;69.7;-21;-21.2;28.8;0.0;
22/07/2019 03:20:20;100;0;220.52;16;-18.51;-6.12;310.6;10.30;70056;4854.678;-13036.411;270;-500;-493.1;70;69.7;-21;-20.3;28.8;0.0;
22/07/2019 03:20:40;100;0;219.20;16;-18.47;-6.07;313.1;10.30;70052;4854.678;-13036.411;270;-500;-493.1;70;69.7;-22;-22.1;28.8;0.0;
22/07/2019 03:21:00;100;0;218.34;16;-18.48;-7.17;315.5;10.30;70046;4854.678;-13036.411;270;-500;-495.0;70;69.7;-22;-22.6;28.8;0.0;
22/07/2019 03:21:20;100;0;219.98;16;-18.45;-7.23;318.0;10.20;70042;4854.678;-13036.411;270;-500;-495.0;70;69.7;-21;-21.2;28.8;0.0;
22/07/2019 03:21:40;100;0;221.49;16;-18.37;-6.42;320.4;10.20;70041;4854.678;-13036.411;270;-500;-495.0;70;69.9;-20;-19.4;28.8;0.0;
22/07/2019 03:22:00;100;0;223.15;16;-18.28;-5.52;322.9;10.20;70034;4854.678;-13036.411;270;-500;-495.0;70;69.7;-19;-19.0;28.9;0.0;
22/07/2019 03:22:20;100;0;223.22;16;-18.27;-5.50;325.3;10.20;70028;4854.678;-13036.411;270;-500;-493.1;70;69.7;-20;-19.9;28.8;0.0;
22/07/2019 03:22:40;100;0;223.53;16;-18.25;-6.00;327.8;10.10;70030;4854.678;-13036.411;270;-500;-495.0;70;69.7;-20;-19.9;28.8;0.0;
22/07/2019 03:23:00;100;0;225.41;16;-18.24;-6.01;330.2;10.10;70034;4854.678;-13036.411;270;-500;-493.1;70;69.7;-19;-19.0;28.8;0.0;
22/07/2019 03:23:20;100;0;225.80;16;-18.29;-5.17;332.6;10.10;70024;4854.678;-13036.411;270;-500;-495.0;70;69.7;-20;-20.3;28.8;0.0;
22/07/2019 03:23:40;100;0;224.35;16;-18.15;-6.21;335.1;10.00;70021;4854.678;-13036.411;270;-500;-495.0;70;69.7;-20;-20.3;28.8;0.0;
22/07/2019 03:24:00;100;0;225.28;16;-18.23;-6.23;337.5;10.00;70011;4854.678;-13036.411;270;-500;-495.0;70;69.9;-20;-20.8;28.8;0.0;
22/07/2019 03:24:20;100;0;227.55;16;-18.22;-6.27;339.9;10.00;70016;4854.678;-13036.411;270;-500;-495.0;70;69.7;-19;-19.0;28.8;0.0;
22/07/2019 03:24:40;100;0;227.63;16;-18.12;-5.07;342.2;10.00;70009;4854.678;-13036.411;270;-500;-495.0;70;69.7;-19;-18.1;28.8;0.0;
22/07/2019 03:25:00;100;0;226.65;16;-18.16;-5.09;344.5;10.00;69999;4854.678;-13036.411;270;-500;-495.0;70;69.7;-20;-19.9;28.8;0.0;
22/07/2019 03:25:20;100;0;225.64;16;-18.16;-6.20;346.9;9.90;70007;4854.678;-13036.411;270;-500;-495.0;70;69.7;-21;-21.7;28.8;0.0;
22/07/2019 03:25:40;100;0;226.25;16;-18.24;-7.05;349.2;9.90;70000;4854.678;-13036.411;270;-500;-493.1;70;69.7;-20;-19.9;28.8;0.0;
22/07/2019 03:26:00;100;0;226.58;16;-18.14;-5.52;351.6;9.90;70003;4854.678;-13036.411;270;-500;-495.0;70;69.7;-20;-19.0;28.8;0.0;
22/07/2019 03:26:20;100;0;227.21;16;-18.03;-5.58;353.8;9.90;69995;4854.678;-13036.411;270;-500;-493.1;70;69.7;-19;-19.0;28.8;0.0;
22/07/2019 03:26:40;100;0;228.11;16;-18.05;-5.50;356.1;9.80;69989;4854.678;-13036.411;270;-500;-493.1;70;69.7;-19;-19.0;28.8;0.0;
22/07/2019 03:27:00;100;0;229.20;16;-18.19;-5.44;358.4;9.80;69988;4854.678;-13036.411;270;-500;-493.1;70;69.7;-19;-19.0;28.8;0.0;
22/07/2019 03:27:20;100;0;228.96;16;-18.12;-5.51;360.8;9.80;69984;4854.678;-13036.411;270;-500;-495.0;70;69.7;-20;-19.9;28.8;0.0;
22/07/2019 03:27:40;100;0;230.23;16;-18.21;-6.30;363.0;9.80;69982;4854.678;-13036.411;270;-500;-493.1;70;69.7;-18;-17.6;28.8;0.0;
22/07/2019 03:28:00;100;0;228.16;16;-18.00;-4.68;365.3;9.70;69972;4854.678;-13036.411;270;-500;-493.1;70;69.9;-20;-20.3;28.8;0.0;
22/07/2019 03:28:20;100;0;227.96;16;-18.00;-6.32;367.6;9.70;69973;4854.678;-13036.411;270;-500;-495.0;70;69.7;-20;-20.8;28.8;0.0;
22/07/2019 03:28:40;100;0;227.41;16;-17.93;-6.31;369.9;9.70;69977;4854.678;-13036.411;270;-500;-495.0;70;69.7;-20;-20.8;28.8;0.0;
22/07/2019 03:29:00;100;0;227.05;16;-18.02;-6.29;372.1;9.70;69971;4854.678;-13036.411;270;-500;-493.1;70;69.7;-20;-20.8;28.8;0.0;
22/07/2019 03:29:20;100;0;228.14;16;-18.02;-6.29;374.3;9.60;69959;4854.678;-13036.411;270;-500;-493.1;70;69.9;-19;-19.0;28.8;0.0;
22/07/2019 03:29:40;100;0;227.21;16;-17.86;-5.20;376.5;9.60;69967;4854.678;-13036.411;270;-500;-495.0;70;69.7;-20;-19.9;28.9;0.0;
22/07/2019 03:30:00;100;0;227.04;16;-17.84;-6.28;378.7;9.60;69951;4854.678;-13036.411;270;-500;-493.1;70;69.7;-20;-20.3;28.8;0.0;
22/07/2019 03:30:20;100;0;228.61;16;-17.90;-6.27;380.9;9.60;69953;4854.678;-13036.411;270;-500;-495.0;70;69.9;-19;-19.0;28.8;0.0;
22/07/2019 03:30:40;100;0;227.69;16;-17.87;-5.12;383.1;9.50;69946;4854.678;-13036.411;270;-500;-495.0;70;69.7;-20;-19.9;28.8;0.0;
22/07/2019 03:31:00;100;0;226.86;16;-17.95;-6.14;385.2;9.50;69950;4854.678;-13036.411;270;-500;-493.1;70;69.7;-20;-20.3;28.8;0.0;
22/07/2019 03:31:20;100;0;224.59;16;-17.92;-6.15;387.4;9.50;69943;4854.678;-13036.411;270;-500;-495.0;70;69.7;-21;-21.7;28.8;0.0;
22/07/2019 03:31:40;100;0;225.90;16;-17.85;-7.02;389.5;9.50;69939;4854.678;-13036.411;270;-500;-495.0;70;69.7;-20;-19.9;28.9;0.0;
22/07/2019 03:32:00;100;0;225.14;16;-17.71;-5.50;391.6;9.50;69945;4854.678;-13036.411;270;-500;-495.0;70;69.9;-20;-19.0;28.8;0.0;
22/07/2019 03:32:20;100;0;223.50;16;-17.79;-5.48;393.8;9.40;69932;4854.678;-13036.411;270;-500;-493.1;70;69.7;-21;-21.2;28.8;0.0;
22/07/2019 03:32:40;100;0;222.32;16;-17.90;-6.87;395.9;9.40;69927;4854.678;-13036.411;270;-500;-493.1;70;69.7;-21;-21.7;28.8;0.0;
22/07/2019 03:33:00;100;0;220.37;16;-17.94;-6.86;398.0;9.40;69923;4854.678;-13036.411;270;-500;-493.1;70;69.7;-22;-22.6;28.8;0.0;
22/07/2019 03:33:20;100;0;223.41;16;-17.87;-7.46;400.1;9.40;69923;4854.678;-13036.411;270;-500;-495.0;70;69.7;-20;-19.9;28.8;0.0;
22/07/2019 03:33:40;100;0;224.29;16;-17.71;-5.71;402.3;9.40;69924;4854.678;-13036.411;270;-500;-495.0;70;69.7;-20;-19.4;28.9;0.0;
22/07/2019 03:34:00;100;0;224.23;16;-17.68;-5.67;404.5;9.30;69918;4854.678;-13036.411;270;-500;-493.1;70;69.7;-20;-19.4;28.8;0.0;
22/07/2019 03:34:20;100;0;224.16;16;-17.66;-5.70;406.5;9.30;69915;4854.678;-13036.411;270;-500;-495.0;70;69.7;-20;-19.4;28.8;0.0;
22/07/2019 03:34:40;100;0;224.53;16;-17.67;-5.70;408.7;9.30;69913;4854.678;-13036.411;270;-500;-493.1;70;69.7;-20;-19.4;28.8;0.0;
22/07/2019 03:35:01;100;0;225.99;16;-17.70;-5.73;410.7;9.30;69903;4854.678;-13036.411;270;-500;-493.1;70;69.7;-20;-19.4;28.8;0.0;
22/07/2019 03:35:21;100;0;224.46;16;-17.67;-5.66;412.8;9.30;69905;4854.678;-13036.411;270;-500;-495.0;70;69.7;-20;-19.4;28.8;0.0;
22/07/2019 03:35:41;100;0;222.36;16;-17.72;-5.64;414.9;9.20;69908;4854.678;-13036.411;270;-500;-495.0;70;69.7;-22;-22.1;28.9;0.0;
22/07/2019 03:36:01;100;0;222.73;16;-17.76;-7.31;416.9;9.20;69904;4854.678;-13036.411;270;-500;-493.1;70;69.7;-21;-21.2;28.8;0.0;
22/07/2019 03:36:21;100;0;222.70;16;-17.74;-6.12;418.9;9.20;69899;4854.678;-13036.411;270;-500;-493.1;70;69.7;-21;-20.3;28.8;0.0;
22/07/2019 03:36:41;100;0;221.97;16;-17.74;-6.16;421.1;9.20;69899;4854.678;-13036.411;270;-500;-493.1;70;69.7;-21;-20.3;28.8;0.0;
22/07/2019 03:37:01;100;0;220.51;16;-17.61;-6.16;423.2;9.20;69892;4854.678;-13036.411;270;-500;-495.0;70;69.7;-22;-22.1;28.8;0.0;
22/07/2019 03:37:21;100;0;221.40;16;-17.78;-7.37;425.2;9.20;69896;4854.678;-13036.411;270;-500;-493.1;70;69.7;-21;-21.2;28.8;0.0;
22/07/2019 03:37:41;100;0;222.66;16;-17.72;-6.45;427.3;9.10;69888;4854.678;-13036.411;270;-500;-493.1;70;69.7;-20;-19.4;28.8;0.0;
22/07/2019 03:38:01;100;0;221.57;16;-17.60;-5.54;429.4;9.10;69892;4854.678;-13036.411;270;-500;-493.1;70;69.7;-21;-21.2;28.8;0.0;
22/07/2019 03:38:21;100;0;221.33;16;-17.65;-6.86;431.5;9.10;69880;4854.678;-13036.411;270;-500;-495.0;70;69.7;-21;-21.7;28.9;0.0;
22/07/2019 03:38:41;100;0;222.01;16;-17.58;-6.87;433.6;9.10;69875;4854.678;-13036.411;270;-500;-493.1;70;69.7;-20;-19.4;28.8;0.0;
22/07/2019 03:39:01;100;0;222.45;16;-17.48;-5.39;435.6;9.10;69871;4854.678;-13036.411;270;-500;-493.1;70;69.7;-21;-21.2;28.8;0.0;
22/07/2019 03:39:21;100;0;222.03;16;-17.55;-6.81;437.7;9.00;69867;4854.678;-13036.411;270;-500;-493.1;70;69.7;-21;-21.7;28.8;0.0;
22/07/2019 03:39:41;100;0;221.95;16;-17.58;-6.80;439.7;9.00;69871;4854.678;-13036.411;270;-500;-493.1;70;69.7;-21;-21.7;28.8;0.0;
22/07/2019 03:40:01;100;0;222.77;16;-17.55;-6.84;441.6;9.00;69866;4854.678;-13036.411;270;-500;-493.1;70;69.7;-20;-19.9;28.8;0.0;
22/07/2019 03:40:21;100;0;223.94;16;-17.58;-5.65;443.7;9.00;69863;4854.678;-13036.411;270;-500;-493.1;70;69.7;-20;-19.0;28.9;0.0;
22/07/2019 03:40:41;100;0;224.37;16;-17.44;-5.63;445.7;9.00;69860;4854.678;-13036.411;270;-500;-493.1;70;69.9;-20;-19.0;28.8;0.0;
22/07/2019 03:41:01;100;0;224.63;16;-17.41;-5.63;447.6;8.90;69847;4854.678;-13036.411;270;-500;-495.0;70;69.7;-20;-19.4;28.8;0.0;
22/07/2019 03:41:21;100;0;224.07;16;-17.44;-5.60;449.5;8.90;69847;4854.678;-13036.411;270;-500;-493.1;70;69.7;-20;-19.0;28.8;0.0;
22/07/2019 03:41:41;100;0;224.03;16;-17.53;-5.64;451.5;8.90;69842;4854.678;-13036.411;270;-500;-493.1;70;69.7;-20;-19.0;28.8;0.0;
22/07/2019 03:42:01;100;0;222.00;16;-17.54;-5.62;453.4;8.90;69835;4854.678;-13036.411;270;-500;-495.0;70;69.9;-21;-21.7;28.8;0.0;
22/07/2019 03:42:21;100;0;222.91;16;-17.45;-6.98;455.2;8.90;69837;4854.678;-13036.411;270;-500;-493.1;70;69.7;-21;-22.1;28.9;0.0;
22/07/2019 03:42:41;100;0;222.48;16;-17.44;-6.96;457.2;8.80;69833;4854.678;-13036.411;270;-500;-493.1;70;69.7;-21;-22.1;28.8;0.0;
22/07/2019 03:43:01;100;0;220.15;16;-17.40;-6.93;459.0;8.80;69827;4854.678;-13036.411;270;-500;-493.1;70;69.7;-22;-22.1;28.8;0.0;
22/07/2019 03:43:21;100;0;221.17;16;-17.34;-7.05;461.0;8.80;69828;4854.678;-13036.411;270;-500;-493.1;70;69.7;-21;-20.8;28.8;0.0;
22/07/2019 03:43:41;100;0;223.73;16;-17.19;-6.16;462.8;8.80;69816;4854.678;-13036.411;270;-500;-493.1;70;69.7;-20;-19.9;28.8;0.0;
22/07/2019 03:44:01;100;0;225.01;16;-17.27;-5.53;464.9;8.70;69804;4854.678;-13036.411;270;-500;-493.1;70;69.7;-19;-19.0;28.8;0.0;
22/07/2019 03:44:21;100;0;225.67;16;-17.28;-5.55;466.7;8.70;69810;4854.678;-13036.411;270;-500;-493.1;70;69.9;-20;-20.3;28.9;0.0;
22/07/2019 03:44:41;100;0;226.64;16;-17.25;-6.41;468.7;8.70;69813;4854.678;-13036.411;270;-500;-493.1;70;69.7;-19;-19.0;28.8;0.0;
22/07/2019 03:45:01;100;0;227.08;16;-17.11;-5.15;470.5;8.70;69809;4854.678;-13036.411;270;-500;-493.1;70;69.7;-19;-18.1;28.8;0.0;
22/07/2019 03:45:21;100;0;226.27;16;-17.16;-5.19;472.6;8.70;69804;4854.678;-13036.411;270;-500;-493.1;70;69.7;-20;-20.3;28.8;0.0;
22/07/2019 03:45:41;100;0;228.09;16;-17.12;-6.20;474.5;8.70;69796;4854.678;-13036.411;270;-500;-493.1;70;69.7;-19;-19.0;28.8;0.0;
22/07/2019 03:46:01;100;0;227.92;16;-17.15;-5.15;476.4;8.60;69796;4854.678;-13036.411;270;-500;-493.1;70;69.9;-20;-19.9;28.8;0.0;
22/07/2019 03:46:21;100;0;227.28;16;-16.93;-6.16;478.4;8.60;69801;4854.678;-13036.411;270;-500;-493.1;70;69.7;-20;-20.3;28.8;0.0;
22/07/2019 03:46:41;100;0;227.44;16;-17.24;-6.38;480.3;8.60;69797;4854.678;-13036.411;270;-500;-493.1;70;69.7;-20;-20.3;28.8;0.0;
22/07/2019 03:47:01;100;0;228.22;16;-17.32;-6.08;482.2;8.60;69784;4854.678;-13036.411;270;-500;-495.0;70;69.7;-19;-19.0;28.8;0.0;
22/07/2019 03:47:21;100;0;228.27;16;-17.24;-5.48;484.1;8.60;69796;4854.678;-13036.411;270;-500;-493.1;70;69.7;-19;-18.5;28.8;0.0;
22/07/2019 03:47:41;100;0;226.89;16;-17.36;-5.36;486.1;8.60;69791;4854.678;-13036.411;270;-500;-493.1;70;69.7;-21;-21.2;28.8;0.0;
22/07/2019 03:48:01;100;0;226.90;16;-17.27;-6.93;488.0;8.50;69787;4854.678;-13036.411;270;-500;-493.1;70;69.7;-20;-19.9;28.8;0.0;
22/07/2019 03:48:21;100;0;228.09;16;-17.13;-5.68;490.0;8.50;69781;4854.678;-13036.411;270;-500;-493.1;70;69.7;-19;-19.0;28.8;0.0;
22/07/2019 03:48:41;100;0;228.10;16;-17.13;-5.23;492.0;8.50;69791;4854.678;-13036.411;270;-500;-493.1;70;69.7;-19;-18.1;28.8;0.0;
22/07/2019 03:49:01;100;0;227.62;16;-17.19;-5.22;493.9;8.50;69787;4854.678;-13036.411;270;-500;-493.1;70;69.7;-20;-19.9;28.8;0.0;
22/07/2019 03:49:21;100;0;227.49;16;-17.21;-6.22;496.0;8.50;69782;4854.678;-13036.411;270;-500;-493.1;70;69.7;-20;-20.3;28.8;0.0;
22/07/2019 03:49:41;100;0;228.91;16;-17.21;-6.29;498.0;8.50;69784;4854.678;-13036.411;270;-500;-493.1;70;69.9;-19;-18.5;28.8;0.0;
22/07/2019 03:50:01;100;0;227.89;16;-17.14;-5.11;499.9;8.50;69781;4854.678;-13036.411;270;-500;-491.1;70;69.7;-20;-19.9;28.8;0.0;
22/07/2019 03:50:21;100;0;226.70;16;-17.14;-6.15;502.0;8.40;69770;4854.678;-13036.411;270;-500;-493.1;70;69.9;-20;-20.3;28.8;0.0;
22/07/2019 03:50:41;100;0;226.37;16;-17.03;-6.20;504.1;8.40;69763;4854.678;-13036.411;270;-500;-491.1;70;69.7;-20;-20.3;28.8;0.0;
22/07/2019 03:51:01;100;0;224.09;16;-17.04;-6.20;506.2;8.40;69761;4854.678;-13036.411;270;-500;-493.1;70;69.7;-21;-21.7;28.8;0.0;
22/07/2019 03:51:21;100;0;223.12;16;-17.10;-6.97;508.1;8.40;69760;4854.678;-13036.411;270;-500;-493.1;70;69.7;-21;-22.1;28.8;0.0;
22/07/2019 03:51:41;100;0;221.94;16;-17.06;-7.01;510.1;8.40;69755;4854.678;-13036.411;270;-500;-493.1;70;69.7;-22;-22.1;28.8;0.0;
22/07/2019 03:52:01;100;0;220.29;16;-17.11;-6.95;512.2;8.40;69761;4854.678;-13036.411;270;-500;-493.1;70;69.7;-22;-21.7;28.8;0.0;
22/07/2019 03:52:21;100;0;221.35;16;-17.09;-7.03;514.3;8.30;69751;4854.678;-13036.411;270;-500;-493.1;70;69.7;-21;-20.8;28.8;0.0;
22/07/2019 03:52:41;100;0;220.64;16;-16.99;-6.13;516.4;8.30;69743;4854.678;-13036.411;270;-500;-493.1;70;69.7;-22;-22.1;28.9;0.0;
22/07/2019 03:53:01;100;0;221.02;16;-16.97;-7.22;518.5;8.30;69739;4854.678;-13036.411;270;-500;-493.1;70;69.7;-21;-21.2;28.8;0.0;
22/07/2019 03:53:21;100;0;220.44;16;-16.90;-6.33;520.7;8.30;69738;4854.678;-13036.411;270;-500;-493.1;70;69.7;-21;-20.8;28.8;0.0;
22/07/2019 03:53:41;100;0;220.36;16;-16.85;-6.34;522.9;8.30;69746;4854.678;-13036.411;270;-500;-493.1;70;69.7;-21;-20.3;28.8;0.0;
22/07/2019 03:54:01;100;0;218.94;16;-16.96;-6.32;525.0;8.30;69744;4854.678;-13036.411;270;-500;-493.1;70;69.7;-22;-22.6;28.8;0.0;
22/07/2019 03:54:21;100;0;219.50;16;-16.92;-7.45;527.2;8.30;69739;4854.678;-13036.411;270;-500;-493.1;70;69.7;-21;-20.8;28.8;0.0;
22/07/2019 03:54:41;100;0;220.75;16;-16.84;-6.26;529.3;8.20;69742;4854.678;-13036.411;270;-500;-493.1;70;69.7;-21;-20.3;28.8;0.0;
22/07/2019 03:55:01;100;0;221.69;16;-16.88;-6.29;531.5;8.20;69739;4854.678;-13036.411;270;-500;-495.0;70;69.7;-20;-19.9;28.8;0.0;
22/07/2019 03:55:21;100;0;220.95;16;-16.88;-5.68;533.5;8.20;69726;4854.678;-13036.411;270;-500;-491.1;70;69.7;-21;-21.2;28.8;0.0;
22/07/2019 03:55:41;100;0;220.92;16;-17.03;-6.79;535.7;8.20;69720;4854.678;-13036.411;270;-500;-493.1;70;69.7;-21;-21.2;28.8;0.0;
22/07/2019 03:56:01;100;0;222.38;16;-16.89;-6.77;537.9;8.20;69726;4854.678;-13036.411;270;-500;-489.1;70;69.7;-20;-19.4;28.8;0.0;
22/07/2019 03:56:21;100;0;221.23;16;-16.71;-5.51;540.1;8.10;69720;4854.678;-13036.411;270;-500;-493.1;70;69.7;-21;-21.2;28.9;0.0;
22/07/2019 03:56:41;100;0;222.22;16;-16.88;-6.99;542.1;8.10;69720;4854.678;-13036.411;270;-500;-491.1;70;69.7;-20;-19.4;28.8;0.0;
22/07/2019 03:57:01;100;0;221.46;16;-16.71;-5.38;544.3;8.10;69710;4854.678;-13036.411;270;-500;-493.1;70;69.7;-21;-21.7;28.8;0.0;
22/07/2019 03:57:21;100;0;221.96;16;-16.86;-7.02;546.4;8.10;69717;4854.678;-13036.411;270;-500;-493.1;70;69.7;-21;-21.7;28.9;0.0;
22/07/2019 03:57:41;100;0;220.68;16;-16.92;-6.98;548.5;8.10;69701;4854.678;-13036.411;270;-500;-493.1;70;69.7;-22;-22.1;28.9;0.0;
22/07/2019 03:58:01;100;0;221.43;16;-17.02;-7.16;550.7;8.10;69710;4854.678;-13036.411;270;-500;-489.1;70;69.7;-21;-21.2;28.8;0.0;
22/07/2019 03:58:21;100;0;219.67;16;-16.83;-6.38;552.8;8.10;69719;4854.678;-13036.411;270;-500;-493.1;70;69.7;-22;-22.1;28.8;0.0;
22/07/2019 03:58:41;100;0;221.87;16;-16.87;-7.48;555.0;8.00;69713;4854.678;-13036.411;270;-500;-493.1;70;69.7;-20;-19.9;28.8;0.0;
22/07/2019 03:59:01;100;0;221.27;16;-16.68;-5.68;557.1;8.00;69715;4854.678;-13036.411;270;-500;-493.1;70;69.7;-21;-21.7;28.8;0.0;
22/07/2019 03:59:21;100;0;221.33;16;-16.79;-7.06;559.2;8.00;69703;4854.678;-13036.411;270;-500;-491.1;70;69.7;-21;-22.1;28.8;0.0;
22/07/2019 03:59:41;100;0;222.47;16;-16.64;-7.06;561.4;8.00;69693;4854.678;-13036.411;270;-500;-491.1;70;69.9;-20;-19.9;28.8;0.0;
22/07/2019 04:00:01;100;0;221.39;16;-16.60;-5.59;563.5;8.00;69704;4854.678;-13036.411;270;-500;-491.1;70;69.7;-21;-21.2;28.8;0.0;
22/07/2019 04:00:21;100;0;222.41;16;-16.69;-6.96;565.7;8.00;69704;4854.678;-13036.411;270;-500;-491.1;70;69.7;-20;-19.4;28.8;0.0;
22/07/2019 04:00:41;100;0;223.23;16;-16.53;-5.50;567.9;8.00;69696;4854.678;-13036.411;270;-500;-493.1;70;69.7;-20;-18.5;28.8;0.0;
22/07/2019 04:01:01;100;0;223.75;16;-16.53;-5.51;570.0;7.90;69693;4854.678;-13036.411;270;-500;-493.1;70;69.7;-20;-18.5;28.8;0.0;
22/07/2019 04:01:21;100;0;223.88;16;-16.48;-5.47;572.1;7.90;69691;4854.678;-13036.411;270;-500;-491.1;70;69.9;-20;-18.5;28.8;0.0;
22/07/2019 04:01:41;100;0;224.98;16;-16.53;-5.52;574.3;7.90;69684;4854.678;-13036.411;270;-500;-491.1;70;69.7;-20;-18.5;28.8;0.0;
22/07/2019 04:02:01;100;0;224.73;16;-16.55;-5.48;576.5;7.90;69685;4854.678;-13036.411;270;-500;-493.1;70;69.7;-20;-18.5;28.8;0.0;
22/07/2019 04:02:21;100;0;223.36;16;-16.51;-5.49;578.6;7.90;69684;4854.678;-13036.411;270;-500;-493.1;70;69.7;-21;-21.2;28.8;0.0;
22/07/2019 04:02:41;100;0;224.24;16;-16.55;-6.88;580.7;7.90;69681;4854.678;-13036.411;270;-500;-491.1;70;69.7;-20;-19.9;28.8;0.0;
22/07/2019 04:03:01;100;0;222.87;16;-16.51;-5.67;583.0;7.90;69684;4854.678;-13036.411;270;-500;-491.1;70;69.7;-21;-21.2;28.8;0.0;
22/07/2019 04:03:21;100;0;222.37;16;-16.59;-7.07;585.2;7.80;69670;4854.678;-13036.411;270;-500;-491.1;70;69.7;-21;-22.1;28.8;0.0;
22/07/2019 04:03:41;100;0;222.82;16;-16.62;-7.04;587.4;7.80;69667;4854.678;-13036.411;270;-500;-493.1;70;69.7;-21;-22.1;28.8;0.0;
22/07/2019 04:04:01;100;0;222.37;16;-16.53;-7.05;589.7;7.80;69668;4854.678;-13036.411;270;-500;-491.1;70;69.7;-21;-22.1;28.8;0.0;
22/07/2019 04:04:21;100;0;222.97;16;-16.60;-7.07;591.8;7.80;69668;4854.678;-13036.411;270;-500;-491.1;70;69.7;-21;-22.1;28.8;0.0;
22/07/2019 04:04:41;100;0;224.16;16;-16.47;-7.11;594.1;7.80;69667;4854.678;-13036.411;270;-500;-491.1;70;69.7;-20;-19.9;28.8;0.0;
22/07/2019 04:05:01;100;0;225.72;16;-16.51;-5.84;596.3;7.80;69674;4854.678;-13036.411;270;-500;-491.1;70;69.7;-19;-19.0;28.8;0.0;
22/07/2019 04:05:21;100;0;225.35;16;-16.47;-5.81;598.4;7.80;69674;4854.678;-13036.411;270;-500;-491.1;70;69.7;-20;-20.3;28.9;0.0;
22/07/2019 04:05:41;100;0;224.74;16;-16.37;-6.39;600.6;7.80;69672;4854.678;-13036.411;270;-500;-491.1;70;69.7;-20;-20.3;28.8;0.0;
22/07/2019 04:06:01;100;0;223.69;16;-16.35;-6.40;602.7;7.70;69666;4854.678;-13036.411;270;-500;-491.1;70;69.7;-21;-21.2;28.8;0.0;
22/07/2019 04:06:21;100;0;223.36;16;-16.38;-6.93;604.9;7.70;69658;4854.678;-13036.411;270;-500;-491.1;70;69.7;-21;-21.7;28.9;0.0;
22/07/2019 04:06:41;100;0;223.53;16;-16.38;-6.94;607.1;7.70;69662;4854.678;-13036.411;270;-500;-491.1;70;69.7;-21;-21.7;28.8;0.0;
22/07/2019 04:07:01;100;0;225.33;16;-16.43;-7.02;609.1;7.70;69654;4854.678;-13036.411;270;-500;-491.1;70;69.7;-19;-19.0;28.8;0.0;
22/07/2019 04:07:21;100;0;226.26;16;-16.27;-5.25;611.2;7.70;69666;4854.678;-13036.411;270;-500;-493.1;70;69.7;-19;-18.1;28.8;0.0;
22/07/2019 04:07:41;100;0;226.20;16;-16.12;-5.26;613.4;7.70;69662;4854.678;-13036.411;270;-500;-493.1;70;69.7;-20;-19.9;28.8;0.0;
22/07/2019 04:08:01;100;0;227.08;16;-16.17;-6.27;615.5;7.70;69649;4854.678;-13036.411;270;-500;-491.1;70;69.7;-19;-18.5;28.8;0.0;
22/07/2019 04:08:21;100;0;228.66;16;-16.15;-5.21;617.6;7.70;69654;4854.678;-13036.411;270;-500;-491.1;70;69.7;-19;-18.1;28.9;0.0;
22/07/2019 04:08:41;100;0;227.36;16;-16.24;-5.19;619.6;7.60;69652;4854.678;-13036.411;270;-500;-491.1;70;69.7;-20;-19.9;28.8;0.0;
22/07/2019 04:09:01;100;0;227.41;16;-16.20;-6.21;621.8;7.60;69648;4854.678;-13036.411;270;-500;-491.1;70;69.7;-20;-19.9;28.8;0.0;
22/07/2019 04:09:21;100;0;227.36;16;-16.16;-6.22;623.8;7.60;69646;4854.678;-13036.411;270;-500;-491.1;70;69.7;-20;-19.9;28.8;0.0;
22/07/2019 04:09:42;100;0;227.87;16;-16.16;-6.21;625.8;7.60;69653;4854.678;-13036.411;270;-500;-491.1;70;69.7;-20;-20.3;28.8;0.0;
22/07/2019 04:10:02;100;0;227.17;16;-16.21;-6.24;628.0;7.60;69650;4854.678;-13036.411;270;-500;-491.1;70;69.7;-20;-20.3;28.8;0.0;
22/07/2019 04:10:22;100;0;225.61;16;-16.03;-6.18;630.1;7.60;69641;4854.678;-13036.411;270;-500;-491.1;70;69.7;-21;-21.2;28.8;0.0;
22/07/2019 04:10:42;100;0;227.81;16;-16.19;-7.12;632.1;7.60;69641;4854.678;-13036.411;270;-500;-489.1;70;69.7;-19;-19.0;28.8;0.0;
22/07/2019 04:11:02;100;0;226.55;16;-16.01;-5.33;634.1;7.50;69650;4854.678;-13036.411;270;-500;-491.1;70;69.7;-20;-19.9;28.9;0.0;
22/07/2019 04:11:22;100;0;226.85;16;-16.09;-6.40;636.2;7.50;69653;4854.678;-13036.411;270;-500;-491.1;70;69.7;-20;-20.3;28.8;0.0;
22/07/2019 04:11:42;100;0;227.15;16;-16.08;-6.37;638.2;7.50;69650;4854.678;-13036.411;270;-500;-491.1;70;69.7;-19;-18.5;28.8;0.0;
22/07/2019 04:12:02;100;0;225.91;16;-15.99;-5.21;640.2;7.50;69631;4854.678;-13036.411;270;-500;-491.1;70;69.7;-21;-21.2;28.8;0.0;
22/07/2019 04:12:22;100;0;226.00;16;-15.92;-6.76;642.3;7.50;69639;4854.678;-13036.411;270;-500;-491.1;70;69.7;-20;-19.9;28.8;0.0;
22/07/2019 04:12:42;100;0;225.89;16;-15.87;-5.68;644.4;7.50;69644;4854.678;-13036.411;270;-500;-491.1;70;69.7;-20;-19.0;28.8;0.0;
22/07/2019 04:13:02;100;0;225.79;16;-15.81;-5.69;646.4;7.50;69639;4854.678;-13036.411;270;-500;-491.1;70;69.7;-20;-19.0;28.8;0.0;
22/07/2019 04:13:22;100;0;225.91;16;-15.80;-5.69;648.4;7.50;69626;4854.678;-13036.411;270;-500;-491.1;70;69.7;-20;-19.0;28.9;0.0;
22/07/2019 04:13:42;100;0;225.63;16;-15.85;-5.78;650.5;7.40;69630;4854.678;-13036.411;270;-500;-491.1;70;69.7;-20;-19.0;28.9;0.0;
22/07/2019 04:14:02;100;0;225.28;16;-15.79;-5.74;652.6;7.40;69631;4854.678;-13036.411;270;-500;-491.1;70;69.7;-20;-19.0;28.8;0.0;
22/07/2019 04:14:22;100;0;225.83;16;-15.81;-5.74;654.6;7.40;69626;4854.678;-13036.411;270;-500;-491.1;70;69.7;-20;-19.0;28.9;0.0;
22/07/2019 04:14:42;100;0;226.71;16;-16.03;-5.71;656.7;7.40;69632;4854.678;-13036.411;270;-500;-491.1;70;69.7;-20;-19.0;28.8;0.0;
22/07/2019 04:15:02;100;0;227.35;16;-15.92;-5.79;658.8;7.40;69626;4854.678;-13036.411;270;-500;-491.1;70;69.7;-19;-19.0;28.9;0.0;
22/07/2019 04:15:22;100;0;227.97;16;-15.90;-5.78;660.8;7.40;69623;4854.678;-13036.411;270;-500;-491.1;70;69.7;-19;-19.0;28.8;0.0;
22/07/2019 04:15:42;100;0;227.95;16;-15.99;-5.77;662.9;7.40;69618;4854.678;-13036.411;270;-500;-491.1;70;69.7;-20;-19.9;28.8;0.0;
22/07/2019 04:16:02;100;0;227.97;16;-15.90;-6.27;664.9;7.40;69619;4854.678;-13036.411;270;-500;-489.1;70;69.7;-20;-19.9;28.9;0.0;
22/07/2019 04:16:22;100;0;228.56;16;-15.84;-6.30;667.1;7.40;69622;4854.678;-13036.411;270;-500;-491.1;70;69.7;-19;-19.0;28.8;0.0;
22/07/2019 04:16:42;100;0;228.21;16;-15.75;-5.38;669.1;7.40;69627;4854.678;-13036.411;270;-500;-491.1;70;69.7;-19;-18.5;28.8;0.0;
22/07/2019 04:17:02;100;0;227.50;16;-15.63;-5.41;671.3;7.30;69616;4854.678;-13036.411;270;-500;-491.1;70;69.7;-20;-20.3;28.8;0.0;
22/07/2019 04:17:22;100;0;227.17;16;-15.59;-6.50;673.5;7.30;69610;4854.678;-13036.411;270;-500;-489.1;70;69.7;-20;-20.8;28.8;0.0;
22/07/2019 04:17:42;100;0;227.11;16;-15.73;-6.47;675.6;7.30;69621;4854.678;-13036.411;270;-500;-489.1;70;69.7;-20;-20.8;28.8;0.0;
22/07/2019 04:18:02;100;0;228.08;16;-15.62;-6.48;677.8;7.30;69603;4854.678;-13036.411;270;-500;-491.1;70;69.7;-19;-19.0;28.8;0.0;
22/07/2019 04:18:22;100;0;228.70;16;-15.64;-5.34;679.9;7.30;69606;4854.678;-13036.411;270;-500;-491.1;70;69.7;-19;-18.1;28.8;0.0;
22/07/2019 04:18:42;100;0;227.42;16;-15.79;-5.27;682.0;7.30;69617;4854.678;-13036.411;270;-500;-491.1;70;69.7;-20;-19.9;28.8;0.0;
22/07/2019 04:19:02;100;0;227.35;16;-15.67;-6.36;684.1;7.30;69614;4854.678;-13036.411;270;-500;-491.1;70;69.7;-20;-20.3;28.8;0.0;
22/07/2019 04:19:22;100;0;227.24;16;-15.76;-6.44;686.3;7.30;69602;4854.678;-13036.411;270;-500;-489.1;70;69.7;-20;-20.3;28.8;0.0;
22/07/2019 04:19:42;100;0;226.53;16;-15.74;-6.42;688.5;7.20;69601;4854.678;-13036.411;270;-500;-491.1;70;69.7;-20;-20.3;28.8;0.0;
22/07/2019 04:20:02;100;0;226.12;16;-15.67;-6.43;690.6;7.20;69605;4854.678;-13036.411;270;-500;-491.1;70;69.7;-20;-20.3;28.8;0.0;
22/07/2019 04:20:22;100;0;225.71;16;-15.70;-6.41;692.6;7.20;69609;4854.678;-13036.411;270;-500;-493.1;70;69.7;-21;-21.2;28.8;0.0;
22/07/2019 04:20:42;100;0;226.32;16;-15.75;-6.97;694.8;7.20;69609;4854.678;-13036.411;270;-500;-491.1;70;69.7;-20;-19.9;28.8;0.0;
22/07/2019 04:21:02;100;0;227.58;16;-15.63;-5.85;696.9;7.20;69607;4854.678;-13036.411;270;-500;-489.1;70;69.7;-19;-19.0;28.8;0.0;
22/07/2019 04:21:22;100;0;227.85;16;-15.52;-5.79;699.1;7.20;69606;4854.678;-13036.411;270;-500;-491.1;70;69.7;-19;-19.0;28.8;0.0;
22/07/2019 04:21:42;118;0;227.88;16;-15.44;-5.81;701.3;7.20;69606;4854.678;-13036.411;270;150;-473.3;57;56.8;0;0.9;28.8;0.0;
22/07/2019 04:21:52;118;0;122.90;16;2.25;3.62;702.2;7.20;69510;4854.678;-13036.411;270;150;-314.9;57;57.2;0;0.9;27.5;0.0;
22/07/2019 04:22:02;118;0;119.66;16;16.38;3.49;702.1;7.20;69307;4854.678;-13036.411;270;150;-160.4;57;57.1;0;0.9;27.5;-1.0;
22/07/2019 04:22:12;118;0;118.17;16;19.63;3.46;701.6;7.20;69051;4854.678;-13036.411;270;150;-7.9;57;57.1;0;0.9;27.5;-1.0;
22/07/2019 04:22:22;118;0;119.97;16;19.81;3.51;700.8;7.20;68802;4854.678;-13036.411;270;150;148.5;57;57.2;0;0.9;27.5;-1.0;
22/07/2019 04:22:32;118;0;121.12;16;22.03;3.49;699.6;7.20;68559;4854.678;-13036.411;270;150;152.5;57;57.1;0;1.4;28.0;-1.0;
22/07/2019 04:22:42;118;0;213.47;16;24.49;3.44;697.9;7.20;68564;4854.678;-13036.411;270;150;154.5;57;57.1;0;0.9;28.8;-1.0;
22/07/2019 04:22:52;117;0;212.02;16;25.44;3.33;695.9;7.20;68573;4854.678;-13036.411;270;150;152.5;57;57.1;0;0.9;28.8;-1.0;
22/07/2019 04:23:12;117;0;208.68;16;26.28;3.26;691.3;7.20;68563;4854.678;-13036.411;270;150;154.5;57;57.2;31;31.1;28.8;-1.0;
22/07/2019 04:23:32;117;0;219.99;16;25.38;18.35;685.9;7.20;68560;4854.678;-13036.411;270;150;152.5;57;57.1;21;20.8;28.8;-1.0;
22/07/2019 04:23:52;117;0;222.28;16;25.79;12.44;681.0;7.20;68560;4854.678;-13036.411;270;150;154.5;57;57.1;19;18.5;28.8;-1.0;
22/07/2019 04:24:12;117;0;224.60;16;25.94;11.11;676.2;7.20;68550;4854.678;-13036.411;270;150;152.5;57;57.1;19;18.1;28.8;-1.0;
22/07/2019 04:24:32;117;0;227.29;16;25.93;11.08;671.4;7.20;68554;4854.678;-13036.411;270;150;152.5;57;57.1;18;18.1;28.8;-1.0;
22/07/2019 04:24:52;117;0;229.89;16;25.96;11.12;666.6;7.20;68559;4854.678;-13036.411;270;150;154.5;57;57.2;18;18.1;28.8;-1.0;
22/07/2019 04:25:12;117;0;230.91;16;26.30;11.06;661.8;7.20;68545;4854.678;-13036.411;270;150;154.5;57;57.1;18;18.1;28.8;-1.0;
22/07/2019 04:25:32;117;0;231.39;16;26.35;11.07;656.8;7.20;68547;4854.678;-13036.411;270;150;154.5;57;57.1;18;18.1;28.8;-1.0;
22/07/2019 04:25:52;117;0;233.46;16;26.06;11.13;651.9;7.10;68550;4854.678;-13036.411;270;150;154.5;57;57.1;17;16.7;28.8;-1.0;
22/07/2019 04:26:12;117;0;235.22;16;25.77;10.35;647.2;7.10;68548;4854.678;-13036.411;270;150;154.5;57;57.2;17;16.7;28.8;-1.0;
22/07/2019 04:26:32;117;0;236.91;16;25.64;10.34;642.5;7.10;68552;4854.678;-13036.411;270;150;154.5;57;57.1;17;16.7;28.8;-1.0;
22/07/2019 04:26:52;117;0;239.50;16;25.64;10.37;637.8;7.10;68552;4854.678;-13036.411;270;150;152.5;57;57.1;16;15.8;28.8;-1.0;
22/07/2019 04:27:12;117;0;241.88;16;25.60;9.73;633.0;7.10;68547;4854.678;-13036.411;270;150;154.5;57;57.1;15;14.4;28.8;-1.0;
22/07/2019 04:27:32;117;0;242.73;16;25.74;9.17;628.3;7.10;68546;4854.678;-13036.411;270;150;154.5;57;57.1;16;16.2;28.8;-1.0;
22/07/2019 04:27:52;117;0;246.28;16;25.53;10.54;623.5;7.10;68546;4854.678;-13036.411;270;150;154.5;57;57.1;14;14.0;28.8;-1.0;
22/07/2019 04:28:12;117;0;246.78;16;25.80;8.76;618.8;7.10;68542;4854.678;-13036.411;270;150;152.5;57;57.1;15;14.9;28.8;-1.0;
22/07/2019 04:28:32;117;0;246.55;16;25.98;9.98;613.9;7.10;68538;4854.678;-13036.411;270;150;154.5;57;57.1;15;15.3;28.8;-1.0;
22/07/2019 04:28:52;117;0;247.30;16;25.82;10.01;608.9;7.10;68542;4854.678;-13036.411;270;150;154.5;57;57.1;15;15.3;28.8;-1.0;
22/07/2019 04:29:12;117;0;250.42;16;25.46;10.00;604.1;7.10;68548;4854.678;-13036.411;270;150;154.5;57;57.1;14;14.0;28.8;-1.0;
22/07/2019 04:29:32;117;0;250.87;16;25.67;8.71;599.3;7.00;68541;4854.678;-13036.411;270;150;154.5;57;57.1;14;13.1;28.8;-1.0;
22/07/2019 04:29:52;117;0;250.08;16;25.85;8.81;594.5;7.00;68530;4854.678;-13036.411;270;150;154.5;57;57.2;15;14.9;28.8;-1.0;
22/07/2019 04:30:12;117;0;254.14;16;25.42;9.93;589.5;7.00;68536;4854.678;-13036.411;270;150;154.5;57;57.1;15;15.3;28.8;-1.0;
22/07/2019 04:30:32;117;0;258.37;16;25.29;10.13;584.7;7.00;68528;4854.678;-13036.411;270;150;156.4;57;57.1;11;10.8;28.8;-1.0;
22/07/2019 04:30:52;117;0;260.92;16;25.27;7.32;579.9;7.00;68536;4854.678;-13036.411;270;150;154.5;57;57.1;11;10.4;28.8;-1.0;
22/07/2019 04:31:12;117;0;260.49;16;25.30;7.26;575.0;7.00;68523;4854.678;-13036.411;270;150;154.5;57;57.2;12;12.6;28.8;-1.0;
22/07/2019 04:31:32;117;0;258.78;16;25.52;8.69;570.2;7.00;68534;4854.678;-13036.411;270;150;154.5;57;57.1;13;13.1;28.8;-1.0;
22/07/2019 04:31:52;117;0;258.66;16;25.38;9.07;565.3;7.00;68531;4854.678;-13036.411;270;150;154.5;57;57.2;13;13.5;28.8;-1.0;
22/07/2019 04:32:12;117;0;259.54;16;25.21;8.99;560.5;7.00;68526;4854.678;-13036.411;270;150;154.5;57;57.1;12;12.2;28.8;-1.0;
22/07/2019 04:32:32;117;0;260.48;16;25.06;8.20;555.8;7.00;68534;4854.678;-13036.411;270;150;154.5;57;57.1;11;10.8;28.8;-1.0;
22/07/2019 04:32:52;117;0;261.64;16;25.16;7.33;551.0;7.00;68533;4854.678;-13036.411;270;150;154.5;57;57.1;11;9.9;28.8;-1.0;
22/07/2019 04:33:12;117;0;263.42;16;25.06;7.41;546.3;7.00;68528;4854.678;-13036.411;270;150;154.5;57;57.1;10;9.9;28.8;-1.0;
22/07/2019 04:33:32;117;0;265.18;16;24.70;7.42;541.5;7.00;68531;4854.678;-13036.411;270;150;154.5;57;57.1;9;9.0;28.8;-1.0;
22/07/2019 04:33:52;117;0;263.36;16;25.08;6.58;536.8;7.00;68536;4854.678;-13036.411;270;150;154.5;57;57.1;10;9.9;28.8;-1.0;
22/07/2019 04:34:12;117;0;260.93;16;25.31;7.48;532.1;7.00;68531;4854.678;-13036.411;270;150;154.5;57;57.1;11;10.8;28.8;-1.0;
22/07/2019 04:34:32;117;0;260.01;16;25.12;7.70;527.4;7.00;68527;4854.678;-13036.411;270;150;154.5;57;57.1;11;10.8;28.8;-1.0;
22/07/2019 04:34:52;117;0;262.83;16;24.74;7.64;522.7;7.00;68533;4854.678;-13036.411;270;150;154.5;57;57.1;9;9.0;28.8;-1.0;
22/07/2019 04:35:12;117;0;262.15;16;24.72;6.49;517.9;7.00;68530;4854.678;-13036.411;270;150;154.5;57;57.1;9;8.1;28.8;-1.0;
22/07/2019 04:35:32;117;0;264.13;16;24.45;6.49;513.4;7.00;68540;4854.678;-13036.411;270;150;156.4;57;57.1;7;7.2;28.8;-1.0;
22/07/2019 04:35:52;117;0;264.07;16;24.93;5.96;508.8;7.00;68538;4854.678;-13036.411;270;150;154.5;57;57.1;7;6.8;28.8;-1.0;
22/07/2019 04:36:12;117;0;261.96;16;25.11;5.75;504.0;6.90;68537;4854.678;-13036.411;270;150;158.4;57;57.1;9;9.5;28.8;-1.0;
22/07/2019 04:36:32;117;0;262.11;16;25.11;7.49;499.2;7.00;68544;4854.678;-13036.411;270;150;154.5;57;57.1;8;8.1;28.9;-1.0;
22/07/2019 04:36:52;117;0;261.33;16;25.02;6.16;494.2;6.90;68534;4854.678;-13036.411;270;150;154.5;57;57.1;8;7.7;28.8;-1.0;
22/07/2019 04:37:12;117;0;262.11;16;24.96;6.28;489.4;7.00;68550;4854.678;-13036.411;270;150;154.5;57;57.1;7;7.2;28.8;-1.0;
22/07/2019 04:37:32;117;0;259.99;16;24.98;5.66;484.7;7.00;68550;4854.678;-13036.411;270;150;154.5;57;57.1;8;8.1;28.8;-1.0;
22/07/2019 04:37:52;117;0;257.81;16;24.77;6.85;479.9;7.00;68547;4854.678;-13036.411;270;150;154.5;57;57.1;9;9.0;28.8;-1.0;
22/07/2019 04:38:12;117;0;255.38;16;24.71;6.90;475.2;7.00;68549;4854.678;-13036.411;270;150;154.5;57;57.1;9;9.0;28.8;-1.0;
22/07/2019 04:38:32;117;0;253.65;16;24.45;6.87;470.5;7.00;68550;4854.678;-13036.411;270;150;154.5;57;57.1;9;9.0;28.8;-1.0;
22/07/2019 04:38:52;117;0;251.28;16;24.59;6.93;465.9;7.00;68545;4854.678;-13036.411;270;150;154.5;57;57.1;9;9.0;28.8;-1.0;
22/07/2019 04:39:12;117;0;248.70;16;24.41;6.91;461.2;7.00;68541;4854.678;-13036.411;270;150;154.5;57;57.1;11;11.3;28.8;-1.0;
22/07/2019 04:39:32;117;0;247.87;16;24.39;8.33;456.7;7.00;68551;4854.678;-13036.411;270;150;154.5;57;57.1;11;11.7;28.8;-1.0;
22/07/2019 04:39:52;117;0;249.33;16;24.15;8.57;452.0;7.00;68544;4854.678;-13036.411;270;150;156.4;57;57.1;10;9.9;28.8;-1.0;
22/07/2019 04:40:12;117;0;252.23;16;23.95;6.96;447.4;7.00;68551;4854.678;-13036.411;270;150;156.4;57;57.1;8;8.1;28.8;-1.0;
22/07/2019 04:40:32;117;0;251.02;16;24.17;6.30;442.9;7.00;68540;4854.678;-13036.411;270;150;154.5;57;57.1;9;9.0;28.8;-1.0;
22/07/2019 04:40:52;117;0;249.70;16;24.12;7.38;438.1;7.00;68556;4854.678;-13036.411;270;150;154.5;57;57.1;11;10.8;28.8;-1.0;
22/07/2019 04:41:13;117;0;249.21;16;24.04;8.14;433.5;7.00;68556;4854.678;-13036.411;270;150;154.5;57;57.1;10;9.9;28.8;-1.0;
22/07/2019 04:41:33;117;0;247.38;16;23.95;7.03;428.8;7.00;68548;4854.678;-13036.411;270;150;154.5;57;57.1;12;12.2;28.8;-1.0;
22/07/2019 04:41:53;117;0;251.21;16;23.58;8.81;424.3;7.00;68562;4854.678;-13036.411;270;150;156.4;57;57.1;9;8.6;28.8;-1.0;
22/07/2019 04:42:13;117;0;252.36;16;23.67;6.41;419.6;7.00;68558;4854.678;-13036.411;270;150;156.4;57;57.1;9;8.1;28.8;-1.0;
22/07/2019 04:42:33;117;0;253.58;16;23.62;6.48;414.9;7.00;68558;4854.678;-13036.411;270;150;154.5;57;57.1;9;8.1;28.8;-1.0;
22/07/2019 04:42:53;117;0;254.78;16;23.67;6.53;410.4;7.00;68558;4854.678;-13036.411;270;150;156.4;57;57.1;9;8.1;28.8;-1.0;
22/07/2019 04:43:13;117;0;252.83;16;23.89;6.55;405.7;7.00;68569;4854.678;-13036.411;270;150;154.5;57;57.1;9;8.1;28.8;-1.0;
22/07/2019 04:43:33;117;0;251.59;16;23.88;6.53;401.0;7.00;68569;4854.678;-13036.411;270;150;156.4;57;57.2;9;8.1;28.8;-1.0;
22/07/2019 04:43:53;117;0;248.48;16;24.00;6.47;396.4;7.00;68582;4854.678;-13036.411;270;150;154.5;57;57.2;12;12.2;28.8;-1.0;
22/07/2019 04:44:13;117;0;249.55;16;23.61;8.79;391.7;7.00;68579;4854.678;-13036.411;270;150;154.5;57;57.1;11;10.4;28.8;-1.0;
22/07/2019 04:44:33;117;0;251.38;16;23.40;7.47;387.0;7.10;68594;4854.678;-13036.411;270;150;156.4;57;57.1;10;9.9;28.8;-1.0;
22/07/2019 04:44:53;117;0;254.38;16;23.23;7.44;382.4;7.00;68583;4854.678;-13036.411;270;150;156.4;57;57.1;10;9.9;28.8;-1.0;
22/07/2019 04:45:13;117;0;254.13;16;23.45;7.44;377.7;7.10;68587;4854.678;-13036.411;270;150;156.4;57;57.1;10;9.9;28.8;-1.0;
22/07/2019 04:45:33;117;0;255.39;16;23.25;7.43;373.1;7.10;68590;4854.678;-13036.411;270;150;156.4;57;57.1;10;9.9;28.8;-1.0;
22/07/2019 04:45:53;117;0;255.77;16;23.35;7.41;368.5;7.10;68590;4854.678;-13036.411;270;150;154.5;57;57.1;10;9.9;28.8;-1.0;
22/07/2019 04:46:13;117;0;254.96;16;23.34;7.50;363.8;7.10;68598;4854.678;-13036.411;270;150;154.5;57;57.1;10;9.9;28.8;-1.0;
22/07/2019 04:46:33;117;0;255.29;16;23.08;7.44;359.1;7.10;68600;4854.678;-13036.411;270;150;156.4;57;57.1;10;9.9;28.8;-1.0;
22/07/2019 04:46:53;117;0;255.41;16;23.20;7.46;354.6;7.10;68593;4854.678;-13036.411;270;150;156.4;57;57.1;10;9.9;28.8;-1.0;
22/07/2019 04:47:13;117;0;254.31;16;23.39;7.41;349.9;7.10;68599;4854.678;-13036.411;270;150;154.5;57;57.1;10;9.9;28.8;-1.0;
22/07/2019 04:47:33;117;0;255.64;16;22.87;7.52;345.3;7.10;68601;4854.678;-13036.411;270;150;156.4;57;57.2;10;9.9;28.8;-1.0;
22/07/2019 04:47:53;117;0;255.93;16;22.95;7.41;340.8;7.10;68612;4854.678;-13036.411;270;150;156.4;57;57.1;10;9.9;28.8;-1.0;
22/07/2019 04:48:13;117;0;255.23;16;23.16;7.45;336.3;7.10;68610;4854.678;-13036.411;270;150;156.4;57;57.1;10;9.9;28.8;-1.0;
22/07/2019 04:48:33;117;0;254.25;16;23.27;7.41;331.7;7.10;68613;4854.678;-13036.411;270;150;156.4;57;57.1;10;9.9;28.8;-1.0;
22/07/2019 04:48:53;117;0;253.74;16;22.92;7.45;327.3;7.20;68620;4854.678;-13036.411;270;150;156.4;57;57.1;10;9.9;28.8;-1.0;
22/07/2019 04:49:13;117;0;253.61;16;22.74;7.48;322.9;7.20;68616;4854.678;-13036.411;270;150;156.4;57;57.1;10;9.9;28.8;-1.0;
22/07/2019 04:49:33;117;0;252.98;16;22.89;7.43;318.4;7.20;68625;4854.678;-13036.411;270;150;156.4;57;57.1;10;9.9;28.8;-1.0;
22/07/2019 04:49:53;117;0;251.53;16;22.94;7.45;314.0;7.20;68627;4854.678;-13036.411;270;150;154.5;57;57.1;10;9.9;28.8;-1.0;
22/07/2019 04:50:13;117;0;253.10;16;22.62;7.56;309.6;7.20;68621;4854.678;-13036.411;270;150;156.4;57;57.2;10;9.9;28.8;-1.0;
22/07/2019 04:50:33;117;0;255.16;16;22.48;7.49;305.3;7.20;68639;4854.678;-13036.411;270;150;156.4;57;57.1;10;9.9;28.8;-1.0;
22/07/2019 04:50:53;117;0;255.86;16;22.73;7.41;300.9;7.20;68641;4854.678;-13036.411;270;150;156.4;57;57.1;10;9.9;28.8;-1.0;
22/07/2019 04:51:13;117;0;260.68;16;22.31;7.44;296.6;7.20;68644;4854.678;-13036.411;270;150;156.4;57;57.1;7;7.2;28.8;-1.0;
22/07/2019 04:51:33;117;0;262.24;16;22.47;6.10;292.5;7.20;68643;4854.678;-13036.411;270;150;156.4;57;57.1;6;5.9;28.8;-1.0;
22/07/2019 04:51:53;117;0;261.20;16;22.54;4.96;288.2;7.30;68657;4854.678;-13036.411;270;150;154.5;57;57.1;7;7.2;28.9;-1.0;
22/07/2019 04:52:13;117;0;261.64;16;22.55;6.58;284.1;7.30;68646;4854.678;-13036.411;270;150;156.4;57;57.1;7;7.7;28.8;-1.0;
22/07/2019 04:52:33;117;0;262.57;16;22.33;6.58;279.9;7.30;68650;4854.678;-13036.411;270;150;156.4;57;57.1;6;5.9;28.8;-1.0;
22/07/2019 04:52:53;117;0;263.26;16;22.49;5.20;275.6;7.30;68650;4854.678;-13036.411;270;150;156.4;57;57.1;6;5.4;28.8;-1.0;
22/07/2019 04:53:13;117;0;262.05;16;22.44;5.24;271.4;7.30;68657;4854.678;-13036.411;270;150;156.4;57;57.1;6;5.4;28.8;-1.0;
22/07/2019 04:53:33;117;0;261.21;16;22.50;5.19;267.2;7.30;68651;4854.678;-13036.411;270;150;154.5;57;57.1;7;7.2;28.8;-1.0;
22/07/2019 04:53:53;117;0;259.41;16;22.44;6.63;263.1;7.30;68661;4854.678;-13036.411;270;150;156.4;57;57.2;7;8.1;28.8;-1.0;
22/07/2019 04:54:13;117;0;257.99;16;22.42;6.61;259.0;7.30;68662;4854.678;-13036.411;270;150;156.4;57;57.1;8;8.1;28.8;-1.0;
22/07/2019 04:54:33;117;0;255.63;16;22.63;6.65;254.9;7.30;68665;4854.678;-13036.411;270;150;156.4;57;57.1;8;8.1;28.8;-1.0;
22/07/2019 04:54:53;117;0;256.08;16;22.37;6.69;250.7;7.40;68664;4854.678;-13036.411;270;150;154.5;57;57.1;7;6.8;28.8;-1.0;
22/07/2019 04:55:13;117;0;255.08;16;22.33;5.83;246.6;7.40;68666;4854.678;-13036.411;270;150;154.5;57;57.1;7;6.8;28.8;-1.0;
22/07/2019 04:55:33;117;0;254.70;16;22.25;5.84;242.5;7.40;68672;4854.678;-13036.411;270;150;156.4;57;57.1;7;6.3;28.8;-1.0;
22/07/2019 04:55:53;117;0;250.42;16;22.53;5.90;238.4;7.40;68677;4854.678;-13036.411;270;150;156.4;57;57.1;9;9.5;28.8;-1.0;
22/07/2019 04:56:13;117;0;248.07;16;22.26;7.49;234.4;7.40;68682;4854.678;-13036.411;270;150;156.4;57;57.2;10;9.9;28.8;-1.0;
22/07/2019 04:56:33;117;0;245.83;16;22.29;7.62;230.3;7.40;68681;4854.678;-13036.411;270;150;154.5;57;57.1;11;10.8;28.8;-1.0;
22/07/2019 04:56:53;117;0;247.13;16;22.03;8.25;226.2;7.40;68688;4854.678;-13036.411;270;150;156.4;57;57.1;9;9.0;28.8;-1.0;
22/07/2019 04:57:13;117;0;245.65;16;21.98;6.88;222.2;7.50;68695;4854.678;-13036.411;270;150;156.4;57;57.1;11;10.8;28.8;-1.0;
22/07/2019 04:57:33;117;0;246.95;16;21.72;8.27;218.1;7.50;68703;4854.678;-13036.411;270;150;156.4;57;57.1;10;9.9;28.8;-1.0;
22/07/2019 04:57:53;117;0;247.37;16;21.71;7.11;214.1;7.50;68702;4854.678;-13036.411;270;150;156.4;57;57.2;10;9.0;28.8;-1.0;
22/07/2019 04:58:13;117;0;246.42;16;21.81;7.08;210.2;7.50;68712;4854.678;-13036.411;270;150;156.4;57;57.1;11;10.8;28.8;-1.0;
22/07/2019 04:58:33;117;0;249.26;16;21.43;8.38;206.2;7.50;68707;4854.678;-13036.411;270;150;158.4;57;57.1;9;9.0;28.8;-1.0;
22/07/2019 04:58:53;117;0;249.49;16;21.49;6.96;202.3;7.50;68709;4854.678;-13036.411;270;150;156.4;57;57.2;10;10.4;28.8;-1.0;
22/07/2019 04:59:13;117;0;252.33;16;21.23;8.04;198.3;7.50;68715;4854.678;-13036.411;270;150;156.4;57;57.1;8;8.1;28.8;-1.0;
22/07/2019 04:59:33;117;0;252.16;16;21.40;6.29;194.4;7.50;68717;4854.678;-13036.411;270;150;154.5;57;57.1;9;9.0;28.8;-1.0;
22/07/2019 04:59:53;117;0;252.59;16;21.42;7.53;190.6;7.60;68720;4854.678;-13036.411;270;150;156.4;57;57.1;9;9.9;28.8;-1.0;
22/07/2019 05:00:13;117;0;252.38;16;21.47;7.52;186.6;7.60;68720;4854.678;-13036.411;270;150;154.5;57;57.1;10;9.9;28.8;-1.0;
22/07/2019 05:00:33;117;0;250.63;16;21.60;7.52;182.7;7.60;68722;4854.678;-13036.411;270;150;156.4;57;57.1;11;10.8;28.8;-1.0;
22/07/2019 05:00:53;117;0;249.47;16;21.63;8.20;178.6;7.60;68729;4854.678;-13036.411;270;150;156.4;57;57.1;11;11.3;28.8;-1.0;
22/07/2019 05:01:13;117;0;250.37;16;21.31;8.19;174.6;7.60;68734;4854.678;-13036.411;270;150;154.5;57;57.1;11;11.3;28.8;-1.0;
22/07/2019 05:01:33;117;0;250.95;16;21.20;8.29;170.6;7.60;68746;4854.678;-13036.411;270;150;156.4;57;57.1;11;11.3;28.8;-1.0;
22/07/2019 05:01:53;117;0;253.60;16;20.84;8.26;166.6;7.70;68749;4854.678;-13036.411;270;150;154.5;57;57.1;11;11.3;28.8;-1.0;
22/07/2019 05:02:13;117;0;260.21;16;20.25;8.23;162.8;7.70;68747;4854.678;-13036.411;270;150;156.4;57;57.1;6;5.9;28.8;-1.0;
22/07/2019 05:02:33;117;0;262.30;16;20.14;5.55;159.1;7.70;68756;4854.678;-13036.411;270;150;156.4;57;57.2;6;5.9;28.8;-1.0;
22/07/2019 05:02:53;117;0;260.80;16;20.62;5.62;155.5;7.70;68751;4854.678;-13036.411;270;150;156.4;57;57.2;8;8.1;28.8;-1.0;
22/07/2019 05:03:13;117;0;264.14;16;20.27;7.23;151.7;7.70;68763;4854.678;-13036.411;270;150;156.4;57;57.1;5;5.0;28.8;-1.0;
22/07/2019 05:03:33;117;0;262.71;16;20.70;4.81;147.9;7.80;68771;4854.678;-13036.411;270;150;156.4;57;57.1;7;7.2;28.8;-1.0;
22/07/2019 05:03:53;117;0;261.94;16;20.57;6.64;144.2;7.80;68779;4854.678;-13036.411;270;150;158.4;57;57.1;7;7.7;28.8;-1.0;
22/07/2019 05:04:13;117;0;262.39;16;20.48;6.67;140.5;7.80;68783;4854.678;-13036.411;270;150;156.4;57;57.1;6;5.4;28.8;-1.0;
22/07/2019 05:04:33;117;0;266.12;16;20.02;5.30;136.7;7.80;68774;4854.678;-13036.411;270;150;154.5;57;57.1;3;3.2;28.8;-1.0;
22/07/2019 05:04:53;117;0;262.07;16;20.20;4.03;133.1;7.80;68773;4854.678;-13036.411;270;150;156.4;57;57.1;6;6.3;28.8;-1.0;
22/07/2019 05:05:13;117;0;262.28;16;19.72;6.10;129.6;7.80;68777;4854.678;-13036.411;270;150;156.4;57;57.1;6;6.8;28.8;-1.0;
22/07/2019 05:05:33;117;0;265.40;16;19.66;6.32;126.2;7.80;68779;4854.678;-13036.411;270;150;156.4;57;57.1;3;2.7;28.8;-1.0;
22/07/2019 05:05:53;117;0;268.05;16;19.24;3.87;122.8;7.90;68781;4854.678;-13036.411;270;150;156.4;57;57.1;1;0.9;28.8;-1.0;
22/07/2019 05:06:13;117;0;265.90;16;19.09;2.93;119.5;7.90;68783;4854.678;-13036.411;270;150;156.4;57;57.1;4;4.1;28.8;-1.0;
22/07/2019 05:06:33;117;0;259.82;16;18.73;5.02;116.3;7.90;68770;4854.678;-13036.411;270;150;154.5;57;57.1;7;7.2;28.8;-1.0;
22/07/2019 05:06:53;117;0;257.73;16;18.31;6.25;113.4;7.90;68783;4854.678;-13036.411;270;150;154.5;57;57.1;6;5.4;28.8;-1.0;
22/07/2019 05:07:13;117;0;257.77;16;18.16;5.84;110.6;7.90;68774;4854.678;-13036.411;270;150;156.4;57;57.1;5;5.0;28.8;-1.0;
22/07/2019 05:07:33;117;0;259.33;16;18.09;5.35;107.6;7.90;68766;4854.678;-13036.411;270;150;154.5;57;57.1;4;4.1;28.8;-1.0;
22/07/2019 05:07:53;117;0;258.80;16;18.57;4.60;104.8;7.90;68765;4854.678;-13036.411;270;150;156.4;57;57.1;4;3.6;28.8;-1.0;
22/07/2019 05:08:13;117;0;261.79;16;18.14;4.75;101.8;8.00;68764;4854.678;-13036.411;270;150;156.4;57;57.1;2;1.8;28.8;-1.0;
22/07/2019 05:08:33;117;0;263.80;16;17.58;3.39;98.8;8.00;68764;4854.678;-13036.411;270;150;156.4;57;57.1;1;0.9;28.8;-1.0;
22/07/2019 05:08:53;117;0;264.49;16;16.98;3.39;95.9;8.00;68768;4854.678;-13036.411;270;150;156.4;57;57.1;1;0.9;28.8;-1.0;
22/07/2019 05:09:13;117;0;264.33;16;16.64;3.35;93.1;8.00;68772;4854.678;-13036.411;270;150;156.4;57;57.1;1;1.4;28.8;-1.0;
