Timestamp;NavState;SecurityLevel;Heading;Declination;Pitch;Roll;Depth;Temperature;Pa;Lat;Lon;DesiredH;BallastCmd;BallastPos;LinCmd;LinPos;AngCmd;AngPos;Voltage;Altitude;
23/07/2019 07:02:06;117;512;189.62;16;-0.15;7.83;2.8;13.90;69862;4847.536;-13018.450;145;400;405.9;20;19.7;0;1.4;28.6;-1.0;
23/07/2019 07:02:16;115;2560;190.50;16;2.21;2.65;2.8;13.90;69862;4847.536;-13018.450;145;300;299.0;100;80.3;0;0.9;28.6;-1.0;
23/07/2019 07:02:26;115;2560;169.35;16;-4.07;0.81;2.8;14.00;70066;4847.536;-13018.450;145;300;299.0;100;100.0;0;1.4;28.6;-1.0;
23/07/2019 07:02:36;115;2560;178.61;16;-8.07;3.83;2.8;14.00;70067;4847.536;-13018.450;145;300;299.0;100;100.3;0;1.4;28.6;-1.0;
23/07/2019 07:02:46;116;2560;206.06;16;-13.45;2.48;2.8;14.00;70079;4847.536;-13018.450;145;300;299.0;100;99.9;0;0.9;28.6;-1.0;
23/07/2019 07:03:06;115;2560;189.37;16;-18.56;1.69;2.8;14.10;70076;4847.536;-13018.450;145;300;297.0;100;99.7;0;0.9;28.6;-1.0;
23/07/2019 07:03:16;115;2560;202.62;16;-33.75;-0.17;3.1;14.20;70099;4847.536;-13018.450;145;300;295.0;100;99.9;0;0.9;28.6;-1.0;
23/07/2019 07:03:26;116;2560;226.96;16;-49.98;-0.89;3.3;14.20;70103;4847.536;-13018.450;145;300;293.1;100;100.0;0;1.4;28.6;-1.0;
23/07/2019 07:03:46;115;2560;237.33;16;-34.18;2.76;3.0;14.30;70100;4847.536;-13018.450;145;300;293.1;100;99.9;0;1.4;28.6;-1.0;
23/07/2019 07:03:56;115;2560;259.06;16;-30.36;5.09;2.9;14.30;70098;4847.536;-13018.450;145;300;293.1;100;100.0;0;0.9;28.6;-1.0;
23/07/2019 07:04:06;116;2560;259.45;16;-29.63;4.19;2.9;14.40;70112;4847.536;-13018.450;145;300;293.1;100;99.9;0;0.9;28.6;-1.0;
23/07/2019 07:04:26;115;2560;251.95;16;-41.11;5.40;3.2;14.50;70118;4847.536;-13018.450;145;300;293.1;100;99.9;0;0.9;28.6;-1.0;
23/07/2019 07:04:36;115;2560;265.93;16;-34.89;11.22;3.2;14.50;70120;4847.536;-13018.450;145;300;293.1;100;99.9;0;0.9;28.6;-1.0;
23/07/2019 07:04:46;116;2560;276.75;16;-29.69;4.05;3.0;14.60;70120;4847.536;-13018.450;145;300;293.1;100;99.9;0;0.9;28.6;-1.0;
23/07/2019 07:05:06;115;2560;250.33;16;-35.14;0.34;3.0;14.60;70119;4847.536;-13018.450;145;300;293.1;100;100.0;0;0.9;28.6;-1.0;
23/07/2019 07:05:16;115;2560;251.02;16;-38.80;0.51;3.1;14.70;70123;4847.536;-13018.450;145;300;295.0;100;99.9;0;0.9;28.6;-1.0;
23/07/2019 07:05:26;116;2560;222.91;16;-37.97;5.03;3.1;14.80;70132;4847.536;-13018.450;145;300;293.1;100;99.9;0;1.4;28.6;-1.0;
23/07/2019 07:05:46;115;2560;226.65;16;-33.24;9.95;3.1;14.80;70128;4847.536;-13018.450;145;300;293.1;100;99.9;0;1.4;28.6;-1.0;
23/07/2019 07:05:56;115;2560;218.60;16;-28.20;5.84;3.0;14.90;70133;4847.536;-13018.450;145;300;293.1;100;99.9;0;0.9;28.6;-1.0;
23/07/2019 07:06:06;116;2560;209.59;16;-34.50;4.32;3.0;15.00;70139;4847.550;-13018.454;145;300;293.1;100;99.9;0;1.4;28.6;-1.0;
23/07/2019 07:06:26;115;2560;256.86;16;-30.60;7.35;3.0;15.00;70147;4847.550;-13018.454;145;300;293.1;100;99.9;0;1.4;28.6;-1.0;
23/07/2019 07:06:36;115;2560;241.24;16;-37.72;2.09;3.0;15.10;70144;4847.550;-13018.454;145;300;293.1;100;100.0;0;0.9;28.6;-1.0;
23/07/2019 07:06:46;116;2560;242.72;16;-31.32;4.72;3.1;15.10;70142;4847.548;-13018.454;145;300;295.0;100;99.9;0;1.4;28.6;-1.0;
23/07/2019 07:07:06;115;2560;228.57;16;-34.37;10.85;3.0;15.20;70149;4847.548;-13018.454;145;300;293.1;100;99.9;0;0.9;28.6;-1.0;
23/07/2019 07:07:16;115;2560;207.43;16;-36.28;2.73;3.1;15.20;70140;4847.548;-13018.454;145;300;293.1;100;99.9;0;0.9;28.6;-1.0;
23/07/2019 07:07:26;116;2560;210.06;16;-32.77;6.41;3.1;15.30;70147;4847.551;-13018.455;145;300;293.1;100;99.9;0;0.9;28.6;-1.0;
23/07/2019 07:07:46;115;2560;199.85;16;-32.03;8.51;3.1;15.40;70151;4847.551;-13018.455;145;300;293.1;100;99.9;0;0.9;28.6;-1.0;
23/07/2019 07:07:56;115;2560;197.37;16;-33.61;3.51;3.1;15.40;70150;4847.551;-13018.455;145;300;293.1;100;99.9;0;0.9;28.6;-1.0;
23/07/2019 07:08:06;116;2560;214.51;16;-32.40;0.70;3.0;15.40;70151;4847.553;-13018.455;145;300;295.0;100;99.9;0;0.9;28.6;-1.0;
23/07/2019 07:08:26;115;2560;213.51;16;-38.94;4.69;3.1;15.50;70160;4847.553;-13018.455;145;300;295.0;100;99.9;0;1.4;28.6;-1.0;
23/07/2019 07:08:36;115;2560;235.46;16;-33.55;9.36;3.0;15.60;70157;4847.553;-13018.455;145;300;293.1;100;99.9;0;0.9;28.6;-1.0;
23/07/2019 07:08:43;116;2560;241.06;16;-37.77;2.86;3.0;15.60;70161;4847.555;-13018.455;145;300;295.0;100;99.9;0;0.9;28.6;-1.0;
23/07/2019 07:09:03;115;2560;218.36;16;-34.58;3.65;3.0;15.70;70172;4847.555;-13018.455;145;300;293.1;100;100.0;0;0.9;28.6;-1.0;
23/07/2019 07:09:13;115;2560;234.83;16;-32.68;1.20;3.1;15.70;70165;4847.555;-13018.455;145;300;293.1;100;99.9;0;0.9;28.6;-1.0;
23/07/2019 07:09:23;116;2560;216.38;16;-35.56;7.98;3.1;15.70;70170;4847.557;-13018.457;145;300;295.0;100;99.9;0;0.9;28.6;-1.0;
23/07/2019 07:09:43;115;2560;220.41;16;-35.96;2.54;3.0;15.80;70182;4847.557;-13018.457;145;300;293.1;100;99.9;0;1.4;28.6;-1.0;
23/07/2019 07:09:53;115;2560;198.06;16;-35.07;8.22;3.1;15.80;70185;4847.557;-13018.457;145;300;293.1;100;99.9;0;0.9;28.6;-1.0;
23/07/2019 07:10:03;116;2560;213.09;16;-35.37;8.16;3.1;15.80;70180;4847.559;-13018.458;145;300;293.1;100;100.0;0;0.9;28.6;-1.0;
23/07/2019 07:10:23;115;2560;220.58;16;-33.70;8.81;3.1;15.90;70193;4847.559;-13018.458;145;300;293.1;100;99.9;0;0.9;28.6;-1.0;
23/07/2019 07:10:33;115;2560;223.14;16;-33.57;1.95;3.1;15.90;70188;4847.559;-13018.458;145;300;293.1;100;99.9;0;0.9;28.6;-1.0;
23/07/2019 07:10:43;116;2560;219.15;16;-35.17;9.11;3.0;16.00;70179;4847.559;-13018.456;145;300;293.1;100;99.9;0;0.9;28.6;-1.0;
23/07/2019 07:11:03;115;2560;230.42;16;-36.24;5.54;3.1;16.00;70189;4847.559;-13018.456;145;300;293.1;100;99.9;0;0.9;28.6;-1.0;
23/07/2019 07:11:13;115;2560;256.21;16;-33.15;4.65;3.1;16.10;70200;4847.559;-13018.456;145;300;293.1;100;99.9;0;0.9;28.6;-1.0;
23/07/2019 07:11:23;116;2560;234.10;16;-33.87;10.44;3.1;16.10;70203;4847.561;-13018.456;145;300;293.1;100;100.0;0;0.9;28.6;-1.0;
23/07/2019 07:11:43;115;2560;227.91;16;-35.68;2.84;3.0;16.10;70198;4847.561;-13018.456;145;300;293.1;100;99.9;0;0.9;28.6;-1.0;
23/07/2019 07:11:53;115;2560;238.59;16;-32.81;2.46;3.1;16.20;70213;4847.561;-13018.456;145;300;293.1;100;99.9;0;1.4;28.6;-1.0;
23/07/2019 07:12:03;116;2560;244.57;16;-36.97;1.46;3.1;16.20;70209;4847.563;-13018.456;145;300;293.1;100;99.9;0;0.9;28.6;-1.0;
23/07/2019 07:12:23;115;2560;240.71;16;-31.60;8.14;3.1;16.20;70206;4847.563;-13018.456;145;300;293.1;100;99.9;0;1.4;28.6;-1.0;
23/07/2019 07:12:33;115;2560;219.60;16;-37.14;6.20;3.1;16.30;70199;4847.563;-13018.456;145;300;291.1;100;99.9;0;1.4;28.6;-1.0;
23/07/2019 07:12:43;116;2560;256.37;16;-31.65;7.43;3.1;16.30;70217;4847.564;-13018.458;145;300;293.1;100;99.9;0;0.9;28.6;-1.0;
23/07/2019 07:13:03;115;2560;258.97;16;-33.31;6.09;3.1;16.30;70211;4847.564;-13018.458;145;300;293.1;100;99.9;0;1.4;28.6;-1.0;
23/07/2019 07:13:13;115;2560;237.33;16;-38.46;-0.40;3.1;16.40;70220;4847.564;-13018.458;145;300;293.1;100;99.9;0;0.9;28.6;-1.0;
23/07/2019 07:13:23;116;2560;227.93;16;-34.34;1.12;3.1;16.40;70211;4847.566;-13018.457;145;300;293.1;100;99.9;0;0.9;28.6;-1.0;
23/07/2019 07:13:43;115;2560;220.23;16;-33.65;3.59;3.0;16.40;70213;4847.566;-13018.457;145;300;293.1;100;100.0;0;1.4;28.5;-1.0;
23/07/2019 07:13:53;115;2560;211.45;16;-37.79;0.62;2.9;16.40;70215;4847.566;-13018.457;145;300;293.1;100;99.9;0;0.9;28.6;-1.0;
23/07/2019 07:14:03;116;2560;229.10;16;-31.35;7.16;3.0;16.50;70224;4847.568;-13018.458;145;300;291.1;100;99.9;0;0.9;28.6;-1.0;
23/07/2019 07:14:23;115;2560;217.96;16;-35.65;12.98;3.0;16.50;70227;4847.568;-13018.458;145;300;293.1;100;99.9;0;0.9;28.6;-1.0;
23/07/2019 07:14:33;115;2560;212.23;16;-34.65;-2.40;3.1;16.50;70221;4847.568;-13018.458;145;300;293.1;100;100.0;0;0.9;28.6;-1.0;
23/07/2019 07:14:43;116;2560;234.84;16;-34.89;5.63;3.2;16.50;70222;4847.570;-13018.459;145;300;293.1;100;100.0;0;0.9;28.6;-1.0;
23/07/2019 07:15:03;115;2560;211.66;16;-31.72;4.01;3.0;16.60;70239;4847.570;-13018.459;145;300;293.1;100;99.9;0;1.4;28.6;-1.0;
23/07/2019 07:15:13;115;2560;221.79;16;-34.50;10.78;3.1;16.60;70232;4847.570;-13018.459;145;300;293.1;100;99.9;0;0.9;28.6;-1.0;
23/07/2019 07:15:23;116;2560;220.52;16;-33.20;6.82;3.1;16.60;70236;4847.572;-13018.460;145;300;293.1;100;100.0;0;0.9;28.6;-1.0;
23/07/2019 07:15:43;115;2560;208.86;16;-31.10;-1.41;3.1;16.70;70234;4847.572;-13018.460;145;300;293.1;100;99.9;0;0.9;28.6;-1.0;
23/07/2019 07:15:53;115;2560;212.30;16;-33.31;3.82;3.0;16.70;70246;4847.572;-13018.460;145;300;295.0;100;99.9;0;1.4;28.6;-1.0;
23/07/2019 07:16:03;116;2560;210.65;16;-34.77;3.29;3.1;16.70;70243;4847.574;-13018.461;145;300;293.1;100;99.9;0;0.9;28.6;-1.0;
23/07/2019 07:16:23;115;2560;206.22;16;-34.46;5.52;3.1;16.80;70247;4847.574;-13018.461;145;300;293.1;100;99.9;0;0.9;28.6;-1.0;
23/07/2019 07:16:33;115;2560;224.72;16;-34.27;4.35;3.1;16.80;70245;4847.574;-13018.461;145;300;293.1;100;100.0;0;0.9;28.6;-1.0;
23/07/2019 07:16:43;116;2560;211.51;16;-32.10;10.24;3.1;16.80;70249;4847.576;-13018.461;145;300;293.1;100;99.9;0;0.9;28.6;-1.0;
23/07/2019 07:17:03;115;2560;238.07;16;-34.49;0.19;3.0;16.80;70250;4847.576;-13018.461;145;300;295.0;100;99.9;0;1.4;28.6;-1.0;
23/07/2019 07:17:13;115;2560;259.15;16;-30.68;5.73;3.1;16.80;70253;4847.576;-13018.461;145;300;291.1;100;99.9;0;1.4;28.6;-1.0;
23/07/2019 07:17:23;116;2560;269.71;16;-32.26;2.67;3.1;16.80;70253;4847.577;-13018.462;145;300;293.1;100;100.0;0;0.9;28.6;-1.0;
23/07/2019 07:17:43;115;2560;261.58;16;-31.14;6.44;3.1;16.90;70261;4847.577;-13018.462;145;300;293.1;100;99.9;0;0.9;28.6;-1.0;
23/07/2019 07:17:53;115;2560;243.40;16;-37.10;1.54;3.0;16.90;70257;4847.577;-13018.462;145;300;293.1;100;99.9;0;0.9;28.6;-1.0;
23/07/2019 07:18:03;116;2560;244.09;16;-33.26;4.84;3.1;16.90;70249;4847.579;-13018.464;145;300;293.1;100;99.9;0;0.9;28.6;-1.0;
23/07/2019 07:18:23;115;2560;238.04;16;-35.22;5.32;3.0;16.90;70258;4847.579;-13018.464;145;300;293.1;100;99.9;0;0.9;28.6;-1.0;
23/07/2019 07:18:33;115;2560;234.51;16;-30.25;2.06;3.1;17.00;70271;4847.579;-13018.464;145;300;295.0;100;99.9;0;0.9;28.6;-1.0;
23/07/2019 07:18:43;116;2560;233.80;16;-35.29;5.12;3.1;17.00;70256;4847.579;-13018.465;145;300;293.1;100;99.9;0;0.9;28.6;-1.0;
23/07/2019 07:19:03;115;2560;227.08;16;-38.58;8.23;3.1;17.00;70266;4847.579;-13018.465;145;300;293.1;100;100.0;0;0.9;28.6;-1.0;
23/07/2019 07:19:13;115;2560;206.84;16;-35.71;10.68;3.1;17.00;70268;4847.579;-13018.465;145;300;295.0;100;100.0;0;0.9;28.6;-1.0;
23/07/2019 07:19:23;116;2560;222.12;16;-32.94;9.75;3.1;17.00;70274;4847.582;-13018.466;145;300;291.1;100;99.9;0;1.4;28.6;-1.0;
23/07/2019 07:19:43;115;2560;226.73;16;-33.66;1.81;3.1;17.10;70265;4847.582;-13018.466;145;300;293.1;100;99.9;0;1.4;28.6;-1.0;
23/07/2019 07:19:53;115;2560;262.54;16;-31.75;7.24;3.1;17.10;70278;4847.582;-13018.466;145;300;293.1;100;99.9;0;1.4;28.6;-1.0;
23/07/2019 07:20:03;116;2560;254.35;16;-34.13;8.87;3.1;17.10;70274;4847.581;-13018.465;145;300;293.1;100;99.9;0;1.4;28.6;-1.0;
23/07/2019 07:20:23;115;2560;232.33;16;-38.64;7.06;3.0;17.10;70278;4847.581;-13018.465;145;300;293.1;100;99.9;0;0.9;28.6;-1.0;
23/07/2019 07:20:33;115;2560;233.36;16;-36.49;3.36;3.1;17.10;70273;4847.581;-13018.465;145;300;293.1;100;99.9;0;0.9;28.6;-1.0;
23/07/2019 07:20:43;116;2560;226.32;16;-28.28;0.45;3.0;17.20;70278;4847.583;-13018.466;145;300;293.1;100;99.9;0;0.9;28.6;-1.0;
23/07/2019 07:21:03;115;2560;222.83;16;-35.10;11.24;3.1;17.20;70277;4847.583;-13018.466;145;300;293.1;100;99.9;0;0.9;28.6;-1.0;
23/07/2019 07:21:13;115;2560;199.23;16;-40.05;2.04;3.1;17.20;70276;4847.583;-13018.466;145;300;293.1;100;99.9;0;0.9;28.6;-1.0;
23/07/2019 07:21:23;116;2560;204.54;16;-41.15;7.82;3.1;17.20;70280;4847.583;-13018.466;145;300;293.1;100;99.9;0;0.9;28.6;-1.0;
23/07/2019 07:21:44;115;2560;197.63;16;-32.10;2.94;3.0;17.20;70284;4847.583;-13018.466;145;300;293.1;100;99.9;0;1.4;28.6;-1.0;
23/07/2019 07:21:54;115;2560;196.37;16;-34.74;4.37;3.1;17.20;70282;4847.583;-13018.466;145;300;293.1;100;99.9;0;0.9;28.6;-1.0;
23/07/2019 07:22:04;116;2560;198.49;16;-35.73;9.80;3.1;17.30;70294;4847.584;-13018.468;145;300;293.1;100;99.9;0;1.4;28.6;-1.0;
23/07/2019 07:22:24;115;2560;198.75;16;-36.88;4.59;3.1;17.30;70297;4847.584;-13018.468;145;300;293.1;100;99.9;0;0.9;28.6;-1.0;
23/07/2019 07:22:34;115;2560;191.13;16;-38.96;11.23;3.1;17.30;70297;4847.584;-13018.468;145;300;295.0;100;99.9;0;1.4;28.6;-1.0;
23/07/2019 07:22:44;116;2560;221.98;16;-33.91;1.34;3.0;17.30;70291;4847.584;-13018.468;145;300;291.1;100;99.9;0;0.9;28.6;-1.0;
23/07/2019 07:23:04;115;2560;233.56;16;-38.03;7.48;3.1;17.30;70301;4847.584;-13018.468;145;300;291.1;100;99.9;0;0.9;28.6;-1.0;
23/07/2019 07:23:14;115;2560;233.79;16;-38.91;14.36;3.1;17.30;70300;4847.584;-13018.468;145;300;293.1;100;99.9;0;1.4;28.6;-1.0;
23/07/2019 07:23:24;116;2560;211.68;16;-39.06;6.87;3.1;17.30;70301;4847.587;-13018.469;145;300;293.1;100;99.9;0;1.4;28.6;-1.0;
23/07/2019 07:23:44;115;2560;237.46;16;-31.27;5.49;3.1;17.40;70306;4847.587;-13018.469;145;300;293.1;100;99.9;0;1.4;28.6;-1.0;
23/07/2019 07:23:54;115;2560;221.71;16;-34.46;5.87;3.0;17.40;70306;4847.587;-13018.469;145;300;291.1;100;99.9;0;0.9;28.6;-1.0;
23/07/2019 07:24:04;116;2560;232.00;16;-31.43;6.76;3.0;17.40;70310;4847.588;-13018.470;145;300;291.1;100;99.9;0;0.9;28.6;-1.0;
23/07/2019 07:24:24;115;2560;221.90;16;-35.54;2.54;3.0;17.40;70311;4847.588;-13018.470;145;300;293.1;100;99.9;0;0.9;28.6;-1.0;
23/07/2019 07:24:34;115;2560;233.22;16;-32.26;4.03;3.1;17.40;70297;4847.588;-13018.470;145;300;293.1;100;100.0;0;0.9;28.6;-1.0;
23/07/2019 07:24:44;116;2560;218.03;16;-36.47;3.80;3.1;17.40;70311;4847.589;-13018.471;145;300;291.1;100;99.9;0;0.9;28.6;-1.0;
23/07/2019 07:25:04;115;2560;225.25;16;-34.14;-0.92;3.1;17.50;70320;4847.589;-13018.471;145;300;291.1;100;99.9;0;0.9;28.6;-1.0;
23/07/2019 07:25:14;115;2560;213.87;16;-37.28;4.51;3.0;17.50;70311;4847.589;-13018.471;145;300;293.1;100;99.9;0;1.4;28.6;-1.0;
23/07/2019 07:25:24;116;2560;237.84;16;-36.27;-1.06;3.1;17.50;70311;4847.591;-13018.470;145;300;291.1;100;99.9;0;0.9;28.6;-1.0;
23/07/2019 07:25:44;115;2560;236.93;16;-36.16;1.50;3.2;17.50;70318;4847.591;-13018.470;145;300;293.1;100;99.9;0;0.9;28.6;-1.0;
23/07/2019 07:25:54;115;2560;219.40;16;-33.05;4.86;3.1;17.50;70317;4847.591;-13018.470;145;300;293.1;100;99.9;0;0.9;28.6;-1.0;
23/07/2019 07:26:04;116;2560;232.23;16;-34.04;-0.42;3.1;17.50;70316;4847.593;-13018.471;145;300;291.1;100;99.9;0;0.9;28.6;-1.0;
23/07/2019 07:26:24;115;2560;213.47;16;-30.98;1.96;3.0;17.50;70323;4847.593;-13018.471;145;300;291.1;100;99.9;0;0.9;28.6;-1.0;
23/07/2019 07:26:34;115;2560;211.87;16;-34.26;12.08;3.1;17.50;70312;4847.593;-13018.471;145;300;291.1;100;99.9;0;0.9;28.6;-1.0;
23/07/2019 07:26:44;116;2560;223.87;16;-35.92;5.84;3.1;17.50;70318;4847.594;-13018.473;145;300;291.1;100;99.9;0;0.9;28.6;-1.0;
23/07/2019 07:27:04;115;2560;234.47;16;-31.31;0.93;3.0;17.60;70321;4847.594;-13018.473;145;300;291.1;100;100.0;0;0.9;28.6;-1.0;
23/07/2019 07:27:14;115;2560;239.95;16;-34.51;3.81;3.1;17.60;70327;4847.594;-13018.473;145;300;293.1;100;99.9;0;0.9;28.6;-1.0;
23/07/2019 07:27:24;116;2560;235.83;16;-32.43;5.46;3.1;17.60;70331;4847.596;-13018.477;145;300;291.1;100;100.0;0;1.4;28.6;-1.0;
23/07/2019 07:27:44;115;2560;246.25;16;-35.48;5.88;3.1;17.60;70327;4847.596;-13018.477;145;300;291.1;100;99.9;0;0.9;28.6;-1.0;
23/07/2019 07:27:54;115;2560;257.33;16;-34.37;3.75;3.1;17.60;70332;4847.596;-13018.477;145;300;291.1;100;99.9;0;0.9;28.6;-1.0;
23/07/2019 07:28:04;116;2560;258.07;16;-37.48;3.96;3.2;17.60;70336;4847.597;-13018.478;145;300;293.1;100;99.9;0;0.9;28.6;-1.0;
23/07/2019 07:28:24;115;2560;237.89;16;-37.44;5.10;3.1;17.70;70333;4847.597;-13018.478;145;300;293.1;100;99.9;0;0.9;28.6;-1.0;
23/07/2019 07:28:34;115;2560;236.40;16;-31.35;2.99;3.1;17.70;70333;4847.597;-13018.478;145;300;291.1;100;99.9;0;1.4;28.6;-1.0;
23/07/2019 07:28:44;116;2560;234.04;16;-36.13;0.36;3.1;17.70;70335;4847.599;-13018.480;145;300;291.1;100;99.9;0;0.9;28.6;-1.0;
23/07/2019 07:29:04;115;2560;219.84;16;-39.61;6.99;3.1;17.70;70332;4847.599;-13018.480;145;300;293.1;100;99.9;0;1.4;28.6;-1.0;
23/07/2019 07:29:14;115;2560;229.65;16;-34.25;4.89;3.0;17.70;70334;4847.599;-13018.480;145;300;291.1;100;99.9;0;1.4;28.6;-1.0;
23/07/2019 07:29:24;116;2560;248.34;16;-25.25;4.79;3.1;17.70;70345;4847.601;-13018.480;145;300;291.1;100;100.0;0;1.4;28.6;-1.0;
23/07/2019 07:29:44;115;2560;231.67;16;-30.00;5.73;2.9;17.70;70341;4847.601;-13018.480;145;300;291.1;100;99.9;0;0.9;28.6;-1.0;
23/07/2019 07:29:54;115;2560;252.52;16;-31.44;5.16;3.0;17.70;70345;4847.601;-13018.480;145;300;291.1;100;99.9;0;1.4;28.6;-1.0;
23/07/2019 07:30:04;116;2560;239.15;16;-33.99;7.44;3.1;17.70;70337;4847.602;-13018.481;145;300;293.1;100;99.9;0;0.9;28.6;-1.0;
23/07/2019 07:30:24;115;2560;234.62;16;-40.21;-1.14;3.1;17.70;70353;4847.602;-13018.481;145;300;291.1;100;99.9;0;0.9;28.6;-1.0;
23/07/2019 07:30:34;115;2560;213.45;16;-35.47;3.68;3.0;17.70;70345;4847.602;-13018.481;145;300;293.1;100;99.9;0;0.9;28.6;-1.0;
23/07/2019 07:30:44;116;2560;245.89;16;-31.22;1.93;3.1;17.70;70350;4847.602;-13018.484;145;300;293.1;100;99.9;0;0.9;28.6;-1.0;
23/07/2019 07:31:04;115;2560;227.94;16;-35.66;4.25;3.1;17.80;70353;4847.602;-13018.484;145;300;291.1;100;99.9;0;0.9;28.6;-1.0;
23/07/2019 07:31:14;115;2560;240.31;16;-34.30;5.75;3.1;17.80;70366;4847.602;-13018.484;145;300;291.1;100;99.9;0;0.9;28.6;-1.0;
23/07/2019 07:31:24;116;2560;226.23;16;-37.58;4.36;3.1;17.80;70363;4847.604;-13018.487;145;300;291.1;100;99.9;0;0.9;28.6;-1.0;
23/07/2019 07:31:44;115;2560;256.00;16;-31.93;11.44;3.1;17.80;70357;4847.604;-13018.487;145;300;291.1;100;99.9;0;0.9;28.6;-1.0;
23/07/2019 07:31:54;115;2560;249.02;16;-37.54;9.58;3.0;17.80;70365;4847.604;-13018.487;145;300;293.1;100;100.0;0;0.9;28.6;-1.0;
23/07/2019 07:32:04;116;2560;234.95;16;-34.66;6.71;3.1;17.80;70364;4847.604;-13018.487;145;300;293.1;100;99.9;0;0.9;28.6;-1.0;
23/07/2019 07:32:24;115;2560;194.11;16;-36.40;6.91;3.0;17.80;70357;4847.604;-13018.487;145;300;293.1;100;100.0;0;0.9;28.6;-1.0;
23/07/2019 07:32:34;115;2560;204.97;16;-36.39;-0.57;3.2;17.80;70362;4847.604;-13018.487;145;300;293.1;100;100.0;0;0.9;28.6;-1.0;
23/07/2019 07:32:44;116;2560;197.37;16;-36.83;4.87;3.2;17.80;70362;4847.606;-13018.490;145;300;291.1;100;99.9;0;0.9;28.6;-1.0;
23/07/2019 07:33:04;115;2560;211.19;16;-30.85;7.20;3.0;17.90;70373;4847.606;-13018.490;145;300;291.1;100;99.9;0;0.9;28.6;-1.0;
23/07/2019 07:33:14;115;2560;229.11;16;-33.57;7.76;3.0;17.90;70369;4847.606;-13018.490;145;300;293.1;100;99.9;0;0.9;28.6;-1.0;
23/07/2019 07:33:24;116;2560;225.37;16;-36.52;5.51;3.1;17.90;70370;4847.607;-13018.490;145;300;291.1;100;99.9;0;0.9;28.6;-1.0;
23/07/2019 07:33:44;115;2560;234.48;16;-33.68;8.24;3.1;17.90;70375;4847.607;-13018.490;145;300;293.1;100;99.9;0;0.9;28.6;-1.0;
23/07/2019 07:33:54;115;2560;242.72;16;-28.75;2.39;3.0;17.90;70371;4847.607;-13018.490;145;300;291.1;100;100.0;0;0.9;28.6;-1.0;
23/07/2019 07:34:04;116;2560;232.99;16;-32.13;1.59;3.0;17.90;70367;4847.609;-13018.490;145;300;291.1;100;99.9;0;0.9;28.6;-1.0;
23/07/2019 07:34:24;115;2560;256.41;16;-33.54;7.19;3.1;17.90;70376;4847.609;-13018.490;145;300;291.1;100;99.9;0;0.9;28.6;-1.0;
23/07/2019 07:34:34;115;2560;249.26;16;-32.80;-0.57;3.1;17.90;70370;4847.609;-13018.490;145;300;291.1;100;100.0;0;0.9;28.6;-1.0;
23/07/2019 07:34:44;116;2560;246.80;16;-35.75;6.87;3.1;17.90;70381;4847.612;-13018.491;145;300;291.1;100;99.9;0;0.9;28.6;-1.0;
23/07/2019 07:35:04;115;2560;233.79;16;-32.19;5.69;3.1;17.90;70386;4847.612;-13018.491;145;300;291.1;100;100.0;0;0.9;28.6;-1.0;
23/07/2019 07:35:14;115;2560;222.86;16;-33.97;5.41;3.1;18.00;70376;4847.612;-13018.491;145;300;291.1;100;99.9;0;0.9;28.6;-1.0;
23/07/2019 07:35:24;116;2560;252.39;16;-35.10;3.80;3.1;18.00;70382;4847.614;-13018.493;145;300;291.1;100;99.9;0;0.9;28.6;-1.0;
23/07/2019 07:35:44;115;2560;225.47;16;-38.82;9.12;3.1;18.00;70384;4847.614;-13018.493;145;300;291.1;100;99.9;0;0.9;28.6;-1.0;
23/07/2019 07:35:54;115;2560;231.09;16;-36.10;6.21;3.0;18.00;70382;4847.614;-13018.493;145;300;291.1;100;99.9;0;0.9;28.6;-1.0;
23/07/2019 07:36:04;116;2560;245.85;16;-31.59;8.12;3.0;18.00;70376;4847.615;-13018.496;145;300;291.1;100;99.9;0;0.9;28.6;-1.0;
23/07/2019 07:36:24;115;2560;226.00;16;-31.36;-0.03;3.1;18.00;70389;4847.615;-13018.496;145;300;293.1;100;100.0;0;0.9;28.6;-1.0;
23/07/2019 07:36:34;115;2560;220.70;16;-40.42;9.51;3.2;18.00;70386;4847.615;-13018.496;145;300;291.1;100;99.9;0;0.9;28.6;-1.0;
23/07/2019 07:36:44;116;2560;237.90;16;-36.77;7.70;3.1;18.00;70388;4847.616;-13018.497;145;300;291.1;100;99.9;0;0.9;28.6;-1.0;
23/07/2019 07:37:04;115;2560;223.04;16;-33.92;2.22;3.0;18.00;70398;4847.616;-13018.497;145;300;291.1;100;99.9;0;0.9;28.6;-1.0;
23/07/2019 07:37:14;115;2560;223.93;16;-32.95;7.05;3.1;18.00;70387;4847.616;-13018.497;145;300;289.1;100;99.9;0;1.4;28.6;-1.0;
23/07/2019 07:37:24;116;2560;226.03;16;-31.92;8.43;3.0;18.00;70381;4847.617;-13018.499;145;300;291.1;100;99.9;0;0.9;28.6;-1.0;
23/07/2019 07:37:44;115;2560;212.65;16;-39.90;4.98;3.1;18.00;70397;4847.617;-13018.499;145;300;293.1;100;100.0;0;0.9;28.6;-1.0;
23/07/2019 07:37:54;115;2560;226.23;16;-34.25;9.63;3.1;18.10;70396;4847.617;-13018.499;145;300;291.1;100;99.9;0;0.9;28.6;-1.0;
23/07/2019 07:38:04;116;2560;203.08;16;-30.64;10.10;3.0;18.10;70394;4847.620;-13018.502;145;300;293.1;100;99.9;0;0.9;28.6;-1.0;
23/07/2019 07:38:24;115;2560;231.79;16;-28.34;8.85;3.0;18.10;70396;4847.620;-13018.502;145;300;291.1;100;100.0;0;0.9;28.6;-1.0;
23/07/2019 07:38:34;115;2560;234.63;16;-31.30;9.44;3.1;18.10;70396;4847.620;-13018.502;145;300;291.1;100;99.9;0;1.4;28.6;-1.0;
23/07/2019 07:38:44;116;2560;235.03;16;-39.08;-0.25;3.1;18.10;70398;4847.621;-13018.504;145;300;289.1;100;99.9;0;1.4;28.6;-1.0;
23/07/2019 07:39:04;115;2560;234.71;16;-36.11;0.40;3.1;18.10;70400;4847.621;-13018.504;145;300;291.1;100;99.9;0;0.9;28.6;-1.0;
23/07/2019 07:39:14;115;2560;230.76;16;-40.78;7.32;3.1;18.10;70395;4847.621;-13018.504;145;300;291.1;100;99.9;0;0.9;28.6;-1.0;
23/07/2019 07:39:24;116;2560;232.81;16;-33.53;4.72;3.1;18.10;70400;4847.623;-13018.505;145;300;291.1;100;100.0;0;0.9;28.6;-1.0;
23/07/2019 07:39:44;115;2560;252.70;16;-35.38;0.10;3.1;18.10;70401;4847.623;-13018.505;145;300;291.1;100;99.9;0;1.4;28.6;-1.0;
23/07/2019 07:39:54;115;2560;244.69;16;-34.28;2.38;3.0;18.10;70409;4847.623;-13018.505;145;300;291.1;100;99.9;0;1.4;28.6;-1.0;
23/07/2019 07:40:04;116;2560;227.01;16;-35.86;6.01;3.1;18.10;70403;4847.624;-13018.508;145;300;289.1;100;99.9;0;0.9;28.6;-1.0;
23/07/2019 07:40:24;115;2560;239.83;16;-42.26;8.95;3.2;18.20;70418;4847.624;-13018.508;145;300;291.1;100;99.9;0;0.9;28.6;-1.0;
23/07/2019 07:40:34;115;2560;253.15;16;-33.16;5.27;3.1;18.10;70411;4847.624;-13018.508;145;300;291.1;100;99.9;0;0.9;28.6;-1.0;
23/07/2019 07:40:44;116;2560;257.93;16;-30.72;5.41;3.1;18.20;70407;4847.625;-13018.509;145;300;291.1;100;99.9;0;0.9;28.6;-1.0;
23/07/2019 07:41:04;115;2560;273.95;16;-39.74;5.74;3.0;18.10;70415;4847.625;-13018.509;145;300;291.1;100;99.9;0;0.9;28.6;-1.0;
23/07/2019 07:41:14;115;2560;254.66;16;-38.07;2.82;3.1;18.20;70410;4847.625;-13018.509;145;300;291.1;100;99.9;0;0.9;28.6;-1.0;
23/07/2019 07:41:24;116;2560;263.62;16;-34.17;2.25;3.1;18.20;70410;4847.627;-13018.511;145;300;291.1;100;99.9;0;0.9;28.6;-1.0;
23/07/2019 07:41:44;115;2560;260.33;16;-36.50;-4.84;3.1;18.20;70420;4847.627;-13018.511;145;300;291.1;100;100.0;0;0.9;28.6;-1.0;
23/07/2019 07:41:54;115;2560;234.02;16;-36.54;2.48;3.1;18.20;70406;4847.627;-13018.511;145;300;289.1;100;99.9;0;0.9;28.6;-1.0;
23/07/2019 07:42:04;116;2560;256.91;16;-31.26;9.57;3.1;18.20;70418;4847.629;-13018.510;145;300;291.1;100;99.9;0;0.9;28.6;-1.0;
23/07/2019 07:42:24;115;2560;244.51;16;-32.63;10.12;3.1;18.20;70424;4847.629;-13018.510;145;300;291.1;100;99.9;0;0.9;28.6;-1.0;
23/07/2019 07:42:34;115;2560;242.86;16;-37.50;8.48;3.2;18.20;70419;4847.629;-13018.510;145;300;291.1;100;99.9;0;0.9;28.6;-1.0;
23/07/2019 07:42:44;116;2560;235.75;16;-38.05;3.45;3.1;18.20;70424;4847.631;-13018.511;145;300;291.1;100;99.9;0;0.9;28.6;-1.0;
23/07/2019 07:43:04;115;2560;234.59;16;-33.15;1.22;3.0;18.20;70426;4847.631;-13018.511;145;300;291.1;100;99.9;0;0.9;28.6;-1.0;
23/07/2019 07:43:14;115;2560;229.25;16;-38.59;8.99;3.1;18.20;70415;4847.631;-13018.511;145;300;291.1;100;100.1;0;1.4;28.6;-1.0;
23/07/2019 07:43:24;116;2560;248.27;16;-35.21;3.74;3.2;18.20;70420;4847.632;-13018.513;145;300;293.1;100;99.9;0;0.9;28.6;-1.0;
23/07/2019 07:43:44;115;2560;238.35;16;-36.99;3.20;2.9;18.20;70430;4847.632;-13018.513;145;300;291.1;100;99.9;0;0.9;28.6;-1.0;
23/07/2019 07:43:54;115;2560;263.97;16;-32.61;7.36;3.1;18.20;70422;4847.632;-13018.513;145;300;291.1;100;99.9;0;0.9;28.6;-1.0;
23/07/2019 07:44:04;116;2560;247.46;16;-32.55;2.56;3.0;18.20;70422;4847.633;-13018.515;145;300;291.1;100;99.9;0;0.9;28.6;-1.0;
23/07/2019 07:44:24;115;2560;261.05;16;-35.21;4.19;3.0;18.30;70434;4847.633;-13018.515;145;300;291.1;100;99.9;0;0.9;28.6;-1.0;
23/07/2019 07:44:34;115;2560;262.97;16;-33.92;1.58;3.1;18.30;70432;4847.633;-13018.515;145;300;289.1;100;99.9;0;0.9;28.6;-1.0;
23/07/2019 07:44:44;116;2560;250.45;16;-39.97;4.91;3.0;18.20;70421;4847.636;-13018.516;145;300;289.1;100;99.9;0;0.9;28.6;-1.0;
23/07/2019 07:45:04;115;2560;257.27;16;-29.92;-1.14;3.1;18.30;70439;4847.636;-13018.516;145;300;291.1;100;99.9;0;0.9;28.6;-1.0;
23/07/2019 07:45:14;115;2560;251.78;16;-32.28;6.26;3.1;18.30;70436;4847.636;-13018.516;145;300;291.1;100;100.0;0;0.9;28.6;-1.0;
23/07/2019 07:45:24;116;2560;243.24;16;-32.49;7.47;3.1;18.30;70436;4847.638;-13018.518;145;300;291.1;100;100.0;0;0.9;28.6;-1.0;
23/07/2019 07:45:44;115;2560;247.08;16;-36.12;9.14;3.1;18.30;70435;4847.638;-13018.518;145;300;291.1;100;99.9;0;0.9;28.6;-1.0;
23/07/2019 07:45:54;115;2560;243.12;16;-37.38;-0.71;3.1;18.30;70435;4847.638;-13018.518;145;300;291.1;100;99.9;0;1.4;28.6;-1.0;
23/07/2019 07:46:04;116;2560;243.57;16;-36.81;0.87;3.1;18.30;70433;4847.639;-13018.520;145;300;291.1;100;99.9;0;0.9;28.6;-1.0;
23/07/2019 07:46:24;115;2560;235.26;16;-34.09;0.66;3.1;18.30;70434;4847.639;-13018.520;145;300;291.1;100;100.0;0;0.9;28.6;-1.0;
23/07/2019 07:46:34;115;2560;216.36;16;-35.87;5.23;3.0;18.30;70444;4847.639;-13018.520;145;300;291.1;100;100.0;0;1.4;28.6;-1.0;
23/07/2019 07:46:45;116;2560;232.01;16;-32.81;9.92;3.1;18.30;70438;4847.641;-13018.522;145;300;291.1;100;99.9;0;0.9;28.6;-1.0;
23/07/2019 07:47:05;115;2560;232.97;16;-34.91;-0.95;3.0;18.30;70444;4847.641;-13018.522;145;300;291.1;100;100.0;0;0.9;28.6;-1.0;
23/07/2019 07:47:15;115;2560;233.51;16;-36.22;11.48;3.0;18.30;70442;4847.641;-13018.522;145;300;291.1;100;99.9;0;1.4;28.6;-1.0;
23/07/2019 07:47:25;116;2560;258.01;16;-38.64;4.89;3.1;18.30;70450;4847.641;-13018.522;145;300;291.1;100;99.9;0;0.9;28.6;-1.0;
23/07/2019 07:47:45;115;2560;260.22;16;-32.05;3.56;3.0;18.30;70456;4847.641;-13018.522;145;300;289.1;100;99.9;0;1.4;28.6;-1.0;
23/07/2019 07:47:55;115;2560;239.81;16;-35.69;6.49;3.0;18.30;70448;4847.641;-13018.522;145;300;289.1;100;99.9;0;0.9;28.6;-1.0;
23/07/2019 07:48:04;116;2560;251.96;16;-36.59;9.51;3.1;18.40;70451;4847.643;-13018.523;145;300;291.1;100;99.9;0;1.4;28.6;-1.0;
23/07/2019 07:48:24;115;2560;228.22;16;-35.63;5.27;3.0;18.40;70464;4847.643;-13018.523;145;300;291.1;100;99.9;0;0.9;28.6;-1.0;
23/07/2019 07:48:34;115;2560;227.21;16;-36.46;17.95;3.1;18.40;70456;4847.643;-13018.523;145;300;289.1;100;99.9;0;0.9;28.6;-1.0;
23/07/2019 07:48:45;116;2560;235.05;16;-37.24;6.43;3.1;18.40;70458;4847.645;-13018.524;145;300;291.1;100;99.9;0;0.9;28.6;-1.0;
23/07/2019 07:49:05;115;2560;222.10;16;-33.47;10.84;3.0;18.40;70449;4847.645;-13018.524;145;300;291.1;100;99.9;0;0.9;28.6;-1.0;
23/07/2019 07:49:15;115;2560;221.99;16;-32.60;1.01;3.1;18.40;70458;4847.645;-13018.524;145;300;291.1;100;100.0;0;0.9;28.6;-1.0;
23/07/2019 07:49:25;116;2560;204.99;16;-35.87;2.75;3.0;18.40;70453;4847.647;-13018.524;145;300;291.1;100;99.9;0;0.9;28.6;-1.0;
23/07/2019 07:49:45;115;2560;240.59;16;-35.17;2.07;3.1;18.40;70461;4847.647;-13018.524;145;300;291.1;100;100.0;0;0.9;28.6;-1.0;
23/07/2019 07:49:55;115;2560;229.57;16;-34.38;1.56;3.1;18.40;70460;4847.647;-13018.524;145;300;291.1;100;99.9;0;0.9;28.6;-1.0;
23/07/2019 07:50:05;116;2560;247.58;16;-31.35;-0.05;3.0;18.40;70465;4847.649;-13018.524;145;300;289.1;100;99.9;0;0.9;28.6;-1.0;
23/07/2019 07:50:25;115;2560;232.98;16;-35.12;1.54;3.1;18.40;70459;4847.649;-13018.524;145;300;291.1;100;100.0;0;0.9;28.6;-1.0;
23/07/2019 07:50:35;115;2560;229.33;16;-40.34;6.16;3.1;18.40;70459;4847.649;-13018.524;145;300;291.1;100;99.9;0;0.9;28.6;-1.0;
23/07/2019 07:50:45;116;2560;252.37;16;-34.55;5.26;3.2;18.40;70459;4847.651;-13018.524;145;300;291.1;100;99.9;0;0.9;28.6;-1.0;
23/07/2019 07:51:05;115;2560;213.98;16;-34.03;5.88;3.1;18.40;70464;4847.651;-13018.524;145;300;289.1;100;100.0;0;0.9;28.6;-1.0;
23/07/2019 07:51:15;115;2560;206.95;16;-31.31;3.37;3.1;18.40;70461;4847.651;-13018.524;145;300;289.1;100;99.9;0;0.9;28.6;-1.0;
23/07/2019 07:51:25;116;2560;208.32;16;-36.17;9.46;3.0;18.40;70469;4847.652;-13018.525;145;300;289.1;100;99.9;0;1.4;28.6;-1.0;
23/07/2019 07:51:45;115;2560;212.83;16;-36.83;1.09;3.0;18.40;70471;4847.652;-13018.525;145;300;291.1;100;99.9;0;0.9;28.6;-1.0;
23/07/2019 07:51:55;115;2560;196.13;16;-36.38;2.82;3.1;18.40;70470;4847.652;-13018.525;145;300;291.1;100;100.0;0;0.9;28.6;-1.0;
23/07/2019 07:52:05;116;2560;191.49;16;-31.33;6.88;3.0;18.40;70471;4847.654;-13018.525;145;300;291.1;100;99.9;0;1.4;28.6;-1.0;
23/07/2019 07:52:25;115;2560;181.48;16;-36.07;1.26;3.0;18.40;70470;4847.654;-13018.525;145;300;291.1;100;99.9;0;0.9;28.6;-1.0;
23/07/2019 07:52:35;115;2560;183.55;16;-38.43;2.26;3.0;18.40;70470;4847.654;-13018.525;145;300;291.1;100;99.9;0;1.4;28.6;-1.0;
23/07/2019 07:52:45;116;2560;203.10;16;-28.68;4.98;3.0;18.40;70482;4847.656;-13018.526;145;300;291.1;100;99.9;0;0.9;28.6;-1.0;
23/07/2019 07:53:05;115;2560;208.11;16;-36.93;-0.48;3.1;18.50;70478;4847.656;-13018.526;145;300;291.1;100;99.9;0;0.9;28.6;-1.0;
23/07/2019 07:53:15;115;2560;225.02;16;-37.67;2.56;3.1;18.50;70475;4847.656;-13018.526;145;300;291.1;100;99.9;0;0.9;28.6;-1.0;
23/07/2019 07:53:25;116;2560;208.21;16;-44.48;5.40;3.2;18.50;70469;4847.657;-13018.526;145;300;291.1;100;100.0;0;0.9;28.6;-1.0;
23/07/2019 07:53:45;115;2560;223.29;16;-36.14;3.05;2.9;18.50;70478;4847.657;-13018.526;145;300;291.1;100;99.9;0;0.9;28.6;-1.0;
23/07/2019 07:53:55;115;2560;224.95;16;-34.46;1.39;3.1;18.50;70472;4847.657;-13018.526;145;300;291.1;100;100.0;0;0.9;28.6;-1.0;
23/07/2019 07:54:05;116;2560;209.40;16;-35.62;8.33;3.1;18.50;70480;4847.658;-13018.525;145;300;291.1;100;99.9;0;0.9;28.6;-1.0;
23/07/2019 07:54:25;115;2560;240.07;16;-34.80;5.94;3.1;18.50;70479;4847.658;-13018.525;145;300;289.1;100;99.9;0;0.9;28.6;-1.0;
23/07/2019 07:54:35;115;2560;207.41;16;-31.26;4.28;3.0;18.50;70471;4847.658;-13018.525;145;300;291.1;100;100.0;0;0.9;28.6;-1.0;
23/07/2019 07:54:45;116;2560;230.76;16;-30.15;2.65;3.0;18.50;70482;4847.660;-13018.526;145;300;289.1;100;99.9;0;0.9;28.6;-1.0;
23/07/2019 07:55:05;115;2560;230.29;16;-37.69;-1.98;3.2;18.50;70483;4847.660;-13018.526;145;300;289.1;100;99.9;0;0.9;28.6;-1.0;
23/07/2019 07:55:15;115;2560;228.07;16;-35.48;0.01;3.1;18.50;70481;4847.660;-13018.526;145;300;289.1;100;99.9;0;0.9;28.6;-1.0;
23/07/2019 07:55:25;116;2560;208.87;16;-30.51;-0.51;3.0;18.50;70491;4847.661;-13018.525;145;300;291.1;100;99.9;0;0.9;28.6;-1.0;
23/07/2019 07:55:45;115;2560;203.21;16;-38.86;5.80;3.1;18.50;70489;4847.661;-13018.525;145;300;289.1;100;99.9;0;0.9;28.6;-1.0;
23/07/2019 07:55:55;115;2560;196.04;16;-36.36;2.47;3.1;18.50;70483;4847.661;-13018.525;145;300;291.1;100;99.9;0;1.4;28.6;-1.0;
23/07/2019 07:56:05;116;2560;202.54;16;-33.64;8.86;3.1;18.50;70489;4847.664;-13018.528;145;300;291.1;100;99.9;0;0.9;28.6;-1.0;
23/07/2019 07:56:25;115;2560;205.82;16;-31.53;5.45;3.0;18.50;70483;4847.664;-13018.528;145;300;291.1;100;99.9;0;0.9;28.6;-1.0;
23/07/2019 07:56:35;115;2560;197.66;16;-34.47;8.27;3.1;18.50;70489;4847.664;-13018.528;145;300;289.1;100;99.9;0;1.4;28.6;-1.0;
23/07/2019 07:56:45;116;2560;189.72;16;-37.58;4.82;3.2;18.50;70488;4847.666;-13018.531;145;300;291.1;100;100.0;0;1.4;28.6;-1.0;
23/07/2019 07:57:05;115;2560;191.59;16;-34.84;4.34;3.1;18.60;70495;4847.666;-13018.531;145;300;291.1;100;100.0;0;1.4;28.6;-1.0;
23/07/2019 07:57:15;115;2560;203.70;16;-33.51;2.00;3.0;18.60;70498;4847.666;-13018.531;145;300;291.1;100;99.9;0;0.9;28.6;-1.0;
23/07/2019 07:57:25;116;2560;214.56;16;-32.62;4.45;3.1;18.50;70504;4847.666;-13018.531;145;300;291.1;100;99.9;0;0.9;28.6;-1.0;
23/07/2019 07:57:45;115;2560;203.16;16;-36.46;-3.43;3.1;18.50;70502;4847.666;-13018.531;145;300;289.1;100;100.0;0;0.9;28.6;-1.0;
23/07/2019 07:57:55;115;2560;190.59;16;-31.05;6.54;3.1;18.50;70502;4847.666;-13018.531;145;300;291.1;100;99.9;0;0.9;28.6;-1.0;
23/07/2019 07:58:05;116;2560;182.30;16;-32.80;5.09;3.1;18.50;70496;4847.668;-13018.534;145;300;291.1;100;99.9;0;0.9;28.6;-1.0;
23/07/2019 07:58:25;115;2560;183.43;16;-35.88;5.68;3.1;18.60;70503;4847.668;-13018.534;145;300;289.1;100;99.9;0;0.9;28.6;-1.0;
23/07/2019 07:58:35;115;2560;187.44;16;-39.56;7.99;3.2;18.60;70492;4847.668;-13018.534;145;300;291.1;100;99.9;0;0.9;28.6;-1.0;
23/07/2019 07:58:45;116;2560;204.32;16;-36.34;2.73;3.1;18.60;70498;4847.670;-13018.534;145;300;291.1;100;99.9;0;0.9;28.6;-1.0;
23/07/2019 07:59:05;115;2560;194.36;16;-35.58;1.86;3.0;18.60;70506;4847.670;-13018.534;145;300;289.1;100;100.0;0;0.9;28.6;-1.0;
23/07/2019 07:59:15;115;2560;208.83;16;-37.63;7.88;3.1;18.60;70500;4847.670;-13018.534;145;300;289.1;100;99.9;0;0.9;28.6;-1.0;
23/07/2019 07:59:25;116;2560;192.29;16;-37.02;9.06;3.1;18.60;70503;4847.671;-13018.536;145;300;289.1;100;99.9;0;0.9;28.6;-1.0;
23/07/2019 07:59:45;115;2560;173.72;16;-35.88;8.48;3.1;18.60;70512;4847.671;-13018.536;145;300;289.1;100;100.0;0;0.9;28.6;-1.0;
23/07/2019 07:59:55;115;2560;200.65;16;-35.63;9.05;3.2;18.60;70512;4847.671;-13018.536;145;300;291.1;100;99.9;0;0.9;28.6;-1.0;
23/07/2019 08:00:05;116;2560;208.71;16;-37.95;0.92;3.2;18.60;70492;4847.671;-13018.536;145;300;289.1;100;99.9;0;0.9;28.6;-1.0;
23/07/2019 08:00:25;115;2560;212.13;16;-37.93;5.65;3.1;18.60;70512;4847.671;-13018.536;145;300;291.1;100;99.9;0;1.4;28.5;-1.0;
23/07/2019 08:00:35;115;2560;214.14;16;-31.17;1.15;3.1;18.60;70512;4847.671;-13018.536;145;300;289.1;100;99.9;0;0.9;28.6;-1.0;
23/07/2019 08:00:45;116;2560;220.83;16;-36.69;-1.90;3.1;18.60;70512;4847.672;-13018.537;145;300;289.1;100;100.0;0;0.9;28.6;-1.0;
23/07/2019 08:01:05;115;2560;223.76;16;-42.16;-1.35;3.2;18.60;70513;4847.672;-13018.537;145;300;291.1;100;99.9;0;0.9;28.6;-1.0;
23/07/2019 08:01:15;115;2560;232.10;16;-31.73;8.62;3.1;18.60;70513;4847.672;-13018.537;145;300;289.1;100;99.9;0;0.9;28.5;-1.0;
23/07/2019 08:01:25;116;2560;231.59;16;-36.18;-0.85;3.0;18.60;70510;4847.673;-13018.539;145;300;291.1;100;99.9;0;1.4;28.6;-1.0;
23/07/2019 08:01:45;115;2560;216.16;16;-34.75;10.48;3.1;18.60;70512;4847.673;-13018.539;145;300;291.1;100;99.9;0;0.9;28.6;-1.0;
23/07/2019 08:01:55;115;2560;205.10;16;-33.31;2.51;3.1;18.60;70505;4847.673;-13018.539;145;300;291.1;100;99.9;0;0.9;28.6;-1.0;
23/07/2019 08:02:05;116;2560;211.74;16;-36.17;3.94;3.1;18.60;70518;4847.674;-13018.540;145;300;289.1;100;99.9;0;0.9;28.6;-1.0;
23/07/2019 08:02:25;115;2560;212.69;16;-34.53;10.50;3.1;18.60;70515;4847.674;-13018.540;145;300;291.1;100;100.0;0;0.9;28.6;-1.0;
23/07/2019 08:02:35;115;2560;215.97;16;-31.08;3.58;3.0;18.60;70511;4847.674;-13018.540;145;300;289.1;100;99.9;0;0.9;28.6;-1.0;
23/07/2019 08:02:45;116;2560;195.26;16;-35.19;1.99;3.0;18.60;70513;4847.674;-13018.541;145;300;291.1;100;99.9;0;1.4;28.6;-1.0;
23/07/2019 08:03:05;115;2560;198.48;16;-39.21;2.90;3.1;18.60;70520;4847.674;-13018.541;145;300;289.1;100;100.0;0;0.9;28.6;-1.0;
23/07/2019 08:03:15;115;2560;203.29;16;-38.60;2.44;3.2;18.60;70517;4847.674;-13018.541;145;300;289.1;100;99.9;0;0.9;28.6;-1.0;
23/07/2019 08:03:25;116;2560;190.33;16;-38.48;3.61;3.1;18.60;70517;4847.675;-13018.543;145;300;289.1;100;100.0;0;1.4;28.6;-1.0;
23/07/2019 08:03:45;115;2560;198.90;16;-34.59;-3.49;3.0;18.60;70514;4847.675;-13018.543;145;300;289.1;100;99.9;0;0.9;28.6;-1.0;
23/07/2019 08:03:55;115;2560;188.13;16;-30.29;2.49;3.1;18.60;70522;4847.675;-13018.543;145;300;289.1;100;99.9;0;0.9;28.6;-1.0;
23/07/2019 08:04:05;116;2560;197.59;16;-32.92;1.82;3.1;18.70;70526;4847.675;-13018.544;145;300;289.1;100;99.9;0;0.9;28.6;-1.0;
23/07/2019 08:04:25;115;2560;195.67;16;-32.07;10.14;3.1;18.70;70535;4847.675;-13018.544;145;300;289.1;100;100.0;0;0.9;28.6;-1.0;
23/07/2019 08:04:35;115;2560;190.79;16;-32.98;6.00;3.1;18.70;70524;4847.675;-13018.544;145;300;289.1;100;99.9;0;0.9;28.6;-1.0;
23/07/2019 08:04:45;116;2560;185.13;16;-33.59;2.70;3.1;18.70;70529;4847.676;-13018.546;145;300;291.1;100;99.9;0;0.9;28.6;-1.0;
23/07/2019 08:05:05;115;2560;200.16;16;-31.41;9.35;3.1;18.70;70535;4847.676;-13018.546;145;300;289.1;100;99.9;0;0.9;28.6;-1.0;
23/07/2019 08:05:15;115;2560;223.57;16;-34.45;10.84;3.1;18.70;70526;4847.676;-13018.546;145;300;291.1;100;99.9;0;0.9;28.6;-1.0;
23/07/2019 08:05:25;116;2560;222.31;16;-37.10;6.66;3.2;18.70;70524;4847.677;-13018.547;145;300;289.1;100;100.0;0;0.9;28.6;-1.0;
23/07/2019 08:05:45;115;2560;214.38;16;-32.65;8.78;3.0;18.70;70528;4847.677;-13018.547;145;300;289.1;100;99.9;0;1.4;28.6;-1.0;
23/07/2019 08:05:55;115;2560;230.25;16;-31.41;1.86;3.1;18.70;70528;4847.677;-13018.547;145;300;289.1;100;100.0;0;1.4;28.6;-1.0;
23/07/2019 08:06:05;116;2560;212.82;16;-33.96;2.67;3.0;18.70;70539;4847.677;-13018.549;145;300;289.1;100;100.0;0;0.9;28.6;-1.0;
23/07/2019 08:06:25;115;2560;228.28;16;-36.39;7.04;3.2;18.70;70533;4847.677;-13018.549;145;300;289.1;100;99.9;0;0.9;28.6;-1.0;
23/07/2019 08:06:35;115;2560;221.01;16;-35.33;4.82;3.1;18.70;70533;4847.677;-13018.549;145;300;289.1;100;99.9;0;0.9;28.6;-1.0;
23/07/2019 08:06:45;116;2560;219.07;16;-28.96;5.12;3.0;18.70;70536;4847.677;-13018.551;145;300;289.1;100;99.9;0;0.9;28.6;-1.0;
23/07/2019 08:07:05;115;2560;208.32;16;-30.18;6.06;3.0;18.70;70536;4847.677;-13018.551;145;300;289.1;100;99.9;0;1.4;28.6;-1.0;
23/07/2019 08:07:15;115;2560;203.86;16;-35.43;2.85;3.1;18.70;70533;4847.677;-13018.551;145;300;291.1;100;99.9;0;0.9;28.6;-1.0;
23/07/2019 08:07:25;116;2560;204.43;16;-33.92;6.05;3.0;18.70;70539;4847.679;-13018.552;145;300;291.1;100;99.9;0;0.9;28.6;-1.0;
23/07/2019 08:07:45;115;2560;203.82;16;-34.99;2.12;3.0;18.70;70535;4847.679;-13018.552;145;300;289.1;100;100.0;0;0.9;28.6;-1.0;
23/07/2019 08:07:55;115;2560;227.02;16;-27.59;-0.49;3.1;18.70;70544;4847.679;-13018.552;145;300;291.1;100;99.9;0;0.9;28.6;-1.0;
23/07/2019 08:08:05;116;2560;217.83;16;-34.82;-1.46;3.1;18.70;70544;4847.680;-13018.552;145;300;291.1;100;100.0;0;0.9;28.6;-1.0;
23/07/2019 08:08:25;115;2560;231.97;16;-41.15;6.73;3.1;18.70;70550;4847.680;-13018.552;145;300;291.1;100;99.9;0;0.9;28.6;-1.0;
23/07/2019 08:08:35;115;2560;246.29;16;-33.21;8.08;3.1;18.70;70539;4847.680;-13018.552;145;300;289.1;100;99.9;0;0.9;28.6;-1.0;
23/07/2019 08:08:45;116;2560;242.63;16;-28.79;5.03;3.0;18.70;70530;4847.681;-13018.555;145;300;291.1;100;99.9;0;0.9;28.6;-1.0;
23/07/2019 08:09:05;115;2560;215.80;16;-31.70;0.59;2.9;18.70;70546;4847.681;-13018.555;145;300;291.1;100;99.9;0;1.4;28.6;-1.0;
23/07/2019 08:09:15;115;2560;218.92;16;-38.08;6.61;3.2;18.70;70540;4847.681;-13018.555;145;300;289.1;100;99.9;0;0.9;28.6;-1.0;
23/07/2019 08:09:25;116;2560;221.63;16;-40.60;1.11;3.1;18.70;70534;4847.682;-13018.556;145;300;289.1;100;100.0;0;1.4;28.6;-1.0;
23/07/2019 08:09:45;115;2560;213.64;16;-31.79;4.08;3.0;18.70;70552;4847.682;-13018.556;145;300;289.1;100;99.9;0;0.9;28.6;-1.0;
23/07/2019 08:09:55;115;2560;213.10;16;-29.46;5.20;3.0;18.70;70543;4847.682;-13018.556;145;300;289.1;100;99.9;0;1.4;28.6;-1.0;
23/07/2019 08:10:05;116;2560;196.25;16;-37.26;6.63;3.0;18.70;70548;4847.683;-13018.558;145;300;289.1;100;99.9;0;0.9;28.6;-1.0;
23/07/2019 08:10:25;115;2560;222.71;16;-33.92;13.82;3.1;18.70;70544;4847.683;-13018.558;145;300;287.1;100;99.9;0;0.9;28.6;-1.0;
23/07/2019 08:10:35;115;2560;243.90;16;-33.74;4.25;3.0;18.70;70548;4847.683;-13018.558;145;300;289.1;100;100.0;0;1.4;28.6;-1.0;
23/07/2019 08:10:45;116;2560;230.64;16;-32.86;5.52;3.0;18.70;70550;4847.685;-13018.559;145;300;289.1;100;99.9;0;0.9;28.6;-1.0;
23/07/2019 08:11:05;115;2560;237.05;16;-32.58;6.28;3.1;18.70;70553;4847.685;-13018.559;145;300;289.1;100;100.0;0;0.9;28.6;-1.0;
23/07/2019 08:11:15;115;2560;232.13;16;-37.72;8.09;3.1;18.70;70550;4847.685;-13018.559;145;300;289.1;100;100.0;0;0.9;28.6;-1.0;
23/07/2019 08:11:25;116;2560;226.31;16;-35.00;3.45;3.0;18.80;70555;4847.686;-13018.561;145;300;289.1;100;99.9;0;0.9;28.6;-1.0;
23/07/2019 08:11:45;115;2560;220.04;16;-32.08;4.31;3.0;18.80;70555;4847.686;-13018.561;145;300;289.1;100;100.0;0;0.9;28.6;-1.0;
23/07/2019 08:11:56;115;2560;230.07;16;-32.06;-2.95;3.1;18.80;70563;4847.686;-13018.561;145;300;289.1;100;99.9;0;0.9;28.6;-1.0;
23/07/2019 08:12:06;116;2560;219.07;16;-36.11;10.59;3.2;18.80;70561;4847.687;-13018.563;145;300;289.1;100;99.9;0;0.9;28.6;-1.0;
23/07/2019 08:12:26;115;2560;218.41;16;-27.52;8.30;3.1;18.80;70555;4847.687;-13018.563;145;300;291.1;100;99.9;0;0.9;28.6;-1.0;
23/07/2019 08:12:36;115;2560;205.60;16;-32.30;1.84;3.0;18.80;70546;4847.687;-13018.563;145;300;291.1;100;99.9;0;1.4;28.6;-1.0;
23/07/2019 08:12:46;116;2560;192.57;16;-32.59;2.33;3.1;18.80;70561;4847.689;-13018.564;145;300;289.1;100;100.0;0;0.9;28.6;-1.0;
23/07/2019 08:13:06;115;2560;208.33;16;-35.33;6.57;3.1;18.80;70563;4847.689;-13018.564;145;300;289.1;100;100.0;0;0.9;28.6;-1.0;
23/07/2019 08:13:16;115;2560;205.60;16;-36.38;4.47;3.1;18.80;70554;4847.689;-13018.564;145;300;291.1;100;100.0;0;0.9;28.6;-1.0;
23/07/2019 08:13:26;116;2560;196.88;16;-32.23;4.98;3.1;18.80;70549;4847.691;-13018.566;145;300;289.1;100;99.9;0;1.4;28.6;-1.0;
23/07/2019 08:13:46;115;2560;189.42;16;-36.97;3.50;3.1;18.80;70559;4847.691;-13018.566;145;300;289.1;100;100.0;0;1.4;28.6;-1.0;
23/07/2019 08:13:56;115;2560;189.06;16;-33.96;3.71;3.1;18.80;70565;4847.691;-13018.566;145;300;289.1;100;99.9;0;0.9;28.6;-1.0;
23/07/2019 08:14:06;116;2560;202.99;16;-33.27;0.13;3.1;18.80;70555;4847.694;-13018.568;145;300;291.1;100;99.9;0;1.4;28.6;-1.0;
23/07/2019 08:14:26;115;2560;187.56;16;-35.36;6.04;3.1;18.80;70559;4847.694;-13018.568;145;300;293.1;100;99.9;0;0.9;28.6;-1.0;
23/07/2019 08:14:36;115;2560;203.83;16;-37.33;2.00;3.1;18.80;70553;4847.694;-13018.568;145;300;291.1;100;99.9;0;0.9;28.6;-1.0;
23/07/2019 08:14:46;116;2560;207.85;16;-36.56;3.25;3.1;18.80;70562;4847.694;-13018.569;145;300;291.1;100;99.9;0;1.4;28.6;-1.0;
23/07/2019 08:15:06;115;2560;226.49;16;-32.33;2.54;2.9;18.80;70567;4847.694;-13018.569;145;300;291.1;100;100.0;0;0.9;28.6;-1.0;
23/07/2019 08:15:16;115;2560;216.28;16;-31.73;-0.98;3.1;18.80;70571;4847.694;-13018.569;145;300;289.1;100;99.9;0;0.9;28.6;-1.0;
23/07/2019 08:15:26;116;2560;204.99;16;-36.25;5.51;3.1;18.80;70571;4847.696;-13018.571;145;300;289.1;100;99.9;0;0.9;28.6;-1.0;
23/07/2019 08:15:46;115;2560;209.85;16;-37.00;-0.73;3.1;18.80;70571;4847.696;-13018.571;145;300;289.1;100;99.9;0;0.9;28.6;-1.0;
23/07/2019 08:15:56;115;2560;205.29;16;-32.09;8.41;3.1;18.80;70563;4847.696;-13018.571;145;300;289.1;100;99.9;0;0.9;28.6;-1.0;
23/07/2019 08:16:06;116;2560;221.34;16;-32.48;6.56;3.1;18.80;70573;4847.697;-13018.572;145;300;289.1;100;99.9;0;0.9;28.6;-1.0;
23/07/2019 08:16:26;115;2560;215.27;16;-39.88;3.31;3.0;18.80;70569;4847.697;-13018.572;145;300;289.1;100;99.9;0;0.9;28.6;-1.0;
23/07/2019 08:16:36;115;2560;220.30;16;-38.81;3.75;3.3;18.80;70569;4847.697;-13018.572;145;300;289.1;100;99.9;0;0.9;28.6;-1.0;
23/07/2019 08:16:46;116;2560;228.62;16;-40.02;5.90;3.1;18.80;70575;4847.699;-13018.573;145;300;289.1;100;99.9;0;0.9;28.6;-1.0;
23/07/2019 08:17:06;115;2560;212.73;16;-34.32;2.07;3.1;18.80;70573;4847.699;-13018.573;145;300;289.1;100;99.9;0;0.9;28.6;-1.0;
23/07/2019 08:17:16;115;2560;223.69;16;-32.36;1.04;3.0;18.80;70578;4847.699;-13018.573;145;300;289.1;100;99.9;0;0.9;28.6;-1.0;
23/07/2019 08:17:26;116;2560;210.38;16;-33.76;2.07;3.2;18.80;70575;4847.701;-13018.574;145;300;289.1;100;99.9;0;0.9;28.6;-1.0;
23/07/2019 08:17:46;115;2560;202.79;16;-34.40;5.83;3.1;18.80;70578;4847.701;-13018.574;145;300;289.1;100;99.9;0;1.4;28.6;-1.0;
23/07/2019 08:17:56;115;2560;205.63;16;-38.01;0.49;3.1;18.80;70575;4847.701;-13018.574;145;300;289.1;100;99.9;0;0.9;28.6;-1.0;
23/07/2019 08:18:06;116;2560;196.55;16;-37.47;10.89;3.1;18.80;70570;4847.702;-13018.576;145;300;289.1;100;100.0;0;0.9;28.6;-1.0;
23/07/2019 08:18:26;115;2560;196.57;16;-42.53;1.56;3.1;18.80;70590;4847.702;-13018.576;145;300;289.1;100;100.0;0;0.9;28.6;-1.0;
23/07/2019 08:18:36;115;2560;226.83;16;-32.69;3.51;3.1;18.80;70573;4847.702;-13018.576;145;300;289.1;100;99.9;0;0.9;28.6;-1.0;
23/07/2019 08:18:46;116;2560;236.63;16;-33.07;7.91;3.0;18.80;70584;4847.704;-13018.577;145;300;291.1;100;99.9;0;1.4;28.6;-1.0;
23/07/2019 08:19:06;115;2560;228.15;16;-34.46;-0.22;3.1;18.90;70579;4847.704;-13018.577;145;300;291.1;100;99.9;0;0.9;28.6;-1.0;
23/07/2019 08:19:16;115;2560;230.01;16;-33.71;6.68;3.0;18.80;70584;4847.704;-13018.577;145;300;289.1;100;99.9;0;0.9;28.6;-1.0;
23/07/2019 08:19:26;116;2560;226.41;16;-31.65;5.37;3.1;18.90;70582;4847.705;-13018.578;145;300;289.1;100;99.9;0;0.9;28.6;-1.0;
23/07/2019 08:19:46;115;2560;239.96;16;-32.59;1.01;3.1;18.90;70587;4847.705;-13018.578;145;300;289.1;100;100.0;0;1.4;28.6;-1.0;
23/07/2019 08:19:56;115;2560;229.17;16;-33.98;5.87;3.0;18.80;70573;4847.705;-13018.578;145;300;289.1;100;99.9;0;0.9;28.6;-1.0;
23/07/2019 08:20:06;116;2560;240.07;16;-34.52;2.12;3.1;18.90;70579;4847.707;-13018.580;145;300;289.1;100;99.9;0;0.9;28.6;-1.0;
23/07/2019 08:20:26;115;2560;213.14;16;-39.28;-1.72;3.1;18.90;70589;4847.707;-13018.580;145;300;289.1;100;99.9;0;1.4;28.6;-1.0;
23/07/2019 08:20:36;115;2560;239.44;16;-30.43;4.24;3.1;18.90;70590;4847.707;-13018.580;145;300;289.1;100;99.9;0;0.9;28.6;-1.0;
23/07/2019 08:20:46;116;2560;216.10;16;-31.82;9.08;3.1;18.90;70590;4847.710;-13018.580;145;300;289.1;100;99.9;0;1.4;28.6;-1.0;
23/07/2019 08:21:06;115;2560;205.21;16;-36.71;6.22;3.1;18.90;70601;4847.710;-13018.580;145;300;289.1;100;100.0;0;1.4;28.6;-1.0;
23/07/2019 08:21:16;115;2560;200.77;16;-35.28;0.64;3.1;18.90;70590;4847.710;-13018.580;145;300;289.1;100;100.0;0;0.9;28.6;-1.0;
23/07/2019 08:21:26;116;2560;197.03;16;-29.18;7.56;3.0;18.90;70603;4847.712;-13018.581;145;300;291.1;100;99.9;0;0.9;28.6;-1.0;
23/07/2019 08:21:46;115;2560;186.89;16;-31.50;3.42;3.0;18.90;70603;4847.712;-13018.581;145;300;289.1;100;100.0;0;0.9;28.6;-1.0;
23/07/2019 08:21:56;115;2560;182.06;16;-37.89;6.68;3.0;18.90;70604;4847.712;-13018.581;145;300;289.1;100;100.0;0;0.9;28.6;-1.0;
23/07/2019 08:22:06;116;2560;193.36;16;-38.95;-1.65;3.1;18.90;70604;4847.713;-13018.583;145;300;289.1;100;100.0;0;1.4;28.6;-1.0;
23/07/2019 08:22:26;115;2560;208.71;16;-34.19;4.57;3.0;18.90;70600;4847.713;-13018.583;145;300;289.1;100;99.9;0;0.9;28.6;-1.0;
23/07/2019 08:22:36;115;2560;214.03;16;-31.86;7.21;3.1;18.90;70597;4847.713;-13018.583;145;300;289.1;100;99.9;0;0.9;28.6;-1.0;
23/07/2019 08:22:46;116;2560;199.97;16;-36.95;11.23;3.2;18.90;70603;4847.715;-13018.584;145;300;289.1;100;99.9;0;0.9;28.6;-1.0;
23/07/2019 08:23:06;115;2560;209.29;16;-36.16;7.71;3.0;18.90;70604;4847.715;-13018.584;145;300;289.1;100;99.9;0;0.9;28.6;-1.0;
23/07/2019 08:23:16;115;2560;209.66;16;-30.33;6.45;3.0;18.90;70591;4847.715;-13018.584;145;300;289.1;100;99.9;0;1.4;28.6;-1.0;
23/07/2019 08:23:26;116;2560;204.85;16;-37.43;8.56;3.1;18.90;70603;4847.717;-13018.585;145;300;291.1;100;99.9;0;1.4;28.6;-1.0;
23/07/2019 08:23:46;115;2560;216.62;16;-37.32;9.98;3.1;18.90;70602;4847.717;-13018.585;145;300;289.1;100;100.0;0;0.9;28.6;-1.0;
23/07/2019 08:23:56;115;2560;230.84;16;-36.70;2.14;3.1;18.90;70599;4847.717;-13018.585;145;300;289.1;100;99.9;0;0.9;28.6;-1.0;
23/07/2019 08:24:06;116;2560;231.06;16;-34.19;2.74;3.0;18.90;70606;4847.719;-13018.585;145;300;287.1;100;99.9;0;0.9;28.6;-1.0;
23/07/2019 08:24:26;115;2560;217.86;16;-38.05;4.14;3.0;18.90;70604;4847.719;-13018.585;145;300;291.1;100;99.9;0;0.9;28.5;-1.0;
23/07/2019 08:24:36;115;2560;218.27;16;-39.35;6.50;3.1;18.90;70602;4847.719;-13018.585;145;300;289.1;100;100.0;0;0.9;28.6;-1.0;
23/07/2019 08:24:46;116;2560;213.77;16;-36.84;-1.37;3.1;18.90;70604;4847.721;-13018.587;145;300;289.1;100;99.9;0;0.9;28.6;-1.0;
23/07/2019 08:25:06;115;2560;205.32;16;-34.82;3.09;3.1;18.90;70604;4847.721;-13018.587;145;300;289.1;100;99.9;0;0.9;28.5;-1.0;
23/07/2019 08:25:16;115;2560;211.71;16;-31.79;5.64;3.0;18.90;70610;4847.721;-13018.587;145;300;289.1;100;99.9;0;0.9;28.6;-1.0;
23/07/2019 08:25:26;116;2560;190.72;16;-37.27;7.79;3.1;18.90;70610;4847.724;-13018.589;145;300;289.1;100;99.9;0;0.9;28.6;-1.0;
23/07/2019 08:25:46;115;2560;201.80;16;-38.87;3.73;3.3;18.90;70604;4847.724;-13018.589;145;300;289.1;100;99.9;0;1.4;28.6;-1.0;
23/07/2019 08:25:56;115;2560;208.02;16;-38.21;5.08;3.2;18.90;70612;4847.724;-13018.589;145;300;289.1;100;99.9;0;0.9;28.6;-1.0;
23/07/2019 08:26:06;116;2560;193.86;16;-32.56;6.07;3.0;18.90;70612;4847.726;-13018.590;145;300;289.1;100;99.9;0;0.9;28.6;-1.0;
23/07/2019 08:26:26;115;2560;207.63;16;-32.99;0.99;3.1;18.90;70624;4847.726;-13018.590;145;300;289.1;100;99.9;0;0.9;28.6;-1.0;
23/07/2019 08:26:36;115;2560;213.47;16;-37.20;5.75;3.1;18.90;70612;4847.726;-13018.590;145;300;289.1;100;99.9;0;0.9;28.6;-1.0;
23/07/2019 08:26:46;116;2560;208.15;16;-37.01;7.02;3.1;18.90;70614;4847.726;-13018.589;145;300;289.1;100;100.0;0;1.4;28.6;-1.0;
23/07/2019 08:27:06;115;2560;203.65;16;-34.23;-1.18;3.1;18.90;70611;4847.726;-13018.589;145;300;289.1;100;99.9;0;0.9;28.6;-1.0;
23/07/2019 08:27:16;115;2560;197.18;16;-33.03;4.29;3.2;18.90;70614;4847.726;-13018.589;145;300;289.1;100;100.0;0;0.9;28.6;-1.0;
23/07/2019 08:27:26;116;2560;203.40;16;-36.63;5.25;3.1;18.90;70611;4847.728;-13018.589;145;300;289.1;100;99.9;0;0.9;28.6;-1.0;
23/07/2019 08:27:46;115;2560;205.01;16;-33.23;2.98;3.1;18.90;70617;4847.728;-13018.589;145;300;289.1;100;99.9;0;0.9;28.6;-1.0;
23/07/2019 08:27:56;115;2560;192.49;16;-32.05;10.61;3.1;18.90;70611;4847.728;-13018.589;145;300;289.1;100;99.9;0;0.9;28.6;-1.0;
23/07/2019 08:28:06;116;2560;189.85;16;-34.57;3.98;3.1;18.90;70620;4847.731;-13018.589;145;300;289.1;100;99.9;0;1.4;28.6;-1.0;
23/07/2019 08:28:26;115;2560;202.51;16;-33.84;0.18;3.1;19.00;70625;4847.731;-13018.589;145;300;289.1;100;100.0;0;0.9;28.6;-1.0;
23/07/2019 08:28:36;115;2560;189.94;16;-37.47;3.12;3.1;19.00;70617;4847.731;-13018.589;145;300;289.1;100;99.9;0;1.4;28.6;-1.0;
23/07/2019 08:28:46;116;2560;184.26;16;-38.02;6.71;3.1;19.00;70631;4847.731;-13018.592;145;300;289.1;100;99.9;0;0.9;28.6;-1.0;
23/07/2019 08:29:06;115;2560;198.12;16;-33.77;1.74;3.0;19.00;70620;4847.731;-13018.592;145;300;289.1;100;99.9;0;0.9;28.6;-1.0;
23/07/2019 08:29:16;115;2560;194.69;16;-30.11;8.43;3.0;19.00;70620;4847.731;-13018.592;145;300;289.1;100;100.0;0;1.4;28.6;-1.0;
23/07/2019 08:29:26;116;2560;194.08;16;-30.43;1.37;3.0;19.00;70617;4847.731;-13018.593;145;300;289.1;100;99.9;0;0.9;28.6;-1.0;
23/07/2019 08:29:46;115;2560;189.26;16;-42.17;14.20;3.1;19.00;70622;4847.731;-13018.593;145;300;289.1;100;100.0;0;0.9;28.6;-1.0;
23/07/2019 08:29:56;115;2560;212.46;16;-35.30;8.35;3.1;19.00;70617;4847.731;-13018.593;145;300;287.1;100;99.9;0;0.9;28.6;-1.0;
23/07/2019 08:30:06;116;2560;191.75;16;-30.90;4.69;3.0;19.00;70620;4847.734;-13018.593;145;300;289.1;100;99.9;0;0.9;28.6;-1.0;
23/07/2019 08:30:26;115;2560;177.48;16;-35.10;0.03;3.1;19.00;70627;4847.734;-13018.593;145;300;289.1;100;99.9;0;0.9;28.6;-1.0;
23/07/2019 08:30:36;115;2560;170.41;16;-39.15;6.67;3.1;19.00;70627;4847.734;-13018.593;145;300;289.1;100;99.9;0;0.9;28.6;-1.0;
23/07/2019 08:30:46;116;2560;189.74;16;-34.95;8.94;3.1;19.00;70630;4847.734;-13018.594;145;300;289.1;100;100.0;0;0.9;28.6;-1.0;
23/07/2019 08:31:06;115;2560;204.01;16;-33.23;3.52;3.1;19.00;70627;4847.734;-13018.594;145;300;287.1;100;100.0;0;1.4;28.6;-1.0;
23/07/2019 08:31:16;115;2560;185.58;16;-33.04;3.93;3.0;19.00;70625;4847.734;-13018.594;145;300;289.1;100;99.9;0;0.9;28.6;-1.0;
23/07/2019 08:31:26;116;2560;171.70;16;-28.37;1.46;2.9;19.00;70627;4847.736;-13018.595;145;300;289.1;100;99.9;0;0.9;28.6;-1.0;
23/07/2019 08:31:46;115;2560;162.02;16;-40.20;1.70;3.1;19.00;70624;4847.736;-13018.595;145;300;287.1;100;99.9;0;0.9;28.6;-1.0;
23/07/2019 08:31:56;115;2560;172.38;16;-37.68;7.61;3.1;19.00;70630;4847.736;-13018.595;145;300;287.1;100;100.0;0;0.9;28.6;-1.0;
23/07/2019 08:32:06;116;2560;169.71;16;-28.53;10.30;3.0;19.00;70622;4847.736;-13018.597;145;300;289.1;100;99.9;0;0.9;28.6;-1.0;
23/07/2019 08:32:26;115;2560;188.26;16;-32.94;1.50;3.1;19.00;70626;4847.736;-13018.597;145;300;289.1;100;99.9;0;0.9;28.6;-1.0;
23/07/2019 08:32:36;115;2560;183.65;16;-35.92;0.49;3.2;19.00;70630;4847.736;-13018.597;145;300;289.1;100;99.9;0;0.9;28.6;-1.0;
23/07/2019 08:32:46;116;2560;175.08;16;-39.80;5.40;3.1;19.00;70630;4847.737;-13018.598;145;300;289.1;100;100.0;0;0.9;28.6;-1.0;
23/07/2019 08:33:06;115;2560;210.40;16;-32.05;0.28;3.0;19.00;70629;4847.737;-13018.598;145;300;289.1;100;99.9;0;0.9;28.6;-1.0;
23/07/2019 08:33:16;115;2560;204.11;16;-29.21;3.84;2.9;19.00;70633;4847.737;-13018.598;145;300;289.1;100;100.0;0;0.9;28.6;-1.0;
23/07/2019 08:33:26;116;2560;213.26;16;-33.72;0.72;2.9;19.00;70632;4847.737;-13018.600;145;300;287.1;100;99.9;0;1.4;28.6;-1.0;
23/07/2019 08:33:46;115;2560;185.63;16;-33.75;9.79;3.1;19.00;70629;4847.737;-13018.600;145;300;287.1;100;99.9;0;0.9;28.6;-1.0;
23/07/2019 08:33:56;115;2560;206.42;16;-43.96;2.36;3.2;19.00;70630;4847.737;-13018.600;145;300;287.1;100;99.9;0;0.9;28.6;-1.0;
23/07/2019 08:34:06;116;2560;200.62;16;-38.92;3.99;3.2;19.00;70633;4847.738;-13018.601;145;300;289.1;100;99.9;0;1.4;28.6;-1.0;
23/07/2019 08:34:26;115;2560;186.96;16;-33.52;1.72;3.0;19.00;70630;4847.738;-13018.601;145;300;289.1;100;100.0;0;0.9;28.6;-1.0;
23/07/2019 08:34:36;115;2560;177.91;16;-35.51;8.27;3.1;19.00;70633;4847.738;-13018.601;145;300;289.1;100;99.9;0;0.9;28.6;-1.0;
23/07/2019 08:34:46;116;2560;179.26;16;-39.57;8.04;3.1;19.00;70642;4847.739;-13018.603;145;300;291.1;100;100.0;0;0.9;28.6;-1.0;
23/07/2019 08:35:06;115;2560;198.03;16;-33.48;3.30;3.1;19.00;70636;4847.739;-13018.603;145;300;289.1;100;100.0;0;0.9;28.6;-1.0;
23/07/2019 08:35:16;115;2560;197.52;16;-35.85;12.73;3.0;19.00;70633;4847.739;-13018.603;145;300;287.1;100;99.9;0;0.9;28.6;-1.0;
23/07/2019 08:35:26;116;2560;190.63;16;-29.95;12.78;3.0;19.00;70629;4847.740;-13018.604;145;300;289.1;100;99.9;0;0.9;28.6;-1.0;
23/07/2019 08:35:47;115;2560;178.02;16;-31.48;6.38;3.2;19.00;70636;4847.740;-13018.604;145;300;287.1;100;100.0;0;0.9;28.6;-1.0;
23/07/2019 08:35:57;115;2560;191.60;16;-35.76;5.53;3.1;19.00;70647;4847.740;-13018.604;145;300;289.1;100;99.9;0;0.9;28.6;-1.0;
23/07/2019 08:36:07;116;2560;198.68;16;-32.65;5.79;3.0;19.00;70642;4847.740;-13018.606;145;300;289.1;100;100.0;0;0.9;28.6;-1.0;
23/07/2019 08:36:27;115;2560;210.07;16;-34.15;1.67;3.0;19.00;70644;4847.740;-13018.606;145;300;287.1;100;99.9;0;0.9;28.6;-1.0;
23/07/2019 08:36:37;115;2560;190.95;16;-35.08;5.06;3.1;19.00;70639;4847.740;-13018.606;145;300;289.1;100;99.9;0;0.9;28.6;-1.0;
23/07/2019 08:36:47;116;2560;180.15;16;-35.96;-2.07;3.0;19.00;70636;4847.742;-13018.607;145;300;289.1;100;100.0;0;0.9;28.6;-1.0;
23/07/2019 08:37:07;115;2560;186.42;16;-33.80;3.47;3.1;19.00;70641;4847.742;-13018.607;145;300;289.1;100;99.9;0;0.9;28.6;-1.0;
23/07/2019 08:37:17;115;2560;171.15;16;-42.80;-6.59;3.2;19.00;70644;4847.742;-13018.607;145;300;289.1;100;99.9;0;0.9;28.6;-1.0;
23/07/2019 08:37:27;116;2560;195.04;16;-34.91;8.79;3.1;19.00;70646;4847.744;-13018.607;145;300;287.1;100;100.0;0;0.9;28.6;-1.0;
23/07/2019 08:37:47;115;2560;192.29;16;-35.55;-0.02;3.1;19.00;70646;4847.744;-13018.607;145;300;287.1;100;99.9;0;0.9;28.6;-1.0;
23/07/2019 08:37:57;115;2560;197.67;16;-32.20;7.33;3.1;19.00;70646;4847.744;-13018.607;145;300;287.1;100;99.9;0;0.9;28.6;-1.0;
23/07/2019 08:38:07;116;2560;198.87;16;-37.88;0.09;3.2;19.00;70646;4847.744;-13018.608;145;300;289.1;100;99.9;0;0.9;28.6;-1.0;
23/07/2019 08:38:27;115;2560;201.94;16;-29.74;-1.46;2.9;19.00;70650;4847.744;-13018.608;145;300;289.1;100;99.9;0;1.4;28.6;-1.0;
23/07/2019 08:38:37;115;2560;193.96;16;-32.65;11.08;3.0;19.00;70641;4847.744;-13018.608;145;300;289.1;100;99.9;0;0.9;28.6;-1.0;
23/07/2019 08:38:47;116;2560;206.26;16;-38.06;1.17;3.1;19.00;70652;4847.745;-13018.608;145;300;287.1;100;99.9;0;0.9;28.6;-1.0;
23/07/2019 08:39:07;115;2560;205.60;16;-36.02;1.73;3.0;19.10;70657;4847.745;-13018.608;145;300;289.1;100;99.9;0;0.9;28.6;-1.0;
23/07/2019 08:39:17;115;2560;209.70;16;-29.86;4.16;3.0;19.10;70657;4847.745;-13018.608;145;300;289.1;100;99.9;0;0.9;28.6;-1.0;
23/07/2019 08:39:27;116;2560;201.66;16;-33.26;6.57;3.1;19.00;70652;4847.747;-13018.609;145;300;289.1;100;100.0;0;1.4;28.6;-1.0;
23/07/2019 08:39:47;115;2560;215.10;16;-38.43;-1.59;3.2;19.10;70651;4847.747;-13018.609;145;300;287.1;100;99.9;0;0.9;28.6;-1.0;
23/07/2019 08:39:57;115;2560;209.49;16;-38.89;1.74;3.1;19.00;70649;4847.747;-13018.609;145;300;287.1;100;100.0;0;0.9;28.6;-1.0;
23/07/2019 08:40:07;116;2560;214.95;16;-33.39;2.97;3.1;19.10;70651;4847.749;-13018.608;145;300;287.1;100;99.9;0;0.9;28.6;-1.0;
23/07/2019 08:40:27;115;2560;201.16;16;-34.80;7.56;3.1;19.10;70650;4847.749;-13018.608;145;300;289.1;100;99.9;0;0.9;28.6;-1.0;
23/07/2019 08:40:37;115;2560;190.92;16;-38.62;7.33;3.1;19.00;70649;4847.749;-13018.608;145;300;287.1;100;100.0;0;0.9;28.6;-1.0;
23/07/2019 08:40:47;116;2560;191.98;16;-35.68;8.42;3.2;19.10;70651;4847.751;-13018.608;145;300;287.1;100;99.9;0;0.9;28.6;-1.0;
23/07/2019 08:41:07;115;2560;223.30;16;-32.07;-0.35;3.1;19.10;70650;4847.751;-13018.608;145;300;287.1;100;99.9;0;1.4;28.6;-1.0;
23/07/2019 08:41:17;115;2560;212.79;16;-32.38;10.62;3.0;19.10;70656;4847.751;-13018.608;145;300;287.1;100;99.9;0;1.4;28.6;-1.0;
23/07/2019 08:41:27;116;2560;228.60;16;-39.73;8.98;3.0;19.10;70653;4847.752;-13018.609;145;300;289.1;100;99.9;0;1.4;28.6;-1.0;
23/07/2019 08:41:47;115;2560;239.90;16;-34.68;3.42;3.1;19.10;70658;4847.752;-13018.609;145;300;287.1;100;100.0;0;1.4;28.6;-1.0;
23/07/2019 08:41:57;115;2560;230.74;16;-37.41;4.71;3.1;19.10;70659;4847.752;-13018.609;145;300;287.1;100;100.0;0;0.9;28.6;-1.0;
23/07/2019 08:42:07;116;2560;228.76;16;-34.83;3.59;3.2;19.10;70653;4847.753;-13018.609;145;300;289.1;100;99.9;0;0.9;28.6;-1.0;
23/07/2019 08:42:27;115;2560;222.37;16;-32.07;-2.39;3.1;19.10;70659;4847.753;-13018.609;145;300;289.1;100;100.0;0;1.4;28.6;-1.0;
23/07/2019 08:42:37;115;2560;203.62;16;-38.16;-2.38;3.1;19.10;70653;4847.753;-13018.609;145;300;289.1;100;99.9;0;1.4;28.6;-1.0;
23/07/2019 08:42:47;116;2560;211.01;16;-31.62;0.66;3.0;19.10;70659;4847.755;-13018.610;145;300;287.1;100;99.9;0;0.9;28.6;-1.0;
23/07/2019 08:43:07;115;2560;207.43;16;-38.46;2.15;3.1;19.10;70653;4847.755;-13018.610;145;300;289.1;100;99.9;0;0.9;28.6;-1.0;
23/07/2019 08:43:17;115;2560;218.32;16;-32.53;10.99;3.1;19.10;70655;4847.755;-13018.610;145;300;287.1;100;100.0;0;0.9;28.6;-1.0;
23/07/2019 08:43:27;116;2560;229.36;16;-33.57;2.72;3.0;19.10;70655;4847.756;-13018.609;145;300;287.1;100;99.9;0;0.9;28.6;-1.0;
23/07/2019 08:43:47;115;2560;206.95;16;-35.64;4.05;3.1;19.10;70660;4847.756;-13018.609;145;300;287.1;100;99.9;0;0.9;28.6;-1.0;
23/07/2019 08:43:57;115;2560;196.35;16;-38.01;0.90;3.2;19.10;70655;4847.756;-13018.609;145;300;287.1;100;100.0;0;0.9;28.6;-1.0;
23/07/2019 08:44:07;116;2560;193.55;16;-39.77;-2.04;3.1;19.10;70660;4847.757;-13018.608;145;300;287.1;100;99.9;0;1.4;28.6;-1.0;
23/07/2019 08:44:27;115;2560;187.56;16;-38.14;-4.29;3.2;19.10;70663;4847.757;-13018.608;145;300;289.1;100;99.9;0;0.9;28.6;-1.0;
23/07/2019 08:44:37;115;2560;191.80;16;-36.52;3.79;3.1;19.10;70659;4847.757;-13018.608;145;300;287.1;100;100.0;0;0.9;28.6;-1.0;
23/07/2019 08:44:47;116;2560;181.51;16;-37.00;2.47;3.1;19.10;70663;4847.758;-13018.610;145;300;287.1;100;100.0;0;0.9;28.6;-1.0;
23/07/2019 08:45:07;115;2560;204.93;16;-32.02;10.37;3.1;19.10;70665;4847.758;-13018.610;145;300;289.1;100;99.9;0;0.9;28.6;-1.0;
23/07/2019 08:45:17;115;2560;214.25;16;-32.85;1.12;3.1;19.10;70663;4847.758;-13018.610;145;300;287.1;100;99.9;0;0.9;28.6;-1.0;
23/07/2019 08:45:27;116;2560;221.92;16;-37.33;-2.99;3.1;19.10;70660;4847.760;-13018.609;145;300;289.1;100;99.9;0;1.4;28.6;-1.0;
23/07/2019 08:45:47;115;2560;222.08;16;-35.71;16.37;3.1;19.10;70671;4847.760;-13018.609;145;300;287.1;100;100.0;0;0.9;28.6;-1.0;
23/07/2019 08:45:57;115;2560;216.45;16;-36.07;7.43;3.1;19.10;70663;4847.760;-13018.609;145;300;289.1;100;99.9;0;0.9;28.6;-1.0;
