Timestamp;NavState;SecurityLevel;Heading;Declination;Pitch;Roll;Depth;Temperature;Pa;Lat;Lon;DeadReckoning;DesiredH;BallastCmd;BallastPos;LinCmd;LinPos;AngCmd;AngPos;Voltage;Altitude;
07/04/2021 18:36:43;117;0;137.33;-17;18.39;-2.56;7.6;3.30;72189;4420.384;-6319.950;1;136;500;508.9;17.6;17.4;2;1.4;29.0;-1.0;
07/04/2021 18:37:03;110;0;137.60;-17;18.94;-1.97;5.0;3.30;72179;4420.382;-6319.947;1;136;-225;483.2;32.7;31.1;2;1.4;29.1;-1.0;
07/04/2021 18:37:13;110;0;139.19;-17;0.13;-2.32;4.0;3.20;72529;4420.382;-6319.946;1;136;-225;283.2;32.7;32.9;2;1.4;28.9;-1.0;
07/04/2021 18:37:23;110;0;141.25;-17;-14.25;-2.66;4.4;3.30;72863;4420.381;-6319.946;1;136;-225;81.2;32.7;33.5;2;1.4;28.9;-1.0;
07/04/2021 18:37:33;110;0;138.75;-17;-16.47;-2.35;5.2;3.30;73225;4420.380;-6319.945;1;136;-225;-130.7;32.7;33.7;2;1.4;29.0;-1.0;
07/04/2021 18:37:43;110;0;141.20;-17;-18.27;-2.38;6.5;3.30;73470;4420.379;-6319.943;1;136;-225;-225.7;32.7;33.7;2;1.4;29.0;-1.0;
07/04/2021 18:38:03;100;0;139.58;-17;-20.92;-2.45;10.1;3.20;73441;4420.376;-6319.939;1;136;-225;-229.7;32.7;33.8;2;1.4;29.0;-1.0;
07/04/2021 18:38:23;100;0;143.05;-17;-20.76;-2.75;14.2;3.20;73444;4420.371;-6319.935;1;136;-225;-229.7;32.2;31.9;14;14.0;29.1;0.0;
07/04/2021 18:38:43;100;0;142.69;-17;-17.85;4.23;18.1;3.20;73444;4420.367;-6319.930;1;136;-225;-229.7;32.2;31.9;14;14.4;29.1;0.0;
07/04/2021 18:39:03;100;0;139.11;-17;-16.98;4.34;21.7;3.30;73438;4420.363;-6319.926;1;136;-225;-229.7;32.5;32.6;9;9.0;29.0;0.0;
07/04/2021 18:39:23;100;0;137.14;-17;-17.59;1.08;25.2;3.20;73427;4420.360;-6319.921;1;136;-225;-229.7;32.5;32.6;7;6.8;29.0;0.0;
07/04/2021 18:39:43;100;0;137.71;-17;-17.73;-0.22;28.7;3.20;73439;4420.356;-6319.916;1;136;-225;-231.7;32.5;32.6;7;6.3;29.1;0.0;
07/04/2021 18:40:03;100;0;137.03;-17;-17.42;-0.17;32.3;3.20;73444;4420.353;-6319.912;1;136;-225;-229.7;32.5;32.5;7;6.3;29.1;0.0;
07/04/2021 18:40:23;100;0;136.86;-17;-17.50;-0.16;35.8;3.20;73440;4420.349;-6319.907;1;136;-225;-229.7;32.5;32.6;7;6.3;29.0;0.0;
07/04/2021 18:40:43;100;0;136.90;-17;-17.61;-0.05;39.3;3.30;73465;4420.345;-6319.902;1;136;-225;-231.7;32.5;32.5;7;6.3;29.0;0.0;
07/04/2021 18:41:03;100;0;136.06;-17;-16.94;-0.21;42.9;3.20;73461;4420.342;-6319.897;1;136;-225;-229.7;32.9;33.1;5;5.0;29.0;0.0;
07/04/2021 18:41:23;100;0;135.62;-17;-18.14;-1.08;46.3;3.30;73462;4420.338;-6319.893;1;136;-225;-229.7;32.9;33.2;5;4.5;29.1;0.0;
07/04/2021 18:41:43;100;0;136.03;-17;-18.14;-1.14;50.1;3.20;73464;4420.335;-6319.888;1;136;-225;-229.7;32.9;33.2;5;4.5;29.0;0.0;
07/04/2021 18:42:03;100;0;137.19;-17;-18.15;-1.03;53.9;3.20;73464;4420.331;-6319.883;1;136;-225;-229.7;32.9;33.2;7;7.7;29.0;0.0;
07/04/2021 18:42:23;100;0;139.75;-17;-18.03;0.71;57.7;3.20;73469;4420.327;-6319.878;1;136;-225;-231.7;32.9;33.2;10;9.9;29.0;0.0;
07/04/2021 18:42:43;100;0;139.54;-17;-17.70;2.29;61.5;3.30;73457;4420.323;-6319.873;1;136;-225;-231.7;32.9;33.2;10;10.8;29.0;0.0;
07/04/2021 18:43:03;100;0;140.31;-17;-17.56;2.14;65.1;3.20;73440;4420.319;-6319.869;1;136;-225;-229.7;32.9;33.2;10;10.8;29.0;41.5;
07/04/2021 18:43:23;100;0;137.19;-17;-16.60;2.18;68.7;3.20;73440;4420.315;-6319.864;1;136;-225;-229.7;33.3;33.2;7;7.2;29.0;36.8;
07/04/2021 18:43:43;100;0;136.77;-17;-17.21;0.01;71.9;3.20;73451;4420.312;-6319.860;1;136;-225;-229.7;33.3;33.2;7;6.8;29.1;33.3;
07/04/2021 18:44:03;100;0;134.71;-17;-15.85;0.30;75.3;3.20;73471;4420.309;-6319.855;1;136;-225;-231.7;33.8;34.0;4;4.1;29.0;29.6;
07/04/2021 18:44:23;100;0;136.62;-17;-17.66;-1.65;78.6;3.20;73500;4420.305;-6319.850;1;136;-225;-229.7;33.8;34.1;6;5.9;29.0;24.5;
07/04/2021 18:44:43;100;0;137.49;-17;-17.94;-0.07;81.9;3.20;73525;4420.302;-6319.846;1;136;-225;-233.7;33.8;34.1;6;6.8;29.0;19.8;
07/04/2021 18:45:03;100;0;137.29;-17;-17.45;0.03;85.3;3.20;73537;4420.298;-6319.842;1;136;-225;-231.7;33.8;34.1;6;6.8;29.0;15.5;
07/04/2021 18:45:23;100;0;136.67;-17;-17.50;0.09;88.6;3.20;73555;4420.295;-6319.837;1;136;-225;-229.7;33.8;34.1;6;6.8;29.0;12.1;
07/04/2021 18:45:43;118;0;135.35;-17;-17.65;0.76;91.9;3.20;73568;4420.292;-6319.833;1;136;500;-231.7;18.9;21.0;-1;-0.9;29.1;8.9;
07/04/2021 18:45:53;118;0;135.35;-17;-0.41;-3.51;93.1;3.30;73508;4420.291;-6319.832;1;136;500;-168.3;18.9;18.5;-1;-0.9;29.0;-1.0;
07/04/2021 18:46:03;118;0;135.35;-17;16.17;-3.84;93.1;3.30;73251;4420.291;-6319.832;1;136;500;-13.9;18.9;18.9;-1;-1.4;28.6;-1.0;
07/04/2021 18:46:13;118;0;135.35;-17;20.53;-3.78;92.9;3.30;73001;4420.291;-6319.832;1;136;500;136.6;18.9;19.1;-1;-1.4;28.6;-1.0;
07/04/2021 18:46:23;118;0;135.35;-17;18.17;-3.92;92.6;3.30;72754;4420.291;-6319.831;1;136;500;285.1;18.9;19.1;-1;-1.4;28.6;-1.0;
07/04/2021 18:46:33;118;0;135.35;-17;17.05;-4.03;92.2;3.30;72515;4420.290;-6319.831;1;136;500;435.6;18.9;19.1;-1;-1.4;28.6;-1.0;
07/04/2021 18:46:43;118;0;135.35;-17;18.19;-3.75;91.2;3.30;72340;4420.290;-6319.830;1;136;500;503.0;18.9;19.1;-1;-0.9;28.6;-1.0;
07/04/2021 18:46:53;118;0;138.94;-17;19.38;-3.95;90.0;3.30;72347;4420.288;-6319.828;1;136;500;506.9;18.9;19.1;-1;-0.9;29.0;-1.0;
07/04/2021 18:47:13;117;0;137.73;-17;19.45;-3.98;87.2;3.30;72352;4420.286;-6319.825;1;136;500;506.9;19.6;19.5;-1;-1.4;29.0;-1.0;
07/04/2021 18:47:33;117;0;137.11;-17;18.16;-3.83;84.4;3.30;72352;4420.283;-6319.821;1;136;500;506.9;19.6;19.7;2;1.8;29.0;-1.0;
07/04/2021 18:47:53;117;0;138.29;-17;17.64;-1.86;81.5;3.40;72350;4420.280;-6319.817;1;136;500;506.9;19.6;19.7;0;0.0;29.0;-1.0;
07/04/2021 18:48:13;117;0;135.17;-17;17.78;-3.53;79.0;3.40;72336;4420.277;-6319.814;1;136;500;506.9;19.6;19.7;4;4.5;29.0;-1.0;
07/04/2021 18:48:33;117;0;138.24;-17;17.98;-0.22;76.4;3.40;72332;4420.275;-6319.811;1;136;500;506.9;19.6;19.7;0;0.0;29.0;-1.0;
07/04/2021 18:48:53;117;0;136.29;-17;17.44;-3.54;73.7;3.40;72325;4420.272;-6319.807;1;136;500;506.9;19.6;19.7;2;1.8;29.0;-1.0;
07/04/2021 18:49:13;117;0;138.32;-17;16.73;-2.02;71.1;3.40;72302;4420.269;-6319.803;1;136;500;506.9;18.9;18.9;0;0.0;29.0;-1.0;
07/04/2021 18:49:33;117;0;137.11;-17;17.98;-3.54;68.5;3.40;72285;4420.267;-6319.800;1;136;500;508.9;18.9;18.8;0;-0.5;29.0;-1.0;
07/04/2021 18:49:53;117;0;137.27;-17;17.62;-3.49;65.8;3.40;72254;4420.264;-6319.796;1;136;500;506.9;18.9;18.6;0;-0.5;29.0;-1.0;
07/04/2021 18:50:14;117;0;133.65;-17;17.58;-3.69;63.3;3.40;72237;4420.261;-6319.793;1;136;500;508.9;18.9;18.8;6;5.9;29.0;-1.0;
07/04/2021 18:50:34;117;0;135.37;-17;17.06;0.15;60.8;3.40;72222;4420.259;-6319.789;1;136;500;506.9;18.9;18.8;4;4.1;29.0;-1.0;
07/04/2021 18:50:54;117;0;133.49;-17;17.10;-1.50;58.5;3.30;72204;4420.257;-6319.786;1;136;500;506.9;18.9;18.6;6;5.9;29.0;-1.0;
07/04/2021 18:51:14;117;0;133.73;-17;17.08;0.19;56.0;3.30;72222;4420.254;-6319.783;1;136;500;506.9;18.9;18.6;6;6.3;29.1;-1.0;
07/04/2021 18:51:34;117;0;133.94;-17;16.92;0.10;53.6;3.30;72232;4420.252;-6319.779;1;136;500;505.0;18.2;18.2;6;6.3;29.0;-1.0;
07/04/2021 18:51:54;117;0;134.84;-17;18.14;0.18;51.2;3.30;72241;4420.249;-6319.776;1;136;500;506.9;18.2;18.0;4;4.1;29.0;-1.0;
07/04/2021 18:52:14;117;0;133.92;-17;18.33;-1.43;48.6;3.30;72254;4420.247;-6319.772;1;136;500;508.9;18.2;18.0;4;3.6;29.0;-1.0;
07/04/2021 18:52:34;117;0;133.87;-17;18.49;-1.31;46.1;3.30;72252;4420.245;-6319.769;1;136;500;506.9;18.2;18.0;4;3.6;29.1;-1.0;
07/04/2021 18:52:54;117;0;136.13;-17;18.11;-1.28;43.5;3.30;72245;4420.242;-6319.765;1;136;500;505.0;18.2;18.0;4;3.6;29.0;-1.0;
07/04/2021 18:53:14;117;0;137.21;-17;17.76;-1.37;40.9;3.30;72239;4420.239;-6319.762;1;136;500;508.9;18.2;18.0;1;0.9;29.0;-1.0;
07/04/2021 18:53:34;117;0;138.82;-17;17.68;-2.94;38.3;3.30;72237;4420.237;-6319.759;1;136;500;506.9;18.2;18.0;1;0.5;29.0;-1.0;
07/04/2021 18:53:54;117;0;138.31;-17;17.46;-3.07;35.7;3.30;72231;4420.234;-6319.755;1;136;500;506.9;18.2;18.0;1;0.5;29.1;-1.0;
07/04/2021 18:54:14;117;0;137.62;-17;17.51;-3.04;33.3;3.30;72219;4420.232;-6319.752;1;136;500;506.9;18.2;18.0;1;0.5;29.0;-1.0;
07/04/2021 18:54:34;117;0;136.74;-17;17.68;-3.03;30.9;3.30;72212;4420.229;-6319.749;1;136;500;506.9;18.2;18.0;1;0.5;29.0;-1.0;
07/04/2021 18:54:54;117;0;136.89;-17;17.57;-3.01;28.5;3.30;72201;4420.227;-6319.746;1;136;500;506.9;18.2;18.0;1;0.5;29.0;-1.0;
07/04/2021 18:55:14;117;0;136.11;-17;17.51;-3.07;26.0;3.30;72195;4420.224;-6319.742;1;136;500;506.9;18.2;18.0;3;3.2;29.0;-1.0;
07/04/2021 18:55:34;117;0;136.48;-17;17.46;-1.00;23.7;3.30;72188;4420.222;-6319.739;1;136;500;503.0;18.2;18.0;3;4.1;29.0;-1.0;
07/04/2021 18:55:54;117;0;135.82;-17;17.18;-1.07;21.4;3.30;72182;4420.219;-6319.736;1;136;500;506.9;18.2;18.0;3;4.1;29.0;-1.0;
07/04/2021 18:56:14;117;0;135.58;-17;17.24;-0.98;19.0;3.30;72167;4420.217;-6319.733;1;136;500;506.9;18.2;18.0;3;4.1;29.1;-1.0;
07/04/2021 18:56:34;117;0;136.18;-17;16.96;-1.02;16.6;3.30;72175;4420.215;-6319.729;1;136;500;506.9;17.5;17.4;3;4.1;29.0;-1.0;
07/04/2021 18:56:54;117;0;136.63;-17;19.10;-0.88;14.0;3.30;72164;4420.212;-6319.726;1;136;500;506.9;17.2;17.1;3;4.1;29.1;-1.0;
07/04/2021 18:57:14;117;0;140.42;-17;18.96;-0.63;11.5;3.30;72173;4420.210;-6319.723;1;136;500;506.9;17.2;17.1;-3;-3.2;29.0;-1.0;
