Timestamp;NavState;SecurityLevel;Heading;Declination;Pitch;Roll;Depth;Temperature;Pa;Lat;Lon;DeadReckoning;DesiredH;BallastCmd;BallastPos;LinCmd;LinPos;AngCmd;AngPos;Voltage;Altitude;
07/04/2021 14:30:20;117;0;149.09;-17;17.07;-2.79;9.4;4.90;73199;4422.383;-6319.787;1;151;350;362.4;18.7;18.2;2;0.9;29.2;-1.0;
07/04/2021 14:30:40;115;0;150.75;-17;17.15;-2.77;7.9;4.90;73189;4422.381;-6319.786;1;151;500;362.4;100.0;32.3;0;-0.5;29.2;-1.0;
07/04/2021 14:30:50;115;0;150.75;-17;-35.54;-3.55;7.4;4.90;73105;4422.381;-6319.786;1;151;500;431.7;100.0;100.0;0;-0.5;29.1;-1.0;
07/04/2021 14:31:00;115;0;150.75;-17;-73.94;-6.99;8.2;4.90;72915;4422.381;-6319.785;1;151;500;506.9;100.0;100.3;0;-0.5;28.9;-1.0;
07/04/2021 14:31:10;115;0;160.31;-17;-69.30;-10.94;6.5;4.90;72931;4422.380;-6319.785;1;151;500;505.0;100.0;100.3;0;-0.5;29.1;-1.0;
07/04/2021 14:31:30;116;0;209.68;-17;-76.59;-31.43;0.4;4.80;72930;4422.377;-6319.787;1;151;500;505.0;100.0;100.3;0;-0.5;29.1;-1.0;
07/04/2021 14:31:59;116;0;259.83;-17;-60.28;-2.14;0.1;4.80;72928;4422.337;-6320.073;0;151;500;506.9;100.0;100.3;0;-0.5;29.1;-1.0;
07/04/2021 14:32:19;116;0;328.50;-17;-55.65;-0.49;-0.0;4.90;72937;4422.336;-6320.072;0;151;500;506.9;100.0;100.4;0;-0.5;29.1;-1.0;
07/04/2021 14:32:39;116;0;7.63;-17;-65.60;-9.31;0.4;4.90;72938;4422.335;-6320.075;0;151;500;506.9;100.0;100.3;0;-0.5;29.1;-1.0;
07/04/2021 14:32:59;116;0;27.75;-17;-66.05;-19.06;0.4;5.00;72927;4422.334;-6320.077;0;151;500;508.9;100.0;100.4;0;-0.5;29.1;-1.0;
07/04/2021 14:33:19;116;0;28.54;-17;-60.92;-6.93;0.2;5.10;72936;4422.331;-6320.081;0;151;500;506.9;100.0;100.3;0;-0.5;29.1;-1.0;
07/04/2021 14:34:01;116;0;13.42;-17;-68.10;4.88;0.4;5.20;72930;4422.331;-6320.081;0;151;500;508.9;100.0;100.3;0;-0.5;29.2;-1.0;
07/04/2021 14:34:21;116;0;16.01;-17;-59.77;0.47;0.4;5.40;72931;4422.330;-6320.084;0;151;500;508.9;100.0;100.3;0;-0.5;29.1;-1.0;
07/04/2021 14:34:41;116;0;35.36;-17;-59.94;-13.16;0.3;5.50;72920;4422.315;-6320.103;0;151;500;506.9;100.0;100.3;0;-0.5;29.2;-1.0;
07/04/2021 14:38:02;116;0;16.98;-17;-61.61;1.69;0.4;6.10;72929;4422.315;-6320.104;0;151;500;506.9;100.0;100.3;0;-0.5;29.1;-1.0;
07/04/2021 14:38:22;116;0;20.48;-17;-65.37;-8.38;0.4;6.10;72925;4422.314;-6320.106;0;151;500;506.9;100.0;100.3;0;-0.5;29.1;-1.0;
07/04/2021 14:38:42;116;0;31.96;-17;-63.56;-11.49;0.4;6.20;72915;4422.309;-6320.109;0;151;500;506.9;100.0;100.3;0;-0.5;29.1;-1.0;
07/04/2021 14:39:14;116;0;34.89;-17;-63.86;-18.19;0.4;6.30;72922;4422.309;-6320.109;0;151;500;508.9;100.0;100.3;0;-0.5;29.1;-1.0;
07/04/2021 14:39:34;116;0;45.90;-17;-68.06;-31.30;0.3;6.40;72912;4422.310;-6320.111;0;151;500;506.9;100.0;100.4;0;-0.5;29.1;-1.0;
07/04/2021 14:39:54;116;0;27.70;-17;-66.90;-2.42;0.3;6.50;72913;4422.308;-6320.113;0;151;500;506.9;100.0;100.3;0;-0.5;29.2;-1.0;
07/04/2021 14:40:14;116;0;30.10;-17;-65.09;-21.92;0.4;6.50;72905;4422.307;-6320.114;0;151;500;506.9;100.0;100.4;0;-0.5;29.1;-1.0;
07/04/2021 14:40:34;116;0;31.61;-17;-63.11;-17.95;0.4;6.60;72898;4422.305;-6320.115;0;151;500;506.9;100.0;100.3;0;-0.5;29.1;-1.0;
07/04/2021 14:40:54;116;0;26.62;-17;-67.56;-5.26;0.4;6.60;72903;4422.297;-6320.118;0;151;500;506.9;100.0;100.3;0;-0.5;29.1;-1.0;
07/04/2021 14:41:14;116;0;28.44;-17;-60.56;4.54;0.2;6.60;72909;4422.297;-6320.118;0;151;500;506.9;100.0;100.3;0;-0.5;29.1;-1.0;
07/04/2021 14:41:34;116;0;38.53;-17;-64.90;-6.23;0.2;6.70;72908;4422.297;-6320.120;0;151;500;506.9;100.0;100.3;0;-0.5;29.2;-1.0;
07/04/2021 14:41:54;116;0;21.68;-17;-63.22;-9.05;0.4;6.70;72901;4422.296;-6320.122;0;151;500;508.9;100.0;100.3;0;-0.5;29.1;-1.0;
07/04/2021 14:42:14;116;0;26.10;-17;-66.31;-4.62;0.4;6.70;72898;4422.293;-6320.126;0;151;500;510.9;100.0;100.3;0;-0.5;29.1;-1.0;
07/04/2021 14:42:51;116;0;41.35;-17;-64.38;-16.61;0.4;6.70;72904;4422.293;-6320.128;0;151;500;506.9;100.0;100.3;0;-0.5;29.1;-1.0;
07/04/2021 14:43:11;116;0;19.52;-17;-66.84;-7.87;0.4;6.70;72898;4422.293;-6320.129;0;151;500;508.9;100.0;100.3;0;-0.5;29.1;-1.0;
07/04/2021 14:43:31;116;0;17.43;-17;-61.59;-2.82;0.4;6.80;72898;4422.291;-6320.131;0;151;500;506.9;100.0;100.3;0;-0.5;29.1;-1.0;
07/04/2021 14:43:51;116;0;27.65;-17;-62.28;-3.88;0.3;6.80;72893;4422.291;-6320.132;0;151;500;506.9;100.0;100.3;0;-0.5;29.1;-1.0;
07/04/2021 14:44:11;116;0;20.40;-17;-65.09;-2.95;0.3;6.90;72887;4422.290;-6320.134;0;151;500;506.9;100.0;100.3;0;-0.5;29.2;-1.0;
07/04/2021 14:44:31;116;0;38.34;-17;-62.74;-20.47;0.4;6.90;72888;4422.290;-6320.136;0;151;500;506.9;100.0;100.3;0;-0.5;29.1;-1.0;
07/04/2021 14:44:51;116;0;32.55;-17;-64.92;-0.09;0.3;6.90;72890;4422.289;-6320.138;0;151;500;508.9;100.0;100.3;0;-0.5;29.1;-1.0;
07/04/2021 14:45:11;116;0;24.54;-17;-58.45;-5.51;0.3;6.90;72897;4422.289;-6320.139;0;151;500;506.9;100.0;100.3;0;-0.5;29.1;-1.0;
07/04/2021 14:45:31;116;0;36.55;-17;-66.55;-17.43;0.5;6.90;72891;4422.288;-6320.141;0;151;500;506.9;100.0;100.3;0;-0.5;29.1;-1.0;
07/04/2021 14:45:51;116;0;36.97;-17;-66.59;-12.54;0.4;6.90;72887;4422.287;-6320.143;0;151;500;506.9;100.0;100.3;0;-0.5;29.1;-1.0;
07/04/2021 14:46:11;116;0;21.64;-17;-64.01;3.78;0.3;6.90;72879;4422.286;-6320.145;0;151;500;506.9;100.0;100.3;0;-0.5;29.1;-1.0;
07/04/2021 14:46:31;110;0;35.13;-17;-63.22;-18.30;0.3;7.00;72891;4422.286;-6320.145;1;151;-300;493.1;100.0;100.3;0;-0.5;29.1;-1.0;
07/04/2021 14:46:41;110;0;41.88;-17;-64.10;3.92;0.5;7.00;73070;4422.286;-6320.144;1;151;-300;384.2;100.0;100.3;0;-0.5;29.1;-1.0;
07/04/2021 14:46:51;110;0;52.37;-17;-72.47;-12.56;0.8;7.00;73273;4422.286;-6320.144;1;151;-300;263.4;100.0;100.3;0;-0.5;29.1;-1.0;
07/04/2021 14:47:01;110;0;59.32;-17;-69.96;-8.05;0.9;7.00;73469;4422.286;-6320.144;1;151;-300;144.6;100.0;100.3;0;-0.5;29.1;-1.0;
07/04/2021 14:47:11;110;0;69.64;-17;-70.31;-25.70;1.4;6.90;73696;4422.286;-6320.144;1;151;-300;9.9;100.0;100.3;0;-0.5;29.1;-1.0;
07/04/2021 14:47:21;110;0;68.92;-17;-71.56;-13.41;3.3;6.90;73956;4422.286;-6320.143;1;151;-300;-156.4;75.2;89.9;0;-0.5;29.1;-1.0;
07/04/2021 14:47:31;110;0;52.76;-17;-65.46;-3.97;7.4;6.90;74264;4422.287;-6320.140;1;151;-300;-301.0;35.9;64.2;0;-0.5;29.0;-1.0;
07/04/2021 14:47:51;100;0;72.84;-17;-42.01;-4.74;19.0;6.80;74214;4422.289;-6320.131;1;151;-300;-305.0;36.0;36.2;0;-0.5;29.1;-1.0;
07/04/2021 14:48:11;100;0;77.63;-17;-32.43;-4.56;27.8;6.80;74205;4422.291;-6320.121;1;151;-300;-303.0;33.1;32.8;-70;-37.5;29.1;0.0;
07/04/2021 14:48:31;100;0;87.81;-17;-13.95;-40.64;33.9;6.70;74193;4422.291;-6320.108;1;151;-300;-303.0;33.9;34.0;-70;-68.6;29.1;0.0;
07/04/2021 14:48:51;100;0;108.24;-17;-7.94;-41.10;37.1;6.70;74205;4422.290;-6320.101;1;151;-300;-303.0;35.9;36.2;-51;-50.5;29.1;0.0;
07/04/2021 14:49:11;100;0;133.20;-17;-18.08;-30.54;40.3;6.60;74210;4422.287;-6320.096;1;151;-300;-305.0;35.9;35.8;-21;-20.8;29.1;0.0;
07/04/2021 14:49:31;100;0;146.56;-17;-22.88;-14.22;44.8;6.60;74206;4422.282;-6320.092;1;151;-300;-303.0;35.0;34.9;-5;-5.0;29.2;0.0;
07/04/2021 14:49:51;100;0;151.06;-17;-23.48;-5.76;49.6;6.50;74207;4422.277;-6320.089;1;151;-300;-303.0;33.9;33.7;0;0.5;29.1;0.0;
07/04/2021 14:50:11;100;0;156.86;-17;-21.13;-3.14;54.4;6.40;74206;4422.272;-6320.085;1;151;-300;-303.0;33.2;33.1;7;7.7;29.1;0.0;
07/04/2021 14:50:31;100;0;160.33;-17;-19.16;0.78;58.6;6.40;74212;4422.267;-6320.083;1;151;-300;-303.0;33.0;32.8;12;12.2;29.1;0.0;
07/04/2021 14:50:51;100;0;161.21;-17;-17.78;3.06;62.5;6.30;74219;4422.262;-6320.080;1;151;-300;-305.0;33.0;32.8;12;12.6;29.1;41.5;
07/04/2021 14:51:11;100;0;159.27;-17;-17.28;3.08;66.2;6.20;74240;4422.257;-6320.078;1;151;-300;-305.0;33.0;32.8;12;12.6;29.1;38.6;
07/04/2021 14:51:31;100;0;158.45;-17;-17.21;3.19;69.7;6.20;74245;4422.252;-6320.075;1;151;-300;-303.0;33.0;32.9;10;9.9;29.1;36.3;
07/04/2021 14:51:51;100;0;158.50;-17;-16.55;1.22;73.3;6.10;74265;4422.247;-6320.073;1;151;-300;-303.0;33.2;33.5;10;9.0;29.1;33.6;
07/04/2021 14:52:11;100;0;156.84;-17;-17.36;1.36;76.9;6.10;74266;4422.243;-6320.070;1;151;-300;-303.0;33.2;33.5;8;8.1;29.1;30.8;
07/04/2021 14:52:31;100;0;156.14;-17;-17.51;0.48;80.4;6.00;74277;4422.238;-6320.067;1;151;-300;-305.0;33.2;33.5;8;7.7;29.1;28.3;
07/04/2021 14:52:51;100;0;154.16;-17;-17.62;0.45;84.0;6.00;74285;4422.234;-6320.064;1;151;-300;-306.9;33.2;33.5;5;5.0;29.1;21.2;
07/04/2021 14:53:11;100;0;152.83;-17;-17.37;-1.04;87.8;5.90;74287;4422.229;-6320.061;1;151;-300;-303.0;33.2;33.5;3;3.2;29.1;14.8;
07/04/2021 14:53:31;118;0;154.72;-17;-17.16;-2.15;91.3;5.90;74290;4422.225;-6320.058;1;151;425;-306.9;19.2;20.4;0;-0.5;29.1;10.8;
07/04/2021 14:53:41;118;0;154.72;-17;-2.67;-3.34;92.6;5.90;74207;4422.224;-6320.057;1;151;425;-227.7;19.2;18.9;0;0.0;29.1;-1.0;
07/04/2021 14:53:51;118;0;154.72;-17;11.54;-3.19;92.8;5.90;73955;4422.223;-6320.057;1;151;425;-73.3;19.2;19.4;0;-0.5;28.7;-1.0;
07/04/2021 14:54:01;118;0;154.72;-17;17.79;-3.40;92.7;5.90;73703;4422.223;-6320.057;1;151;425;81.2;19.2;19.5;0;-0.5;28.7;-1.0;
07/04/2021 14:54:11;118;0;154.72;-17;17.76;-3.37;92.6;5.80;73449;4422.223;-6320.057;1;151;425;231.7;19.2;19.5;0;-0.5;28.7;-1.0;
07/04/2021 14:54:21;118;0;154.72;-17;15.89;-3.34;92.4;5.80;73204;4422.223;-6320.056;1;151;425;384.2;19.2;19.4;0;0.0;28.7;-1.0;
07/04/2021 14:54:31;118;0;154.18;-17;16.07;-3.33;91.8;5.80;73076;4422.222;-6320.056;1;151;425;433.7;19.2;19.5;0;-0.5;28.7;-1.0;
07/04/2021 14:54:51;117;0;150.52;-17;18.72;-3.46;90.0;5.80;73087;4422.220;-6320.054;1;151;425;435.6;19.8;19.8;0;-0.5;29.1;-1.0;
07/04/2021 14:55:11;117;0;150.03;-17;17.54;-3.40;88.1;5.70;73074;4422.218;-6320.052;1;151;425;435.6;19.8;20.1;2;2.3;29.1;-1.0;
07/04/2021 14:55:31;117;0;151.94;-17;16.96;-1.56;85.9;5.70;73073;4422.215;-6320.050;1;151;425;435.6;19.5;19.4;0;0.0;29.1;-1.0;
07/04/2021 14:55:51;117;0;150.93;-17;18.27;-3.65;83.8;5.60;73071;4422.212;-6320.048;1;151;425;431.7;19.5;19.2;0;-0.5;29.1;-1.0;
07/04/2021 14:56:11;117;0;150.02;-17;18.14;-3.62;81.6;5.60;73072;4422.210;-6320.046;1;151;425;435.6;19.5;19.4;2;2.3;29.1;-1.0;
07/04/2021 14:56:31;117;0;152.56;-17;18.10;-1.67;79.6;5.60;73067;4422.207;-6320.045;1;151;425;435.6;19.5;19.4;-1;-0.9;29.1;-1.0;
07/04/2021 14:56:51;117;0;150.59;-17;17.95;-3.94;77.4;5.50;73070;4422.205;-6320.042;1;151;425;433.7;19.5;19.4;2;1.8;29.1;-1.0;
07/04/2021 14:57:11;117;0;152.75;-17;17.91;-1.90;75.3;5.50;73058;4422.202;-6320.041;1;151;425;435.6;19.5;19.2;-1;-0.9;29.1;-1.0;
07/04/2021 14:57:31;117;0;149.91;-17;17.72;-3.94;73.1;5.50;73058;4422.200;-6320.038;1;151;425;435.6;19.5;19.4;2;1.8;29.1;-1.0;
07/04/2021 14:57:51;117;0;148.79;-17;17.32;-1.98;70.9;5.40;73051;4422.197;-6320.036;1;151;425;435.6;19.5;19.2;4;4.5;29.1;-1.0;
07/04/2021 14:58:11;117;0;148.64;-17;17.42;-0.47;68.8;5.40;73034;4422.194;-6320.034;1;151;425;435.6;19.5;19.2;4;5.0;29.1;-1.0;
07/04/2021 14:58:31;117;0;147.49;-17;17.67;-0.51;66.9;5.40;73050;4422.192;-6320.032;1;151;425;437.6;19.5;19.2;4;5.0;29.1;-1.0;
07/04/2021 14:58:51;117;0;148.23;-17;17.06;-0.48;64.9;5.30;73028;4422.190;-6320.030;1;151;425;435.6;19.5;19.4;4;5.0;29.1;-1.0;
07/04/2021 14:59:11;117;0;146.41;-17;17.26;-0.51;63.0;5.30;73037;4422.187;-6320.028;1;151;425;435.6;19.5;19.2;7;7.7;29.1;-1.0;
07/04/2021 14:59:31;117;0;148.04;-17;16.82;1.18;61.1;5.20;73015;4422.185;-6320.026;1;151;425;435.6;19.1;18.8;5;5.0;29.1;-1.0;
07/04/2021 14:59:51;117;0;146.14;-17;17.72;-0.93;59.1;5.20;73011;4422.183;-6320.024;1;151;425;435.6;19.1;18.9;7;7.2;29.1;-1.0;
07/04/2021 15:00:11;117;0;147.63;-17;17.84;1.17;57.1;5.20;73007;4422.181;-6320.022;1;151;425;437.6;19.1;18.9;5;5.0;29.1;-1.0;
07/04/2021 15:00:31;117;0;146.08;-17;17.16;-0.86;55.2;5.20;72987;4422.178;-6320.020;1;151;425;435.6;19.1;18.9;7;7.2;29.1;-1.0;
07/04/2021 15:00:51;117;0;146.37;-17;16.92;1.12;53.3;5.10;72969;4422.176;-6320.018;1;151;425;435.6;18.7;18.8;7;8.1;29.1;-1.0;
07/04/2021 15:01:11;117;0;145.87;-17;17.13;1.09;51.4;5.10;72963;4422.174;-6320.015;1;151;425;435.6;18.7;18.8;7;8.1;29.1;-1.0;
07/04/2021 15:01:31;117;0;144.69;-17;16.96;1.19;49.4;5.00;72952;4422.172;-6320.013;1;151;425;435.6;18.4;18.3;9;9.5;29.2;-1.0;
07/04/2021 15:01:51;117;0;147.27;-17;18.28;2.12;47.5;5.00;72948;4422.169;-6320.011;1;151;425;435.6;18.4;18.0;6;5.9;29.1;-1.0;
07/04/2021 15:02:11;117;0;149.57;-17;18.17;-0.55;45.5;5.00;72944;4422.167;-6320.009;1;151;425;431.7;18.4;18.0;3;3.2;29.1;-1.0;
07/04/2021 15:02:31;117;0;150.93;-17;18.06;-1.82;43.4;4.90;72938;4422.165;-6320.007;1;151;425;435.6;18.4;18.0;3;2.7;29.1;-1.0;
07/04/2021 15:02:51;117;0;152.23;-17;18.03;-1.86;41.5;4.90;72944;4422.162;-6320.005;1;151;425;435.6;18.4;18.0;0;0.0;29.1;-1.0;
07/04/2021 15:03:12;117;0;151.77;-17;18.23;-3.47;39.5;4.90;72937;4422.160;-6320.004;1;151;425;435.6;18.4;18.0;0;-0.5;29.1;-1.0;
07/04/2021 15:03:32;117;0;151.57;-17;18.14;-3.58;37.5;4.80;72921;4422.157;-6320.002;1;151;425;435.6;18.4;18.0;0;-0.5;29.1;-1.0;
07/04/2021 15:03:52;117;0;151.05;-17;17.93;-3.60;35.5;4.80;72921;4422.155;-6320.000;1;151;425;435.6;18.4;18.0;2;1.8;29.1;-1.0;
07/04/2021 15:04:12;117;0;151.16;-17;17.89;-1.86;33.7;4.80;72917;4422.153;-6319.998;1;151;425;435.6;18.4;18.0;2;2.3;29.1;-1.0;
07/04/2021 15:04:32;117;0;151.57;-17;17.88;-1.89;31.8;4.80;72905;4422.150;-6319.997;1;151;425;435.6;18.4;18.0;2;2.7;29.1;-1.0;
07/04/2021 15:04:52;117;0;151.75;-17;17.76;-1.89;30.0;4.70;72895;4422.148;-6319.995;1;151;425;435.6;18.4;18.0;2;2.7;29.1;-1.0;
07/04/2021 15:05:12;117;0;150.48;-17;17.88;-1.97;28.1;4.70;72881;4422.146;-6319.993;1;151;425;435.6;18.4;18.2;2;2.7;29.1;-1.0;
07/04/2021 15:05:32;117;0;149.71;-17;17.63;-1.91;26.2;4.70;72879;4422.144;-6319.991;1;151;425;435.6;18.4;18.0;2;2.7;29.1;-1.0;
07/04/2021 15:05:52;117;0;148.77;-17;17.42;-1.95;24.4;4.60;72879;4422.142;-6319.989;1;151;425;435.6;18.4;18.0;4;4.5;29.1;-1.0;
07/04/2021 15:06:12;117;0;147.98;-17;17.48;-0.48;22.5;4.60;72867;4422.139;-6319.987;1;151;425;435.6;18.4;18.0;4;5.4;29.1;-1.0;
07/04/2021 15:06:32;117;0;148.71;-17;17.74;-0.43;20.8;4.60;72861;4422.137;-6319.986;1;151;425;435.6;18.4;18.0;4;5.4;29.1;-1.0;
07/04/2021 15:06:52;117;0;148.87;-17;17.31;-0.46;18.8;4.50;72852;4422.135;-6319.984;1;151;425;435.6;18.4;18.0;4;5.4;29.1;-1.0;
07/04/2021 15:07:12;117;0;151.03;-17;17.41;-0.50;16.9;4.50;72857;4422.132;-6319.982;1;151;425;435.6;18.4;18.0;2;1.8;29.1;-1.0;
07/04/2021 15:07:32;117;0;150.80;-17;17.60;-2.58;15.0;4.50;72849;4422.130;-6319.980;1;151;425;435.6;18.4;18.0;2;1.4;29.1;-1.0;
07/04/2021 15:07:52;117;0;151.66;-17;17.49;-2.43;13.1;4.50;72845;4422.128;-6319.978;1;151;425;435.6;18.4;18.0;2;1.4;29.1;-1.0;
07/04/2021 15:08:12;117;0;152.44;-17;17.27;-2.54;11.1;4.50;72839;4422.125;-6319.976;1;151;425;435.6;18.4;18.0;0;0.0;29.1;-1.0;
