Timestamp;NavState;SecurityLevel;Heading;Declination;Pitch;Roll;Depth;Temperature;Pa;Lat;Lon;DeadReckoning;DesiredH;BallastCmd;BallastPos;LinCmd;LinPos;AngCmd;AngPos;Voltage;Altitude;
07/04/2021 15:58:17;117;0;140.15;-17;17.37;-1.33;9.3;4.20;72581;4421.835;-6320.133;1;139;475;481.2;18.0;17.9;1;0.5;29.1;-1.0;
07/04/2021 15:58:37;110;0;137.08;-17;17.94;-3.14;7.0;4.20;72577;4421.833;-6320.130;1;139;-275;449.5;36.1;31.4;1;0.5;29.1;-1.0;
07/04/2021 15:58:47;110;0;142.45;-17;-5.34;-3.06;6.2;4.20;73013;4421.832;-6320.129;1;139;-275;196.0;36.1;36.5;1;0.0;29.0;-1.0;
07/04/2021 15:58:57;110;0;143.00;-17;-21.92;-3.32;7.0;4.20;73442;4421.831;-6320.128;1;139;-275;-59.4;36.1;37.4;1;0.0;29.0;-1.0;
07/04/2021 15:59:07;110;0;142.54;-17;-25.61;-3.48;8.5;4.20;73899;4421.830;-6320.127;1;139;-275;-275.2;36.1;37.4;1;0.5;29.0;-1.0;
07/04/2021 15:59:27;100;0;143.30;-17;-28.13;-3.78;13.7;4.20;73864;4421.826;-6320.123;1;139;-275;-277.2;36.0;35.9;1;0.0;29.1;-1.0;
07/04/2021 15:59:47;100;0;145.33;-17;-26.68;-3.57;19.7;4.10;73862;4421.821;-6320.118;1;139;-275;-279.2;34.3;34.0;9;9.0;29.1;0.0;
07/04/2021 16:00:07;100;0;145.47;-17;-23.41;1.03;25.2;4.10;73860;4421.816;-6320.113;1;139;-275;-277.2;33.2;33.2;9;9.5;29.1;0.0;
07/04/2021 16:00:27;100;0;146.44;-17;-21.44;1.25;30.1;4.10;73858;4421.811;-6320.109;1;139;-275;-279.2;32.5;32.5;11;10.8;29.1;0.0;
07/04/2021 16:00:47;100;0;143.15;-17;-19.05;2.30;34.6;4.10;73862;4421.806;-6320.104;1;139;-275;-277.2;32.2;32.0;7;7.2;29.1;0.0;
07/04/2021 16:01:07;100;0;141.67;-17;-17.33;-0.11;38.5;4.10;73863;4421.802;-6320.099;1;139;-275;-279.2;32.2;31.9;5;5.0;29.1;0.0;
07/04/2021 16:01:27;100;0;141.95;-17;-16.69;-1.13;42.2;4.10;73870;4421.797;-6320.094;1;139;-275;-279.2;32.5;32.6;5;4.5;29.1;0.0;
07/04/2021 16:01:47;100;0;142.68;-17;-17.85;-0.96;45.9;4.00;73874;4421.793;-6320.090;1;139;-275;-277.2;32.5;32.8;5;4.5;29.1;0.0;
07/04/2021 16:02:07;100;0;141.77;-17;-17.88;-0.86;49.7;4.00;73879;4421.789;-6320.085;1;139;-275;-277.2;32.5;32.8;5;4.5;29.1;0.0;
07/04/2021 16:02:27;100;0;145.16;-17;-17.57;-1.16;53.4;4.00;73876;4421.785;-6320.081;1;139;-275;-277.2;32.5;32.6;9;9.0;29.1;0.0;
07/04/2021 16:02:47;100;0;147.36;-17;-17.33;1.38;57.1;4.00;73881;4421.781;-6320.077;1;139;-275;-279.2;32.5;32.8;12;12.2;29.1;0.0;
07/04/2021 16:03:07;100;0;146.17;-17;-17.17;3.17;60.7;4.00;73876;4421.776;-6320.073;1;139;-275;-279.2;32.5;32.8;12;12.2;29.1;0.0;
07/04/2021 16:03:27;100;0;144.46;-17;-16.46;3.00;64.3;4.00;73895;4421.772;-6320.069;1;139;-275;-279.2;32.8;32.8;9;9.0;29.1;0.0;
07/04/2021 16:03:47;100;0;144.27;-17;-16.33;0.85;67.7;4.00;73901;4421.768;-6320.065;1;139;-275;-279.2;33.1;33.2;9;8.6;29.1;41.4;
07/04/2021 16:04:07;100;0;143.92;-17;-17.34;0.95;71.2;4.00;73919;4421.764;-6320.061;1;139;-275;-277.2;33.1;33.4;9;8.6;29.1;37.2;
07/04/2021 16:04:27;100;0;143.93;-17;-17.05;0.75;74.8;3.90;73923;4421.760;-6320.057;1;139;-275;-277.2;33.1;33.4;9;8.6;29.1;29.8;
07/04/2021 16:04:47;100;0;142.13;-17;-16.78;1.01;78.3;3.90;73939;4421.756;-6320.052;1;139;-275;-279.2;33.3;33.4;6;5.9;29.1;25.3;
07/04/2021 16:05:07;100;0;140.26;-17;-16.78;-0.71;81.8;3.90;73952;4421.752;-6320.048;1;139;-275;-279.2;33.6;33.8;4;4.1;29.1;21.2;
07/04/2021 16:05:27;100;0;141.17;-17;-17.39;-1.67;85.3;3.90;73952;4421.748;-6320.044;1;139;-275;-279.2;33.6;33.8;4;3.6;29.1;17.9;
07/04/2021 16:05:47;100;0;141.86;-17;-17.62;-1.61;89.0;4.00;73973;4421.744;-6320.039;1;139;-275;-277.2;33.6;33.8;6;5.9;29.1;14.3;
07/04/2021 16:06:07;118;0;141.36;-17;-17.35;0.05;92.5;3.90;73974;4421.741;-6320.035;1;139;475;-279.2;19.2;20.7;0;-0.5;29.1;11.1;
07/04/2021 16:06:17;118;0;141.36;-17;-2.01;-3.44;93.9;3.90;73912;4421.740;-6320.034;1;139;475;-215.8;19.2;18.8;0;-0.9;29.1;-1.0;
07/04/2021 16:06:27;118;0;141.36;-17;12.54;-3.52;94.0;4.00;73657;4421.740;-6320.034;1;139;475;-63.4;19.2;19.2;0;-0.5;28.7;-1.0;
07/04/2021 16:06:37;118;0;141.36;-17;18.65;-3.42;93.8;4.00;73413;4421.739;-6320.034;1;139;475;91.1;19.2;19.4;0;-0.5;28.7;-1.0;
07/04/2021 16:06:47;118;0;141.36;-17;17.70;-3.47;93.7;4.00;73156;4421.739;-6320.034;1;139;475;241.6;19.2;19.5;0;-0.9;28.7;-1.0;
07/04/2021 16:06:57;118;0;141.36;-17;16.12;-3.53;93.4;4.00;72922;4421.739;-6320.033;1;139;475;392.1;19.2;19.4;0;-0.5;28.7;-1.0;
07/04/2021 16:07:07;118;0;141.36;-17;16.86;-2.20;92.7;4.00;72719;4421.738;-6320.032;1;139;475;481.2;19.2;19.4;0;-0.5;28.7;-1.0;
07/04/2021 16:07:17;118;0;140.42;-17;17.50;-3.48;91.8;4.00;72734;4421.737;-6320.031;1;139;475;481.2;19.2;19.4;0;-0.5;29.1;-1.0;
07/04/2021 16:07:37;117;0;136.81;-17;19.12;-3.65;89.5;4.00;72731;4421.735;-6320.028;1;139;475;483.2;19.6;20.0;0;-0.5;29.1;-1.0;
07/04/2021 16:07:57;117;0;136.30;-17;17.10;-3.61;87.2;4.00;72733;4421.733;-6320.025;1;139;475;485.1;19.6;20.1;5;5.4;29.1;-1.0;
07/04/2021 16:08:17;117;0;139.72;-17;16.46;0.13;84.9;4.00;72718;4421.730;-6320.022;1;139;475;483.2;19.1;18.9;1;0.9;29.1;-1.0;
07/04/2021 16:08:37;117;0;138.48;-17;18.63;-2.96;82.6;4.00;72700;4421.728;-6320.019;1;139;475;483.2;19.1;18.9;3;3.6;29.1;-1.0;
07/04/2021 16:08:57;117;0;138.87;-17;18.76;-0.93;80.0;4.00;72699;4421.725;-6320.016;1;139;475;485.1;19.1;18.9;3;4.1;29.1;-1.0;
07/04/2021 16:09:17;117;0;141.67;-17;18.50;-0.86;77.5;4.00;72702;4421.723;-6320.013;1;139;475;485.1;19.1;18.9;-1;-1.4;29.1;-1.0;
07/04/2021 16:09:37;117;0;140.57;-17;18.47;-4.24;75.0;4.00;72683;4421.720;-6320.010;1;139;475;485.1;19.1;18.9;-1;-1.4;29.1;-1.0;
07/04/2021 16:09:57;117;0;136.52;-17;18.09;-4.33;72.4;4.00;72689;4421.717;-6320.007;1;139;475;485.1;19.1;18.9;5;5.0;29.1;-1.0;
07/04/2021 16:10:17;117;0;141.11;-17;17.88;-0.18;70.0;4.00;72680;4421.715;-6320.004;1;139;475;481.2;19.1;18.9;0;-0.5;29.1;-1.0;
07/04/2021 16:10:37;117;0;138.13;-17;18.09;-3.73;67.6;4.00;72684;4421.712;-6320.001;1;139;475;483.2;19.1;19.1;3;3.6;29.1;-1.0;
07/04/2021 16:10:57;117;0;138.16;-17;17.74;-1.09;65.2;3.90;72661;4421.710;-6319.998;1;139;475;485.1;19.1;18.9;3;4.1;29.1;-1.0;
07/04/2021 16:11:17;117;0;135.67;-17;17.57;-1.16;62.8;3.90;72650;4421.708;-6319.995;1;139;475;485.1;19.1;18.9;6;5.9;29.1;-1.0;
07/04/2021 16:11:37;117;0;137.94;-17;17.21;0.52;60.5;3.90;72639;4421.705;-6319.991;1;139;475;485.1;19.1;18.9;3;2.7;29.1;-1.0;
07/04/2021 16:11:57;117;0;136.48;-17;17.23;-2.18;58.2;3.90;72617;4421.703;-6319.988;1;139;475;485.1;19.1;18.9;5;5.4;29.1;-1.0;
07/04/2021 16:12:17;117;0;135.99;-17;16.72;-0.06;56.0;3.90;72607;4421.701;-6319.985;1;139;475;485.1;18.7;18.5;5;5.9;29.1;-1.0;
07/04/2021 16:12:37;117;0;135.23;-17;17.58;0.02;53.7;3.90;72600;4421.698;-6319.982;1;139;475;483.2;18.7;18.3;7;7.2;29.1;-1.0;
07/04/2021 16:12:57;117;0;135.00;-17;17.64;0.86;51.4;3.90;72587;4421.696;-6319.979;1;139;475;483.2;18.7;18.3;7;7.7;29.1;-1.0;
07/04/2021 16:13:17;117;0;136.91;-17;17.38;1.01;49.1;3.90;72585;4421.694;-6319.976;1;139;475;481.2;18.7;18.3;5;5.0;29.1;-1.0;
07/04/2021 16:13:37;117;0;135.85;-17;17.55;-0.92;46.7;3.80;72581;4421.691;-6319.973;1;139;475;485.1;18.7;18.3;5;4.1;29.1;-1.0;
07/04/2021 16:13:57;117;0;135.68;-17;17.71;-0.98;44.5;3.80;72576;4421.689;-6319.970;1;139;475;485.1;18.7;18.3;5;4.1;29.1;-1.0;
07/04/2021 16:14:17;117;0;133.76;-17;17.52;-1.09;42.2;3.80;72571;4421.687;-6319.966;1;139;475;483.2;18.7;18.2;9;9.0;29.1;-1.0;
07/04/2021 16:14:37;117;0;137.60;-17;16.95;1.87;40.0;3.80;72564;4421.685;-6319.964;1;139;475;483.2;18.2;18.2;4;4.1;29.1;-1.0;
07/04/2021 16:14:57;117;0;137.33;-17;17.15;-1.39;37.8;3.80;72559;4421.682;-6319.961;1;139;475;483.2;18.2;18.3;4;3.6;29.1;-1.0;
07/04/2021 16:15:17;117;0;138.30;-17;17.18;-1.40;35.6;3.80;72570;4421.680;-6319.958;1;139;475;485.1;18.2;18.3;4;3.6;29.1;-1.0;
07/04/2021 16:15:37;117;0;138.94;-17;17.18;-1.36;33.3;3.80;72555;4421.678;-6319.955;1;139;475;483.2;18.2;18.3;4;3.6;29.1;-1.0;
07/04/2021 16:15:57;117;0;139.93;-17;16.94;-1.36;31.2;3.80;72550;4421.675;-6319.952;1;139;475;483.2;17.8;17.6;1;0.9;29.1;-1.0;
07/04/2021 16:16:18;117;0;138.65;-17;18.34;-3.07;29.0;3.80;72547;4421.673;-6319.949;1;139;475;485.1;17.8;17.6;3;3.6;29.1;-1.0;
07/04/2021 16:16:38;117;0;139.37;-17;18.47;-1.02;26.7;3.70;72535;4421.671;-6319.946;1;139;475;485.1;17.8;17.6;3;4.1;29.1;-1.0;
07/04/2021 16:16:58;117;0;138.49;-17;18.23;-1.12;24.4;3.70;72525;4421.668;-6319.943;1;139;475;485.1;17.8;17.6;3;4.1;29.1;-1.0;
07/04/2021 16:17:18;117;0;138.84;-17;18.37;-1.01;22.2;3.70;72522;4421.666;-6319.941;1;139;475;483.2;17.8;17.6;3;4.1;29.1;-1.0;
07/04/2021 16:17:38;117;0;139.76;-17;18.01;-1.09;19.8;3.70;72510;4421.663;-6319.938;1;139;475;483.2;17.8;17.6;3;4.1;29.1;-1.0;
07/04/2021 16:17:58;117;0;140.37;-17;18.08;-1.09;17.4;3.70;72502;4421.661;-6319.935;1;139;475;485.1;17.8;17.6;1;0.9;29.1;-1.0;
07/04/2021 16:18:18;117;0;139.36;-17;17.93;-3.13;15.1;3.70;72508;4421.658;-6319.932;1;139;475;485.1;17.8;17.6;1;0.5;29.1;-1.0;
07/04/2021 16:18:38;117;0;138.41;-17;17.86;-3.18;12.8;3.60;72491;4421.656;-6319.929;1;139;475;485.1;17.8;17.6;3;3.2;29.1;-1.0;
07/04/2021 16:18:58;117;0;140.23;-17;17.69;-1.60;10.3;3.60;72494;4421.654;-6319.926;1;139;475;483.2;17.8;17.6;1;0.9;29.1;-1.0;
