Timestamp;NavState;SecurityLevel;Heading;Declination;Pitch;Roll;Depth;Temperature;Pa;Lat;Lon;DeadReckoning;DesiredH;BallastCmd;BallastPos;LinCmd;LinPos;AngCmd;AngPos;Voltage;Altitude;
07/04/2021 18:14:32;117;0;135.87;-17;18.77;-2.46;8.0;3.30;72204;4420.573;-6320.194;1;136;500;506.9;17.7;17.4;2;1.4;29.1;-1.0;
07/04/2021 18:14:52;110;0;136.69;-17;18.75;-2.93;5.5;3.40;72206;4420.570;-6320.191;1;136;-225;481.2;32.8;31.1;2;1.4;29.1;-1.0;
07/04/2021 18:15:02;110;0;139.70;-17;-0.23;-2.37;4.5;3.30;72562;4420.570;-6320.190;1;136;-225;267.3;32.8;32.9;2;1.8;29.0;-1.0;
07/04/2021 18:15:12;110;0;141.99;-17;-14.02;-2.53;4.8;3.30;72905;4420.570;-6320.190;1;136;-225;59.4;32.8;33.7;2;1.4;29.0;-1.0;
07/04/2021 18:15:22;110;0;139.66;-17;-16.32;-2.69;5.8;3.30;73286;4420.569;-6320.188;1;136;-225;-160.4;32.8;33.8;2;1.4;29.0;-1.0;
07/04/2021 18:15:32;110;0;142.14;-17;-19.73;-2.64;7.2;3.30;73474;4420.567;-6320.187;1;136;-225;-231.7;32.8;34.0;2;1.4;29.0;-1.0;
07/04/2021 18:15:52;100;0;142.36;-17;-21.58;-2.85;11.0;3.30;73463;4420.564;-6320.183;1;136;-225;-233.7;33.0;32.9;2;1.4;29.0;-1.0;
07/04/2021 18:16:12;100;0;144.07;-17;-19.88;-2.55;15.1;3.30;73453;4420.559;-6320.179;1;136;-225;-231.7;32.7;32.5;14;14.0;29.0;0.0;
07/04/2021 18:16:32;100;0;141.86;-17;-18.39;4.57;18.9;3.30;73459;4420.555;-6320.174;1;136;-225;-231.7;32.7;32.5;12;11.7;29.1;0.0;
07/04/2021 18:16:52;100;0;139.69;-17;-18.07;2.57;22.7;3.30;73459;4420.551;-6320.170;1;136;-225;-231.7;32.7;32.5;9;9.0;29.0;0.0;
07/04/2021 18:17:12;100;0;139.24;-17;-18.33;0.84;26.4;3.30;73459;4420.547;-6320.165;1;136;-225;-229.7;32.7;32.5;9;8.1;29.0;0.0;
07/04/2021 18:17:32;100;0;138.20;-17;-17.85;0.99;30.0;3.30;73470;4420.544;-6320.160;1;136;-225;-231.7;32.7;32.5;7;7.2;29.1;0.0;
07/04/2021 18:17:52;100;0;137.64;-17;-17.66;-0.14;33.7;3.30;73465;4420.540;-6320.155;1;136;-225;-231.7;32.7;32.5;7;6.3;29.1;0.0;
07/04/2021 18:18:12;100;0;138.05;-17;-17.66;-0.06;37.2;3.30;73470;4420.536;-6320.151;1;136;-225;-229.7;32.7;32.5;7;6.3;29.1;0.0;
07/04/2021 18:18:33;100;0;137.93;-17;-17.42;-0.14;40.9;3.30;73494;4420.532;-6320.146;1;136;-225;-231.7;32.7;32.5;7;6.3;29.0;0.0;
07/04/2021 18:18:53;100;0;137.85;-17;-16.90;-0.13;44.4;3.30;73484;4420.529;-6320.141;1;136;-225;-231.7;33.0;32.9;7;6.3;29.1;0.0;
07/04/2021 18:19:13;100;0;137.88;-17;-17.70;-0.09;47.8;3.30;73483;4420.525;-6320.137;1;136;-225;-231.7;33.0;33.2;7;6.3;29.0;0.0;
07/04/2021 18:19:33;100;0;140.27;-17;-18.17;-0.08;51.5;3.30;73486;4420.521;-6320.132;1;136;-225;-231.7;33.0;33.2;10;10.4;29.1;0.0;
07/04/2021 18:19:53;100;0;140.54;-17;-18.04;2.08;55.2;3.30;73476;4420.517;-6320.128;1;136;-225;-231.7;33.0;33.2;10;10.8;29.0;0.0;
07/04/2021 18:20:13;100;0;139.51;-17;-17.83;2.19;58.9;3.30;73463;4420.514;-6320.123;1;136;-225;-231.7;33.0;33.2;10;10.8;29.1;0.0;
07/04/2021 18:20:33;100;0;136.78;-17;-17.25;2.28;62.5;3.30;73452;4420.510;-6320.118;1;136;-225;-235.6;33.0;33.2;6;5.9;29.0;43.5;
07/04/2021 18:20:53;100;0;136.15;-17;-17.03;-0.63;66.0;3.30;73456;4420.506;-6320.114;1;136;-225;-229.7;33.0;33.1;6;5.4;29.0;39.8;
07/04/2021 18:21:13;100;0;136.49;-17;-16.86;-0.56;69.4;3.30;73459;4420.503;-6320.109;1;136;-225;-231.7;33.3;33.4;6;5.4;29.0;36.2;
07/04/2021 18:21:33;100;0;136.31;-17;-17.23;-0.62;72.9;3.30;73486;4420.499;-6320.104;1;136;-225;-229.7;33.3;33.7;6;5.4;29.1;32.7;
07/04/2021 18:21:53;100;0;136.93;-17;-16.67;-0.53;76.4;3.30;73528;4420.496;-6320.099;1;136;-225;-231.7;33.7;33.7;6;5.4;29.1;29.2;
07/04/2021 18:22:13;100;0;137.69;-17;-16.39;-0.59;79.6;3.30;73548;4420.492;-6320.095;1;136;-225;-229.7;34.1;34.3;6;5.4;29.1;26.0;
07/04/2021 18:22:33;100;0;138.57;-17;-17.84;-0.54;83.0;3.30;73574;4420.489;-6320.091;1;136;-225;-231.7;34.1;34.4;8;8.1;29.0;22.6;
07/04/2021 18:22:53;100;0;137.78;-17;-18.02;1.11;86.5;3.30;73591;4420.485;-6320.086;1;136;-225;-231.7;34.1;34.4;8;8.6;29.0;19.1;
07/04/2021 18:23:13;100;0;135.63;-17;-17.76;1.13;89.9;3.30;73596;4420.482;-6320.082;1;136;-225;-229.7;34.1;34.4;5;5.0;29.0;15.3;
07/04/2021 18:23:33;100;0;134.60;-17;-17.59;-1.01;93.3;3.30;73609;4420.478;-6320.077;1;136;-225;-231.7;34.1;34.4;3;3.2;29.0;11.4;
07/04/2021 18:23:53;118;0;135.72;-17;-17.47;-2.16;96.5;3.30;73644;4420.475;-6320.072;1;136;500;-229.7;19.0;21.3;-1;-1.4;29.0;8.9;
07/04/2021 18:24:03;118;0;135.72;-17;-0.12;-3.91;97.8;3.30;73572;4420.475;-6320.072;1;136;500;-166.3;19.0;18.6;-1;-1.4;29.0;-1.0;
07/04/2021 18:24:13;118;0;135.72;-17;15.62;-3.96;97.8;3.30;73330;4420.475;-6320.072;1;136;500;-13.9;19.0;18.9;-1;-1.4;28.6;-1.0;
07/04/2021 18:24:23;118;0;135.72;-17;20.16;-4.05;97.5;3.40;73081;4420.474;-6320.072;1;136;500;134.7;19.0;19.1;-1;-1.4;28.6;-1.0;
07/04/2021 18:24:33;118;0;135.72;-17;18.42;-4.06;97.3;3.40;72851;4420.474;-6320.071;1;136;500;285.1;19.0;19.1;-1;-1.4;28.6;-1.0;
07/04/2021 18:24:43;118;0;135.72;-17;17.27;-4.08;96.9;3.40;72604;4420.474;-6320.071;1;136;500;431.7;19.0;19.2;-1;-1.4;28.6;-1.0;
07/04/2021 18:24:53;118;0;135.72;-17;18.16;-4.26;96.0;3.40;72438;4420.473;-6320.070;1;136;500;505.0;19.0;19.1;-1;-1.4;28.6;-1.0;
07/04/2021 18:25:03;118;0;133.34;-17;20.26;-4.09;94.9;3.40;72444;4420.472;-6320.068;1;136;500;506.9;19.0;19.1;-1;-1.4;29.0;-1.0;
07/04/2021 18:25:23;117;0;133.01;-17;19.32;-4.14;92.1;3.40;72433;4420.469;-6320.064;1;136;500;506.9;19.6;19.5;-1;-1.4;29.0;-1.0;
07/04/2021 18:25:43;117;0;134.14;-17;17.99;-3.98;89.1;3.50;72428;4420.467;-6320.060;1;136;500;508.9;19.6;19.7;5;5.0;29.0;-1.0;
07/04/2021 18:26:03;117;0;137.70;-17;17.52;-0.13;86.5;3.50;72412;4420.464;-6320.057;1;136;500;508.9;19.6;19.8;1;0.9;29.1;-1.0;
07/04/2021 18:26:23;117;0;134.80;-17;17.42;-3.08;83.6;3.50;72406;4420.461;-6320.053;1;136;500;508.9;19.6;19.7;4;4.1;29.0;-1.0;
07/04/2021 18:26:43;117;0;136.97;-17;17.17;-0.57;81.0;3.50;72397;4420.458;-6320.049;1;136;500;508.9;19.6;19.7;2;1.4;29.0;-1.0;
07/04/2021 18:27:03;117;0;135.12;-17;17.53;-2.57;78.4;3.50;72389;4420.456;-6320.046;1;136;500;508.9;19.6;19.7;4;4.1;29.1;-1.0;
07/04/2021 18:27:23;117;0;136.54;-17;17.41;-0.58;75.8;3.50;72384;4420.453;-6320.042;1;136;500;508.9;19.6;19.7;2;1.8;29.0;-1.0;
07/04/2021 18:27:43;117;0;135.36;-17;17.30;-2.60;73.4;3.50;72388;4420.451;-6320.039;1;136;500;508.9;19.6;19.8;4;4.1;29.0;-1.0;
07/04/2021 18:28:03;117;0;137.32;-17;16.88;-0.57;71.1;3.50;72363;4420.448;-6320.036;1;136;500;508.9;18.9;18.8;1;0.9;29.0;-1.0;
07/04/2021 18:28:23;117;0;135.49;-17;18.07;-3.06;68.6;3.50;72330;4420.446;-6320.032;1;136;500;508.9;18.9;18.8;4;4.5;29.0;-1.0;
07/04/2021 18:28:43;117;0;138.31;-17;17.57;-0.56;66.0;3.50;72303;4420.443;-6320.029;1;136;500;508.9;18.9;18.6;0;-0.5;29.0;-1.0;
07/04/2021 18:29:03;117;0;135.88;-17;17.71;-3.78;63.4;3.50;72285;4420.441;-6320.026;1;136;500;508.9;18.9;18.6;3;3.2;29.0;-1.0;
07/04/2021 18:29:23;117;0;136.74;-17;17.15;-1.34;60.9;3.50;72262;4420.438;-6320.022;1;136;500;508.9;18.9;18.6;3;3.6;29.0;-1.0;
07/04/2021 18:29:43;117;0;136.70;-17;17.22;-1.29;58.5;3.50;72246;4420.436;-6320.019;1;136;500;508.9;18.9;18.6;3;3.6;29.0;-1.0;
07/04/2021 18:30:03;117;0;135.12;-17;17.16;-1.44;56.1;3.40;72236;4420.433;-6320.015;1;136;500;508.9;18.9;18.8;3;3.6;29.0;-1.0;
07/04/2021 18:30:23;117;0;134.66;-17;16.84;-1.33;53.7;3.40;72229;4420.431;-6320.012;1;136;500;508.9;18.3;18.2;5;5.0;29.0;-1.0;
07/04/2021 18:30:43;117;0;135.24;-17;18.21;-0.27;51.2;3.40;72228;4420.428;-6320.009;1;136;500;508.9;18.3;18.2;5;5.4;29.0;-1.0;
07/04/2021 18:31:03;117;0;135.35;-17;18.12;-0.43;48.9;3.40;72215;4420.426;-6320.006;1;136;500;508.9;18.3;18.2;5;5.4;29.0;-1.0;
07/04/2021 18:31:23;117;0;134.83;-17;17.92;-0.43;46.3;3.40;72218;4420.424;-6320.002;1;136;500;508.9;18.3;18.0;5;5.4;29.0;-1.0;
07/04/2021 18:31:43;117;0;136.57;-17;17.97;-0.34;43.8;3.30;72220;4420.421;-6319.999;1;136;500;508.9;18.3;18.0;2;1.8;29.0;-1.0;
07/04/2021 18:32:03;117;0;135.54;-17;17.75;-2.45;41.4;3.40;72227;4420.419;-6319.996;1;136;500;508.9;18.3;18.0;2;1.4;29.0;-1.0;
07/04/2021 18:32:23;117;0;136.75;-17;17.49;-2.48;38.8;3.30;72242;4420.416;-6319.992;1;136;500;508.9;18.3;18.0;2;1.4;29.0;-1.0;
07/04/2021 18:32:43;117;0;136.36;-17;17.48;-2.54;36.4;3.30;72234;4420.414;-6319.989;1;136;500;508.9;18.3;18.0;2;1.4;29.1;-1.0;
07/04/2021 18:33:03;117;0;135.61;-17;17.53;-2.55;33.9;3.30;72234;4420.411;-6319.985;1;136;500;508.9;18.3;18.0;2;1.4;29.0;-1.0;
07/04/2021 18:33:23;117;0;135.63;-17;17.50;-2.50;31.4;3.30;72231;4420.409;-6319.982;1;136;500;508.9;18.3;18.0;2;1.4;29.0;-1.0;
07/04/2021 18:33:43;117;0;135.91;-17;17.27;-2.45;29.1;3.30;72229;4420.406;-6319.979;1;136;500;508.9;18.3;18.0;2;1.4;29.0;-1.0;
07/04/2021 18:34:03;117;0;135.49;-17;17.57;-2.53;26.7;3.30;72220;4420.404;-6319.976;1;136;500;508.9;18.3;18.0;4;4.5;29.0;-1.0;
07/04/2021 18:34:23;117;0;136.15;-17;17.39;-0.60;24.4;3.30;72214;4420.402;-6319.972;1;136;500;508.9;18.3;18.0;4;5.0;29.0;-1.0;
07/04/2021 18:34:43;117;0;137.12;-17;17.63;-0.58;22.2;3.30;72214;4420.399;-6319.970;1;136;500;508.9;18.3;18.0;2;1.8;29.0;-1.0;
07/04/2021 18:35:03;117;0;137.39;-17;17.31;-2.65;19.8;3.30;72211;4420.397;-6319.966;1;136;500;506.9;18.3;18.0;2;0.9;29.1;-1.0;
07/04/2021 18:35:23;117;0;136.85;-17;17.11;-2.57;17.4;3.30;72211;4420.394;-6319.963;1;136;500;508.9;18.3;18.0;2;1.4;29.0;-1.0;
07/04/2021 18:35:43;117;0;135.77;-17;17.11;-2.58;15.0;3.30;72193;4420.392;-6319.960;1;136;500;508.9;18.3;18.0;2;1.4;29.0;-1.0;
07/04/2021 18:36:03;117;0;135.40;-17;17.17;-2.63;12.6;3.30;72194;4420.390;-6319.956;1;136;500;510.9;18.3;18.0;4;4.1;29.0;-1.0;
07/04/2021 18:36:23;117;0;136.91;-17;16.94;-0.63;10.1;3.30;72184;4420.387;-6319.953;1;136;500;508.9;17.6;17.4;2;1.8;29.0;-1.0;
