Timestamp;NavState;SecurityLevel;Heading;Declination;Pitch;Roll;Depth;Temperature;Pa;Lat;Lon;DeadReckoning;DesiredH;BallastCmd;BallastPos;LinCmd;LinPos;AngCmd;AngPos;Voltage;Altitude;
07/04/2021 16:19:18;117;0;138.58;-17;18.19;-3.00;8.0;3.60;72487;4421.651;-6319.923;1;139;475;485.1;17.8;17.6;3;3.2;29.1;-1.0;
07/04/2021 16:19:38;115;0;140.40;-17;18.40;-1.15;5.6;3.60;72493;4421.649;-6319.920;1;139;500;485.1;100.0;31.4;0;-0.9;29.1;-1.0;
07/04/2021 16:19:48;115;0;140.40;-17;-28.20;-3.14;4.8;3.60;72436;4421.648;-6319.919;1;139;500;503.0;100.0;100.0;0;-0.9;29.1;-1.0;
07/04/2021 16:19:58;115;0;138.85;-17;-74.93;-13.65;5.9;3.60;72447;4421.648;-6319.919;1;139;500;505.0;100.0;100.1;0;-0.9;29.1;-1.0;
07/04/2021 16:20:18;116;0;127.14;-17;-67.60;-5.19;1.0;3.60;72447;4421.506;-6320.471;0;139;500;505.0;100.0;100.1;0;-0.9;29.1;-1.0;
07/04/2021 16:20:46;116;0;84.78;-17;-56.41;0.10;0.1;3.60;72454;4421.505;-6320.474;0;139;500;505.0;100.0;100.1;0;-0.9;29.1;-1.0;
07/04/2021 16:21:06;116;0;65.50;-17;-74.50;-20.03;0.6;3.60;72457;4421.504;-6320.474;0;139;500;505.0;100.0;100.3;0;-0.9;29.1;-1.0;
07/04/2021 16:21:26;116;0;60.90;-17;-66.04;-15.73;0.5;3.60;72456;4421.503;-6320.477;0;149;500;505.0;100.0;100.1;0;-0.9;29.1;-1.0;
07/04/2021 16:21:46;116;0;58.83;-17;-62.60;-7.30;0.3;3.60;72466;4421.502;-6320.479;0;149;500;505.0;100.0;100.1;0;-0.9;29.1;-1.0;
07/04/2021 16:22:06;116;0;62.17;-17;-63.54;-3.59;0.3;3.60;72470;4421.498;-6320.486;0;149;500;505.0;100.0;100.3;0;-0.9;29.1;-1.0;
07/04/2021 16:22:48;116;0;54.60;-17;-66.13;-11.19;0.5;3.70;72470;4421.498;-6320.487;0;149;500;505.0;100.0;100.1;0;-0.9;29.1;-1.0;
07/04/2021 16:23:08;116;0;51.35;-17;-67.48;-5.23;0.4;3.70;72477;4421.497;-6320.490;0;137;500;505.0;100.0;100.3;0;-0.9;28.9;-1.0;
07/04/2021 16:23:28;116;0;53.16;-17;-65.45;4.82;0.4;3.70;72466;4421.495;-6320.496;0;137;500;505.0;100.0;100.1;0;-0.9;29.1;-1.0;
07/04/2021 16:23:59;116;0;48.38;-17;-61.03;-6.77;0.4;3.80;72474;4421.494;-6320.497;0;137;500;505.0;100.0;100.1;0;-0.9;29.1;-1.0;
07/04/2021 16:24:19;116;0;46.30;-17;-68.28;12.20;0.4;3.80;72472;4421.493;-6320.499;0;137;500;505.0;100.0;100.1;0;-0.9;29.1;-1.0;
07/04/2021 16:24:39;116;0;66.50;-17;-65.26;-19.40;0.5;3.90;72483;4421.481;-6320.527;0;137;500;505.0;100.0;100.1;0;-0.9;29.1;-1.0;
07/04/2021 16:28:00;116;0;62.56;-17;-63.78;-0.15;0.4;4.20;72486;4421.481;-6320.528;0;137;500;505.0;100.0;100.1;0;-0.9;29.1;-1.0;
07/04/2021 16:28:20;116;0;65.19;-17;-62.92;-5.52;0.4;4.20;72471;4421.480;-6320.531;0;137;500;505.0;100.0;100.1;0;-0.9;29.1;-1.0;
07/04/2021 16:28:40;116;0;60.35;-17;-63.60;-18.04;0.4;4.20;72485;4421.471;-6320.556;0;137;500;505.0;100.0;100.1;0;-0.9;29.1;-1.0;
07/04/2021 16:32:01;116;0;55.14;-17;-68.04;-2.75;0.4;4.50;72471;4421.471;-6320.556;0;137;500;505.0;100.0;100.1;0;-0.9;29.1;-1.0;
07/04/2021 16:32:21;116;0;50.01;-17;-64.86;3.06;0.4;4.50;72464;4421.470;-6320.560;0;137;500;506.9;100.0;100.1;0;-0.5;29.1;-1.0;
07/04/2021 16:32:41;116;0;45.27;-17;-63.13;-18.52;0.5;4.50;72464;4421.469;-6320.562;0;137;500;505.0;100.0;100.1;0;-0.9;29.1;-1.0;
07/04/2021 16:33:01;116;0;37.20;-17;-63.58;0.72;0.5;4.50;72464;4421.468;-6320.565;0;137;500;505.0;100.0;100.1;0;-0.9;29.1;-1.0;
07/04/2021 16:33:21;116;0;53.29;-17;-59.90;0.90;0.3;4.50;72466;4421.466;-6320.568;0;137;500;505.0;100.0;100.1;0;-0.9;29.1;-1.0;
07/04/2021 16:33:41;110;0;65.74;-17;-62.31;-16.47;0.4;4.60;72463;4421.466;-6320.568;1;137;-275;493.1;100.0;100.1;0;-0.9;29.1;-1.0;
07/04/2021 16:33:51;110;0;77.11;-17;-58.87;-7.52;0.5;4.60;72650;4421.466;-6320.568;1;137;-275;384.2;100.0;100.1;0;-0.9;29.0;-1.0;
07/04/2021 16:34:01;110;0;77.43;-17;-70.57;-3.25;0.8;4.60;72844;4421.466;-6320.567;1;137;-275;265.3;100.0;100.1;0;-0.9;29.0;-1.0;
07/04/2021 16:34:11;110;0;79.22;-17;-70.46;1.71;0.9;4.60;73049;4421.466;-6320.567;1;137;-275;144.6;100.0;100.1;0;-0.9;29.0;-1.0;
07/04/2021 16:34:21;110;0;86.81;-17;-67.85;-12.64;1.4;4.60;73268;4421.466;-6320.567;1;137;-275;11.9;100.0;100.1;0;-0.9;29.0;-1.0;
07/04/2021 16:34:31;110;0;79.53;-17;-69.70;-5.73;3.3;4.60;73518;4421.467;-6320.566;1;137;-275;-156.4;71.4;90.2;0;-0.9;29.0;-1.0;
07/04/2021 16:34:41;110;0;70.95;-17;-64.51;-7.27;7.3;4.60;73786;4421.467;-6320.563;1;137;-275;-275.2;32.2;60.5;0;-0.9;29.0;-1.0;
07/04/2021 16:35:01;100;0;84.65;-17;-38.45;-4.79;18.4;4.60;73750;4421.468;-6320.553;1;137;-275;-279.2;34.3;34.4;0;-0.9;29.0;-1.0;
07/04/2021 16:35:21;100;0;91.00;-17;-28.45;-4.30;26.0;4.60;73741;4421.468;-6320.542;1;137;-275;-277.2;32.2;32.0;-53;-37.9;29.1;0.0;
07/04/2021 16:35:41;100;0;99.96;-17;-14.39;-32.14;31.2;4.60;73740;4421.466;-6320.532;1;137;-275;-279.2;32.9;33.2;-42;-42.0;29.1;0.0;
07/04/2021 16:36:01;100;0;117.93;-17;-14.16;-25.39;34.5;4.60;73741;4421.464;-6320.525;1;137;-275;-277.2;33.7;33.8;-21;-21.2;29.1;0.0;
07/04/2021 16:36:21;100;0;130.61;-17;-18.58;-14.41;38.0;4.50;73748;4421.461;-6320.520;1;137;-275;-277.2;33.7;34.0;-6;-5.9;29.1;0.0;
07/04/2021 16:36:41;100;0;138.33;-17;-20.59;-6.15;42.1;4.50;73749;4421.457;-6320.516;1;137;-275;-277.2;33.2;32.9;4;4.1;29.1;0.0;
07/04/2021 16:37:01;100;0;143.03;-17;-19.74;-1.00;46.3;4.50;73750;4421.453;-6320.511;1;137;-275;-277.2;32.8;32.6;9;9.0;29.1;0.0;
07/04/2021 16:37:21;100;0;143.29;-17;-18.41;1.62;50.4;4.50;73749;4421.448;-6320.507;1;137;-275;-279.2;32.8;32.5;9;9.5;29.1;0.0;
07/04/2021 16:37:41;100;0;143.93;-17;-17.88;1.60;54.2;4.50;73758;4421.444;-6320.502;1;137;-275;-279.2;32.8;32.6;11;10.8;29.1;0.0;
07/04/2021 16:38:01;100;0;144.31;-17;-17.62;2.53;57.8;4.40;73751;4421.440;-6320.498;1;137;-275;-277.2;32.8;32.5;11;11.3;29.1;0.0;
07/04/2021 16:38:21;100;0;142.08;-17;-17.09;2.46;61.4;4.40;73759;4421.436;-6320.494;1;137;-275;-277.2;32.8;32.5;9;9.0;29.1;0.0;
07/04/2021 16:38:41;100;0;142.33;-17;-16.69;1.15;64.9;4.40;73760;4421.432;-6320.490;1;137;-275;-277.2;33.1;33.1;9;9.0;29.1;0.0;
07/04/2021 16:39:01;100;0;141.83;-17;-17.47;1.09;68.5;4.40;73791;4421.428;-6320.485;1;137;-275;-277.2;33.1;33.2;9;8.6;29.1;0.0;
07/04/2021 16:39:21;100;0;139.54;-17;-17.62;1.31;72.1;4.40;73795;4421.424;-6320.481;1;137;-275;-279.2;33.1;33.2;6;5.4;29.1;0.0;
07/04/2021 16:39:41;100;0;139.23;-17;-17.08;-0.74;75.5;4.40;73814;4421.421;-6320.476;1;137;-275;-279.2;33.1;33.2;6;5.0;29.1;0.0;
07/04/2021 16:40:01;100;0;139.73;-17;-16.78;-0.85;79.0;4.30;73807;4421.417;-6320.472;1;137;-275;-279.2;33.4;33.4;6;5.0;29.1;44.7;
07/04/2021 16:40:21;100;0;139.76;-17;-17.05;-0.83;82.4;4.30;73815;4421.413;-6320.467;1;137;-275;-279.2;33.4;33.4;6;5.0;29.1;40.6;
07/04/2021 16:40:41;100;0;138.83;-17;-17.04;-0.70;85.9;4.30;73824;4421.410;-6320.463;1;137;-275;-277.2;33.4;33.4;6;5.0;29.1;37.8;
07/04/2021 16:41:01;100;0;139.46;-17;-16.75;-0.84;89.3;4.30;73840;4421.406;-6320.458;1;137;-275;-277.2;33.7;33.7;6;5.0;29.1;34.9;
07/04/2021 16:41:21;100;0;139.20;-17;-17.35;-0.74;92.8;4.30;73852;4421.402;-6320.454;1;137;-275;-279.2;33.7;33.8;6;5.0;29.1;31.6;
07/04/2021 16:41:41;100;0;138.31;-17;-17.04;-0.59;96.2;4.30;73885;4421.399;-6320.449;1;137;-275;-275.2;33.7;34.0;4;3.6;29.1;27.9;
07/04/2021 16:42:01;100;0;139.12;-17;-16.07;-1.84;99.3;4.30;73941;4421.395;-6320.445;1;137;-275;-277.2;34.1;34.1;4;3.2;29.1;23.3;
07/04/2021 16:42:21;100;0;141.23;-17;-15.77;-1.88;102.5;4.30;74002;4421.391;-6320.441;1;137;-275;-279.2;34.6;35.0;8;8.1;29.1;16.2;
07/04/2021 16:42:41;100;0;142.52;-17;-16.38;1.05;105.5;4.40;74076;4421.388;-6320.437;1;137;-275;-279.2;35.0;35.0;8;8.6;29.1;12.3;
07/04/2021 16:43:01;118;0;141.81;-17;-16.32;1.07;108.6;4.40;74147;4421.384;-6320.434;1;137;475;-277.2;19.1;21.9;0;-0.5;29.1;10.1;
07/04/2021 16:43:11;118;0;141.81;-17;1.82;-3.31;109.6;4.40;74076;4421.384;-6320.433;1;137;475;-200.0;19.1;18.8;0;-0.5;29.1;-1.0;
07/04/2021 16:43:21;118;0;141.81;-17;18.63;-3.44;109.5;4.40;73841;4421.384;-6320.433;1;137;475;-43.6;19.1;19.1;0;-0.5;28.6;-1.0;
07/04/2021 16:43:31;118;0;141.81;-17;23.10;-3.41;109.2;4.50;73602;4421.384;-6320.433;1;137;475;108.9;19.1;19.4;0;-0.5;28.6;-1.0;
07/04/2021 16:43:41;118;0;141.81;-17;20.51;-3.42;108.8;4.50;73368;4421.383;-6320.432;1;137;475;261.4;19.1;19.4;0;-0.5;28.6;-1.0;
07/04/2021 16:43:51;118;0;141.81;-17;19.82;-3.45;108.3;4.50;73123;4421.383;-6320.432;1;137;475;411.9;19.1;19.2;0;-0.5;28.6;-1.0;
07/04/2021 16:44:01;118;0;134.31;-17;21.35;-3.46;107.2;4.50;72967;4421.382;-6320.430;1;137;475;481.2;19.1;19.2;0;-0.5;28.6;-1.0;
07/04/2021 16:44:21;117;0;131.15;-17;22.62;-3.63;104.2;4.60;72993;4421.380;-6320.427;1;137;475;481.2;20.0;20.0;0;-0.5;29.1;-1.0;
07/04/2021 16:44:41;117;0;128.26;-17;19.93;-3.55;101.0;4.60;72988;4421.377;-6320.422;1;137;475;481.2;20.2;20.1;13;13.1;29.1;-1.0;
07/04/2021 16:45:01;117;0;134.82;-17;18.62;4.13;98.0;4.60;72958;4421.374;-6320.418;1;137;475;481.2;20.2;20.1;5;5.0;29.1;-1.0;
07/04/2021 16:45:21;117;0;136.45;-17;18.71;-0.78;95.2;4.70;72910;4421.371;-6320.415;1;137;475;481.2;20.2;20.1;3;3.2;29.1;-1.0;
07/04/2021 16:45:41;117;0;136.85;-17;16.89;-1.80;92.5;4.70;72848;4421.369;-6320.411;1;137;475;483.2;19.7;19.7;3;2.7;29.1;-1.0;
07/04/2021 16:46:01;117;0;136.97;-17;17.36;-1.84;89.9;4.70;72799;4421.366;-6320.407;1;137;475;481.2;19.7;19.7;3;2.7;29.1;-1.0;
07/04/2021 16:46:21;117;0;136.84;-17;17.50;-1.91;87.4;4.60;72774;4421.363;-6320.404;1;137;475;481.2;19.7;19.5;3;2.7;29.1;-1.0;
07/04/2021 16:46:41;117;0;137.48;-17;17.51;-1.88;84.9;4.60;72740;4421.361;-6320.401;1;137;475;481.2;19.7;19.5;3;2.7;29.1;-1.0;
07/04/2021 16:47:01;117;0;138.68;-17;17.27;-1.80;82.5;4.60;72715;4421.358;-6320.398;1;137;475;481.2;19.7;19.5;1;0.5;29.1;-1.0;
07/04/2021 16:47:21;117;0;137.42;-17;17.38;-3.25;80.2;4.60;72691;4421.356;-6320.394;1;137;475;481.2;19.7;19.5;1;0.5;29.1;-1.0;
07/04/2021 16:47:41;117;0;137.00;-17;17.12;-3.14;77.9;4.60;72689;4421.353;-6320.391;1;137;475;481.2;19.7;19.5;3;3.2;29.1;-1.0;
07/04/2021 16:48:01;117;0;138.30;-17;16.87;-1.13;75.5;4.50;72666;4421.351;-6320.388;1;137;475;481.2;19.3;18.9;1;0.5;29.1;-1.0;
07/04/2021 16:48:21;117;0;137.06;-17;18.19;-3.16;73.2;4.50;72659;4421.349;-6320.385;1;137;475;483.2;19.3;18.9;1;0.5;29.1;-1.0;
07/04/2021 16:48:41;117;0;137.53;-17;17.91;-3.10;70.8;4.50;72652;4421.346;-6320.382;1;137;475;483.2;19.3;18.9;1;0.5;29.1;-1.0;
07/04/2021 16:49:01;117;0;136.66;-17;17.79;-3.11;68.6;4.50;72633;4421.344;-6320.379;1;137;475;481.2;19.3;18.9;3;3.2;29.1;-1.0;
07/04/2021 16:49:21;117;0;136.33;-17;17.90;-1.10;66.4;4.50;72629;4421.342;-6320.376;1;137;475;483.2;19.3;18.9;3;4.1;29.1;-1.0;
07/04/2021 16:49:41;117;0;135.87;-17;17.77;-1.19;64.2;4.40;72621;4421.340;-6320.373;1;137;475;483.2;19.3;18.9;3;4.1;29.1;-1.0;
07/04/2021 16:50:01;117;0;134.83;-17;17.47;-1.14;62.0;4.40;72610;4421.337;-6320.370;1;137;475;481.2;19.3;18.9;5;5.0;29.1;-1.0;
07/04/2021 16:50:21;117;0;133.79;-17;17.37;-0.28;59.8;4.40;72595;4421.335;-6320.367;1;137;475;481.2;19.3;18.9;5;5.4;29.1;-1.0;
07/04/2021 16:50:41;117;0;136.53;-17;17.36;0.05;57.6;4.40;72574;4421.333;-6320.364;1;137;475;483.2;19.3;18.9;3;3.2;29.1;-1.0;
07/04/2021 16:51:01;117;0;133.61;-17;17.02;-1.77;55.4;4.30;72561;4421.331;-6320.361;1;137;475;481.2;19.3;18.9;7;7.2;29.1;-1.0;
07/04/2021 16:51:21;117;0;133.93;-17;16.52;0.89;53.3;4.30;72561;4421.329;-6320.358;1;137;475;483.2;18.7;18.8;7;7.7;29.1;-1.0;
07/04/2021 16:51:42;117;0;133.66;-17;16.34;0.89;51.0;4.30;72544;4421.326;-6320.355;1;137;475;483.2;18.1;18.2;7;7.7;29.1;-1.0;
07/04/2021 16:52:02;117;0;133.34;-17;18.25;0.92;48.8;4.30;72531;4421.324;-6320.351;1;137;475;481.2;18.1;18.0;7;7.7;29.1;-1.0;
07/04/2021 16:52:22;117;0;132.83;-17;18.21;0.89;46.5;4.20;72522;4421.322;-6320.348;1;137;475;481.2;18.1;18.0;7;7.7;29.1;-1.0;
07/04/2021 16:52:42;117;0;134.83;-17;17.90;1.08;44.2;4.20;72517;4421.320;-6320.345;1;137;475;483.2;18.1;18.0;5;5.0;29.1;-1.0;
07/04/2021 16:53:02;117;0;135.03;-17;18.07;-0.76;41.9;4.20;72516;4421.318;-6320.342;1;137;475;481.2;18.1;18.0;5;4.5;29.1;-1.0;
07/04/2021 16:53:22;117;0;135.87;-17;17.69;-0.73;39.6;4.20;72516;4421.316;-6320.339;1;137;475;481.2;18.1;18.0;5;4.5;29.1;-1.0;
07/04/2021 16:53:42;117;0;135.25;-17;17.70;-0.80;37.2;4.20;72512;4421.313;-6320.336;1;137;475;483.2;18.1;18.0;5;4.5;29.1;-1.0;
07/04/2021 16:54:02;117;0;137.12;-17;17.70;-0.68;35.1;4.10;72503;4421.311;-6320.333;1;137;475;481.2;18.1;18.0;3;3.2;29.1;-1.0;
07/04/2021 16:54:22;117;0;137.33;-17;17.50;-1.70;32.8;4.10;72503;4421.309;-6320.330;1;137;475;481.2;18.1;18.0;3;2.7;29.1;-1.0;
07/04/2021 16:54:42;117;0;137.58;-17;17.36;-1.75;30.6;4.10;72496;4421.306;-6320.327;1;137;475;483.2;18.1;18.2;3;2.7;29.1;-1.0;
07/04/2021 16:55:02;117;0;138.54;-17;17.37;-1.71;28.3;4.10;72489;4421.304;-6320.324;1;137;475;481.2;18.1;17.9;1;0.9;29.1;-1.0;
07/04/2021 16:55:22;117;0;137.39;-17;17.52;-3.09;26.1;4.10;72474;4421.302;-6320.321;1;137;475;481.2;18.1;18.0;1;0.5;29.1;-1.0;
07/04/2021 16:55:42;117;0;136.40;-17;17.44;-3.11;23.8;4.00;72475;4421.299;-6320.318;1;137;475;483.2;18.1;17.9;4;4.1;29.1;-1.0;
07/04/2021 16:56:02;117;0;136.07;-17;17.39;-0.79;21.8;4.00;72464;4421.297;-6320.315;1;137;475;481.2;18.1;17.9;4;4.5;29.1;-1.0;
07/04/2021 16:56:22;117;0;137.13;-17;17.35;-0.52;19.6;4.00;72455;4421.295;-6320.312;1;137;475;481.2;18.1;18.0;4;4.5;29.1;-1.0;
07/04/2021 16:56:42;117;0;137.32;-17;17.36;-0.76;17.4;4.00;72459;4421.293;-6320.309;1;137;475;481.2;18.1;18.0;2;1.8;29.1;-1.0;
07/04/2021 16:57:02;117;0;136.66;-17;17.11;-2.64;15.2;4.00;72445;4421.290;-6320.306;1;137;475;483.2;18.1;18.0;2;0.9;29.1;-1.0;
07/04/2021 16:57:22;117;0;135.21;-17;17.17;-2.63;12.8;3.90;72437;4421.288;-6320.303;1;137;475;481.2;18.1;18.0;5;5.0;29.1;-1.0;
07/04/2021 16:57:42;117;0;137.90;-17;17.13;-0.27;10.7;3.90;72441;4421.286;-6320.300;1;137;475;483.2;18.1;18.0;2;1.8;29.1;-1.0;
