Timestamp;NavState;SecurityLevel;Heading;Declination;Pitch;Roll;Depth;Temperature;Pa;Lat;Lon;DeadReckoning;DesiredH;BallastCmd;BallastPos;LinCmd;LinPos;AngCmd;AngPos;Voltage;Altitude;
07/04/2021 20:01:56;117;0;134.99;-17;17.45;-1.81;9.0;3.30;72146;4419.669;-6319.010;1;136;500;506.9;18.1;17.9;3;2.7;29.0;-1.0;
07/04/2021 20:02:16;110;0;135.87;-17;17.89;-1.53;6.5;3.30;72144;4419.667;-6319.007;1;136;-225;477.2;32.8;31.6;3;2.7;29.0;-1.0;
07/04/2021 20:02:26;110;0;140.35;-17;-0.88;-1.76;5.6;3.30;72544;4419.666;-6319.006;1;136;-225;241.6;32.8;33.2;3;2.7;28.9;-1.0;
07/04/2021 20:02:36;110;0;140.98;-17;-14.12;-1.66;6.0;3.30;72935;4419.666;-6319.006;1;136;-225;4.0;32.8;33.7;3;2.7;28.9;-1.0;
07/04/2021 20:02:46;110;0;139.96;-17;-16.78;-1.65;7.0;3.30;73353;4419.665;-6319.005;1;136;-225;-229.7;32.8;33.8;3;2.7;28.9;-1.0;
07/04/2021 20:02:56;110;0;137.43;-17;-18.79;-2.05;8.5;3.30;73403;4419.663;-6319.003;1;136;-225;-229.7;32.8;33.8;3;2.7;29.0;-1.0;
07/04/2021 20:03:16;100;0;138.96;-17;-20.49;-1.72;12.2;3.30;73386;4419.660;-6318.998;1;136;-225;-229.7;32.4;32.3;3;2.7;29.0;-1.0;
07/04/2021 20:03:36;100;0;140.38;-17;-17.85;-1.93;15.9;3.30;73386;4419.656;-6318.994;1;136;-225;-231.7;32.4;32.0;11;11.3;29.0;0.0;
07/04/2021 20:03:56;100;0;141.04;-17;-16.82;2.72;19.4;3.30;73373;4419.652;-6318.990;1;136;-225;-229.7;32.8;32.8;11;11.7;29.0;0.0;
07/04/2021 20:04:16;100;0;141.63;-17;-18.31;2.62;23.0;3.30;73384;4419.648;-6318.985;1;136;-225;-231.7;32.8;33.1;13;13.1;29.0;0.0;
07/04/2021 20:04:36;100;0;138.53;-17;-18.29;3.72;26.7;3.30;73386;4419.644;-6318.981;1;136;-225;-229.7;32.8;33.1;9;9.0;29.0;0.0;
07/04/2021 20:04:56;100;0;137.08;-17;-18.12;0.91;30.4;3.30;73390;4419.640;-6318.976;1;136;-225;-229.7;32.8;33.1;9;8.1;29.0;0.0;
07/04/2021 20:05:16;100;0;135.13;-17;-17.97;0.86;34.2;3.30;73393;4419.637;-6318.970;1;136;-225;-231.7;32.8;32.9;5;5.0;29.0;0.0;
07/04/2021 20:05:36;100;0;135.15;-17;-17.98;-0.90;37.8;3.30;73402;4419.633;-6318.966;1;136;-225;-229.7;32.8;32.9;5;4.5;29.0;0.0;
07/04/2021 20:05:56;100;0;137.03;-17;-18.02;-1.05;41.6;3.30;73412;4419.629;-6318.961;1;136;-225;-231.7;32.8;32.9;8;8.1;29.0;0.0;
07/04/2021 20:06:16;100;0;137.20;-17;-17.81;1.27;45.3;3.30;73414;4419.626;-6318.956;1;136;-225;-231.7;32.8;32.9;8;9.0;29.0;0.0;
07/04/2021 20:06:36;100;0;136.59;-17;-17.53;1.16;49.0;3.30;73432;4419.622;-6318.951;1;136;-225;-231.7;32.8;32.9;8;9.0;29.0;0.0;
07/04/2021 20:06:56;100;0;134.35;-17;-17.46;1.28;52.6;3.30;73422;4419.618;-6318.946;1;136;-225;-229.7;32.8;33.1;4;4.1;29.0;0.0;
07/04/2021 20:07:16;100;0;134.65;-17;-17.19;-1.55;56.2;3.30;73409;4419.615;-6318.941;1;136;-225;-229.7;32.8;32.9;4;3.6;29.0;0.0;
07/04/2021 20:07:36;100;0;134.58;-17;-17.03;-1.48;59.6;3.30;73411;4419.611;-6318.936;1;136;-225;-229.7;32.8;33.1;4;3.6;29.0;0.0;
07/04/2021 20:07:56;100;0;134.69;-17;-16.82;-1.59;63.1;3.30;73406;4419.608;-6318.931;1;136;-225;-231.7;33.3;33.4;4;3.6;29.0;0.0;
07/04/2021 20:08:16;100;0;137.88;-17;-17.80;-1.72;66.4;3.30;73393;4419.605;-6318.927;1;136;-225;-231.7;33.3;33.5;9;9.0;29.0;0.0;
07/04/2021 20:08:36;100;0;139.76;-17;-18.01;1.53;69.9;3.30;73382;4419.601;-6318.922;1;136;-225;-229.7;33.3;33.5;11;10.8;29.0;0.0;
07/04/2021 20:08:56;100;0;138.69;-17;-17.41;2.51;73.4;3.30;73371;4419.597;-6318.918;1;136;-225;-229.7;33.3;33.5;11;11.3;29.0;44.1;
07/04/2021 20:09:16;100;0;135.70;-17;-16.66;2.69;76.8;3.30;73386;4419.594;-6318.913;1;136;-225;-229.7;33.8;34.1;6;5.4;29.0;40.7;
07/04/2021 20:09:36;100;0;133.18;-17;-17.11;-0.77;80.0;3.30;73424;4419.591;-6318.908;1;136;-225;-229.7;33.8;34.0;3;3.2;29.0;37.4;
07/04/2021 20:09:56;100;0;132.18;-17;-17.15;-1.91;83.1;3.30;73461;4419.588;-6318.904;1;136;-225;-231.7;33.8;34.1;3;2.7;29.0;34.0;
07/04/2021 20:10:16;100;0;133.07;-17;-16.68;-2.25;86.4;3.30;73488;4419.584;-6318.899;1;136;-225;-231.7;34.3;34.4;3;2.7;29.0;30.7;
07/04/2021 20:10:36;100;0;132.83;-17;-17.60;-2.14;89.5;3.30;73514;4419.582;-6318.895;1;136;-225;-229.7;34.3;34.6;3;2.7;29.0;27.2;
07/04/2021 20:10:56;100;0;133.65;-17;-17.54;-2.10;92.7;3.30;73530;4419.579;-6318.890;1;136;-225;-229.7;34.3;34.6;3;2.7;29.0;23.7;
07/04/2021 20:11:16;100;0;135.46;-17;-17.32;-2.11;96.0;3.30;73558;4419.575;-6318.886;1;136;-225;-231.7;34.3;34.7;6;5.9;29.0;20.0;
07/04/2021 20:11:36;100;0;137.07;-17;-17.50;0.20;99.2;3.30;73579;4419.572;-6318.881;1;136;-225;-231.7;34.3;34.7;8;8.1;29.0;16.4;
07/04/2021 20:11:56;100;0;137.05;-17;-16.03;1.07;102.3;3.40;73633;4419.569;-6318.877;1;136;-225;-229.7;35.0;35.0;8;8.6;29.0;12.9;
07/04/2021 20:12:16;118;0;136.76;-17;-16.02;0.93;105.2;3.40;73695;4419.565;-6318.873;1;136;500;-231.7;19.6;21.8;-2;-2.3;29.0;9.4;
07/04/2021 20:12:26;118;0;136.76;-17;1.74;-4.31;106.2;3.40;73638;4419.565;-6318.872;1;136;500;-166.3;19.6;19.2;-2;-2.3;29.0;-1.0;
07/04/2021 20:12:36;118;0;136.76;-17;18.37;-4.43;106.2;3.50;73402;4419.565;-6318.872;1;136;500;-15.8;19.6;19.5;-2;-2.3;28.6;-1.0;
07/04/2021 20:12:46;118;0;136.76;-17;22.00;-4.48;105.9;3.50;73152;4419.565;-6318.872;1;136;500;138.6;19.6;19.8;-2;-2.3;28.6;-1.0;
07/04/2021 20:12:56;118;0;136.76;-17;18.87;-4.37;105.6;3.50;72917;4419.564;-6318.872;1;136;500;289.1;19.6;19.7;-2;-2.3;28.6;-1.0;
07/04/2021 20:13:06;118;0;136.76;-17;17.70;-4.37;104.9;3.50;72685;4419.564;-6318.871;1;136;500;435.6;19.6;19.7;-2;-2.3;28.6;-1.0;
07/04/2021 20:13:16;118;0;136.76;-17;20.25;-4.58;104.0;3.60;72524;4419.563;-6318.870;1;136;500;505.0;19.6;19.7;-2;-2.3;28.6;-1.0;
07/04/2021 20:13:26;118;0;129.09;-17;21.06;-4.64;102.5;3.60;72537;4419.562;-6318.868;1;136;500;505.0;19.6;19.7;-2;-2.3;29.0;-1.0;
07/04/2021 20:13:46;117;0;127.25;-17;19.54;-4.55;99.2;3.60;72539;4419.559;-6318.863;1;136;500;506.9;19.6;19.7;-2;-2.3;29.0;-1.0;
07/04/2021 20:14:06;117;0;125.18;-17;18.99;-4.55;96.2;3.70;72517;4419.557;-6318.858;1;136;500;505.0;19.6;19.7;16;15.8;29.0;-1.0;
07/04/2021 20:14:26;117;0;132.81;-17;17.99;5.81;93.2;3.70;72475;4419.554;-6318.854;1;136;500;506.9;19.6;19.7;7;6.8;29.0;-1.0;
07/04/2021 20:14:46;117;0;131.51;-17;18.54;0.20;90.3;3.70;72443;4419.551;-6318.850;1;136;500;506.9;19.6;19.7;7;6.3;29.0;-1.0;
07/04/2021 20:15:06;117;0;133.88;-17;18.62;0.34;87.5;3.70;72423;4419.549;-6318.846;1;136;500;506.9;19.6;19.7;5;5.0;29.0;-1.0;
07/04/2021 20:15:26;117;0;135.88;-17;18.08;-0.77;84.7;3.70;72414;4419.546;-6318.842;1;136;500;506.9;19.6;19.7;3;3.2;29.0;-1.0;
07/04/2021 20:15:46;117;0;135.76;-17;18.04;-1.60;81.9;3.70;72391;4419.543;-6318.839;1;136;500;506.9;19.6;19.7;3;2.7;29.0;-1.0;
07/04/2021 20:16:06;117;0;138.15;-17;17.98;-1.55;79.1;3.70;72371;4419.541;-6318.835;1;136;500;505.0;19.6;19.7;0;-0.5;29.0;-1.0;
07/04/2021 20:16:26;117;0;139.78;-17;17.88;-3.46;76.5;3.70;72352;4419.538;-6318.832;1;136;500;506.9;19.6;19.7;-2;-1.8;29.0;-1.0;
07/04/2021 20:16:46;117;0;137.82;-17;17.27;-4.68;73.8;3.70;72317;4419.535;-6318.828;1;136;500;506.9;19.6;19.7;1;0.9;29.0;-1.0;
07/04/2021 20:17:06;117;0;138.19;-17;16.84;-2.42;71.3;3.70;72275;4419.532;-6318.825;1;136;500;506.9;18.9;18.9;1;1.4;29.0;-1.0;
07/04/2021 20:17:26;117;0;136.51;-17;18.19;-2.48;68.8;3.70;72247;4419.530;-6318.822;1;136;500;506.9;18.9;18.8;1;1.4;29.0;-1.0;
07/04/2021 20:17:46;117;0;135.04;-17;18.16;-2.55;66.3;3.70;72213;4419.527;-6318.818;1;136;500;506.9;18.9;18.8;4;4.1;29.0;-1.0;
07/04/2021 20:18:06;117;0;134.25;-17;17.47;-0.78;63.7;3.70;72200;4419.525;-6318.815;1;136;500;505.0;18.9;18.8;4;5.0;29.0;-1.0;
07/04/2021 20:18:26;117;0;134.85;-17;17.09;-0.61;61.2;3.60;72193;4419.522;-6318.811;1;136;500;506.9;18.9;18.8;4;5.0;29.0;-1.0;
07/04/2021 20:18:46;117;0;137.24;-17;16.99;-0.55;58.8;3.60;72197;4419.520;-6318.808;1;136;500;505.0;18.2;17.9;1;0.5;29.0;-1.0;
07/04/2021 20:19:06;117;0;136.33;-17;18.74;-3.18;56.3;3.60;72206;4419.517;-6318.805;1;136;500;506.9;18.2;18.0;1;0.0;29.0;-1.0;
07/04/2021 20:19:26;117;0;135.89;-17;19.01;-3.22;53.9;3.60;72190;4419.515;-6318.802;1;136;500;506.9;17.9;17.9;3;3.2;29.0;-1.0;
07/04/2021 20:19:46;117;0;136.79;-17;18.99;-1.34;51.3;3.60;72197;4419.513;-6318.798;1;136;500;506.9;17.9;17.9;3;3.6;29.0;-1.0;
07/04/2021 20:20:06;117;0;137.13;-17;18.89;-1.16;48.8;3.60;72183;4419.510;-6318.795;1;136;500;506.9;17.9;17.9;1;0.5;29.0;-1.0;
07/04/2021 20:20:26;117;0;136.10;-17;18.79;-3.24;46.3;3.60;72186;4419.508;-6318.792;1;136;500;505.0;17.9;17.7;3;3.2;29.0;-1.0;
07/04/2021 20:20:46;117;0;136.98;-17;18.78;-1.04;44.1;3.60;72182;4419.506;-6318.789;1;136;500;506.9;17.9;17.9;3;4.1;29.0;-1.0;
07/04/2021 20:21:06;117;0;137.85;-17;18.61;-1.06;41.6;3.60;72194;4419.503;-6318.786;1;136;500;506.9;17.9;17.9;1;0.9;29.0;-1.0;
07/04/2021 20:21:26;117;0;136.48;-17;18.52;-3.08;39.1;3.60;72193;4419.501;-6318.783;1;136;500;505.0;17.9;17.9;1;0.5;29.0;-1.0;
07/04/2021 20:21:46;117;0;135.12;-17;18.48;-3.16;36.6;3.60;72193;4419.498;-6318.779;1;136;500;506.9;17.9;17.9;4;4.1;29.0;-1.0;
07/04/2021 20:22:06;117;0;135.30;-17;18.35;-0.85;34.2;3.60;72184;4419.496;-6318.776;1;136;500;505.0;17.9;17.9;4;4.5;29.0;-1.0;
07/04/2021 20:22:26;117;0;135.01;-17;18.28;-0.81;31.7;3.60;72182;4419.493;-6318.773;1;136;500;505.0;17.9;17.9;4;4.5;29.0;-1.0;
07/04/2021 20:22:46;117;0;136.07;-17;18.01;-0.77;29.2;3.60;72180;4419.491;-6318.769;1;136;500;506.9;17.9;17.9;4;4.5;29.0;-1.0;
07/04/2021 20:23:06;117;0;136.32;-17;18.12;-0.84;26.8;3.60;72169;4419.489;-6318.766;1;136;500;505.0;17.9;17.9;2;1.4;29.0;-1.0;
07/04/2021 20:23:26;117;0;135.12;-17;18.00;-2.73;24.4;3.50;72156;4419.486;-6318.763;1;136;500;505.0;17.9;17.9;4;4.1;29.0;-1.0;
07/04/2021 20:23:46;117;0;136.27;-17;17.85;-0.69;21.9;3.50;72140;4419.484;-6318.760;1;136;500;506.9;17.9;17.9;2;1.8;29.0;-1.0;
07/04/2021 20:24:06;117;0;133.80;-17;17.57;-2.73;19.4;3.50;72129;4419.481;-6318.756;1;136;500;506.9;17.9;17.9;5;5.0;29.0;-1.0;
07/04/2021 20:24:26;117;0;135.29;-17;17.64;-0.40;17.1;3.50;72138;4419.479;-6318.753;1;136;500;506.9;17.9;17.9;5;5.4;29.0;-1.0;
07/04/2021 20:24:46;117;0;136.33;-17;17.68;-0.31;14.5;3.50;72130;4419.477;-6318.750;1;136;500;506.9;17.9;17.9;2;1.8;29.0;-1.0;
07/04/2021 20:25:06;117;0;134.26;-17;17.58;-2.62;12.1;3.50;72126;4419.474;-6318.746;1;136;500;506.9;17.9;17.9;5;5.0;29.0;-1.0;
