Timestamp;NavState;SecurityLevel;Heading;Declination;Pitch;Roll;Depth;Temperature;Pa;Lat;Lon;DeadReckoning;DesiredH;BallastCmd;BallastPos;LinCmd;LinPos;AngCmd;AngPos;Voltage;Altitude;
07/04/2021 13:54:03;117;0;48.75;-17;16.60;-3.01;9.3;7.70;73815;4422.647;-6319.835;1;-9999;200;215.8;18.0;18.2;0;0.0;29.2;-1.0;
07/04/2021 13:54:23;115;0;47.56;-17;15.94;-3.43;8.4;7.70;73803;4422.648;-6319.834;1;-9999;500;215.8;100.0;32.5;0;0.0;29.2;-1.0;
07/04/2021 13:54:33;115;0;47.56;-17;-24.47;-4.02;7.6;7.70;73770;4422.649;-6319.833;1;-9999;500;253.5;100.0;91.2;0;0.0;29.2;-1.0;
07/04/2021 13:54:43;115;0;47.56;-17;-74.81;0.36;7.2;7.60;73543;4422.649;-6319.833;1;-9999;500;396.0;100.0;100.1;0;0.0;28.9;-1.0;
07/04/2021 13:54:53;115;0;47.56;-17;-67.99;-8.72;5.3;7.60;73298;4422.650;-6319.831;1;-9999;500;506.9;100.0;100.3;0;0.0;28.9;-1.0;
07/04/2021 13:55:03;115;0;49.56;-17;-72.47;0.23;1.7;7.60;73288;4422.651;-6319.830;1;-9999;500;506.9;100.0;100.1;0;0.0;29.2;-1.0;
07/04/2021 13:55:23;116;0;41.03;-17;-73.38;2.42;0.6;7.60;73292;4422.587;-6319.947;0;-9999;500;508.9;100.0;100.3;0;0.0;29.2;-1.0;
07/04/2021 13:55:53;116;0;41.51;-17;-68.93;-27.49;0.4;7.50;73285;4422.585;-6319.949;0;-9999;500;508.9;100.0;100.3;0;0.0;29.2;-1.0;
07/04/2021 13:56:13;116;0;27.42;-17;-66.64;-1.03;0.0;7.40;73282;4422.585;-6319.949;0;-9999;500;508.9;100.0;100.1;0;0.0;29.2;-1.0;
07/04/2021 13:56:33;116;0;27.14;-17;-63.35;-19.43;0.3;7.40;73281;4422.584;-6319.950;0;-9999;500;508.9;100.0;100.3;0;0.0;29.2;-1.0;
07/04/2021 13:56:53;116;0;40.94;-17;-64.22;-11.07;0.2;7.40;73279;4422.583;-6319.952;0;-9999;500;508.9;100.0;100.1;0;0.0;29.2;-1.0;
07/04/2021 13:57:13;116;0;35.92;-17;-63.73;-4.75;0.2;7.40;73282;4422.580;-6319.955;0;-9999;500;508.9;100.0;100.1;0;0.0;29.2;-1.0;
07/04/2021 13:57:47;116;0;40.99;-17;-57.95;-13.71;0.1;7.40;73277;4422.579;-6319.955;0;-9999;500;508.9;100.0;100.1;0;0.0;29.1;-1.0;
07/04/2021 13:58:07;116;0;32.10;-17;-52.25;10.74;-0.1;7.40;73266;4422.578;-6319.958;0;-9999;500;510.9;100.0;100.3;0;0.0;29.2;-1.0;
07/04/2021 13:58:27;116;0;39.66;-17;-63.47;-8.68;0.0;7.40;73263;4422.572;-6319.959;0;-9999;500;512.9;100.0;100.1;0;0.0;29.2;-1.0;
07/04/2021 13:59:09;116;0;296.36;-17;-52.15;-8.84;0.1;7.40;73254;4422.572;-6319.961;0;-9999;500;510.9;100.0;100.1;0;0.0;29.2;-1.0;
07/04/2021 13:59:29;116;0;235.46;-17;-51.03;-3.68;0.0;7.40;73254;4422.570;-6319.962;0;-9999;500;510.9;100.0;100.3;0;0.0;29.2;-1.0;
07/04/2021 13:59:49;116;0;334.12;-17;-67.86;-16.00;0.5;7.40;73247;4422.569;-6319.963;0;-9999;500;512.9;100.0;100.3;0;0.0;29.2;-1.0;
07/04/2021 14:00:09;116;0;356.49;-17;-60.33;16.43;0.2;7.40;73237;4422.567;-6319.965;0;-9999;500;512.9;100.0;100.1;0;0.0;29.2;-1.0;
07/04/2021 14:00:29;116;0;17.61;-17;-61.87;6.56;0.2;7.40;73240;4422.566;-6319.966;0;-9999;500;510.9;100.0;100.3;0;0.0;29.2;-1.0;
07/04/2021 14:00:49;116;0;45.52;-17;-61.26;-17.82;0.4;7.40;73241;4422.565;-6319.968;0;151;500;512.9;100.0;100.1;0;0.0;29.0;-1.0;
07/04/2021 14:01:09;116;0;31.14;-17;-62.95;-6.20;0.3;7.40;73241;4422.565;-6319.969;0;151;500;510.9;100.0;100.3;0;0.0;29.2;-1.0;
07/04/2021 14:01:29;116;0;38.20;-17;-59.79;-14.85;0.3;7.40;73227;4422.564;-6319.971;0;151;500;510.9;100.0;100.3;0;0.0;29.2;-1.0;
07/04/2021 14:01:49;116;0;33.39;-17;-66.18;0.43;0.3;7.40;73228;4422.562;-6319.972;0;151;500;510.9;100.0;100.1;0;0.0;29.1;-1.0;
07/04/2021 14:02:09;116;0;40.57;-17;-64.95;-15.31;0.3;7.40;73229;4422.561;-6319.974;0;151;500;510.9;100.0;100.3;0;0.0;29.2;-1.0;
07/04/2021 14:02:29;110;0;36.79;-17;-66.30;-1.65;0.3;7.40;73222;4422.561;-6319.974;1;151;-250;497.0;100.0;100.3;0;0.0;29.2;-1.0;
07/04/2021 14:02:39;110;0;56.05;-17;-65.53;-17.95;0.4;7.40;73410;4422.561;-6319.974;1;151;-250;384.2;100.0;100.3;0;0.0;29.1;-1.0;
07/04/2021 14:02:49;110;0;52.81;-17;-72.57;-2.97;0.6;7.40;73625;4422.561;-6319.973;1;151;-250;261.4;100.0;100.1;0;0.0;29.1;-1.0;
07/04/2021 14:02:59;110;0;66.36;-17;-70.15;-26.93;0.7;7.40;73842;4422.561;-6319.973;1;151;-250;136.6;100.0;100.1;0;0.0;29.1;-1.0;
07/04/2021 14:03:09;110;0;63.03;-17;-69.83;-15.95;1.2;7.40;74056;4422.561;-6319.973;1;151;-250;-0.0;100.0;100.3;0;0.0;29.1;-1.0;
07/04/2021 14:03:19;110;0;60.53;-17;-72.28;-5.03;3.0;7.40;74329;4422.562;-6319.972;1;151;-250;-166.3;67.7;89.6;0;0.0;29.1;-1.0;
07/04/2021 14:03:29;110;0;54.39;-17;-65.06;-4.14;6.8;7.40;74526;4422.563;-6319.970;1;151;-250;-251.5;36.0;56.5;0;0.0;29.0;-1.0;
07/04/2021 14:03:49;100;0;67.83;-17;-39.18;-4.37;16.9;7.40;74478;4422.565;-6319.961;1;151;-250;-253.5;36.0;35.8;0;0.0;29.1;-1.0;
07/04/2021 14:04:09;100;0;70.39;-17;-29.14;-3.74;24.3;7.30;74462;4422.568;-6319.952;1;151;-250;-253.5;33.8;33.7;-70;-37.5;29.2;0.0;
07/04/2021 14:04:29;100;0;80.02;-17;-14.18;-41.78;29.8;7.30;74455;4422.569;-6319.941;1;151;-250;-253.5;34.5;34.7;-70;-69.9;29.2;0.0;
07/04/2021 14:04:49;100;0;98.12;-17;-10.21;-41.96;32.8;7.20;74456;4422.568;-6319.934;1;151;-250;-251.5;36.1;36.4;-63;-63.2;29.2;0.0;
07/04/2021 14:05:09;100;0;119.14;-17;-15.97;-38.44;35.9;7.20;74445;4422.566;-6319.929;1;151;-250;-255.4;36.5;36.2;-38;-37.9;29.2;0.0;
07/04/2021 14:05:29;100;0;135.78;-17;-21.02;-23.58;39.8;7.20;74457;4422.563;-6319.924;1;151;-250;-253.5;35.9;35.8;-18;-18.1;29.2;0.0;
07/04/2021 14:05:49;100;0;145.28;-17;-23.54;-12.69;44.4;7.10;74455;4422.559;-6319.920;1;151;-250;-253.5;34.8;34.9;-7;-7.2;29.2;0.0;
07/04/2021 14:06:09;100;0;147.27;-17;-22.96;-6.87;49.1;7.10;74460;4422.554;-6319.916;1;151;-250;-253.5;33.8;33.8;-5;-4.1;29.2;0.0;
07/04/2021 14:06:29;100;0;151.91;-17;-20.32;-5.53;53.4;7.00;74463;4422.549;-6319.912;1;151;-250;-253.5;33.3;33.2;1;0.9;29.2;0.0;
07/04/2021 14:06:49;100;0;153.45;-17;-18.91;-2.57;57.2;7.00;74448;4422.545;-6319.909;1;151;-250;-253.5;33.3;33.2;3;3.6;29.2;0.0;
07/04/2021 14:07:09;100;0;157.11;-17;-18.13;-1.21;60.8;6.90;74459;4422.540;-6319.906;1;151;-250;-253.5;33.3;33.2;7;7.2;29.2;44.6;
07/04/2021 14:07:29;100;0;159.60;-17;-17.65;0.51;64.4;6.90;74475;4422.535;-6319.904;1;151;-250;-253.5;33.3;33.4;10;10.4;29.2;43.6;
07/04/2021 14:07:49;100;0;162.53;-17;-17.43;2.16;67.8;6.80;74487;4422.531;-6319.902;1;151;-250;-253.5;33.3;33.2;14;14.0;29.2;41.5;
07/04/2021 14:08:09;100;0;163.68;-17;-17.15;4.19;71.2;6.80;74489;4422.526;-6319.900;1;151;-250;-253.5;33.3;33.2;14;14.4;29.2;38.9;
07/04/2021 14:08:29;100;0;160.90;-17;-16.56;4.38;74.5;6.70;74503;4422.522;-6319.898;1;151;-250;-253.5;33.6;33.8;12;12.2;29.2;35.5;
07/04/2021 14:08:49;100;0;156.92;-17;-17.48;2.57;77.8;6.70;74514;4422.517;-6319.895;1;151;-250;-251.5;33.6;33.8;7;6.8;29.2;32.0;
07/04/2021 14:09:09;100;0;155.15;-17;-17.52;-0.06;81.3;6.70;74521;4422.513;-6319.893;1;151;-250;-253.5;33.6;33.8;5;4.5;29.2;28.5;
07/04/2021 14:09:29;100;0;155.90;-17;-17.75;-1.48;84.6;6.60;74525;4422.509;-6319.890;1;151;-250;-253.5;33.6;33.8;5;4.1;29.2;25.1;
07/04/2021 14:09:49;100;0;157.27;-17;-17.65;-1.38;88.2;6.60;74525;4422.504;-6319.887;1;151;-250;-253.5;33.6;33.8;8;8.6;29.2;21.5;
07/04/2021 14:10:09;100;0;157.16;-17;-17.26;0.93;91.7;6.50;74533;4422.500;-6319.885;1;151;-250;-253.5;33.6;33.8;8;8.6;29.2;17.9;
07/04/2021 14:10:29;100;0;156.71;-17;-17.04;0.90;94.9;6.50;74535;4422.496;-6319.882;1;151;-250;-253.5;33.6;33.8;8;8.6;29.1;14.5;
07/04/2021 14:10:49;118;0;153.78;-17;-15.76;1.39;98.2;6.50;74583;4422.491;-6319.879;1;151;350;-253.5;20.0;20.4;0;-0.9;29.2;11.2;
07/04/2021 14:10:59;118;0;153.78;-17;0.62;-3.59;99.2;6.50;74531;4422.491;-6319.879;1;151;350;-176.2;20.0;19.7;0;-0.9;29.1;-1.0;
07/04/2021 14:11:09;118;0;153.78;-17;16.10;-3.69;99.1;6.50;74304;4422.491;-6319.879;1;151;350;-23.8;20.0;20.0;0;-0.5;28.8;-1.0;
07/04/2021 14:11:19;118;0;153.78;-17;20.28;-3.62;98.8;6.50;74078;4422.490;-6319.878;1;151;350;128.7;20.0;20.1;0;-0.5;28.8;-1.0;
07/04/2021 14:11:29;118;0;153.78;-17;17.55;-3.58;98.4;6.50;73838;4422.490;-6319.878;1;151;350;281.2;20.0;20.1;0;-0.9;28.8;-1.0;
07/04/2021 14:11:39;118;0;150.08;-17;16.73;-4.00;97.8;6.50;73661;4422.489;-6319.877;1;151;350;360.4;20.0;20.1;0;-0.9;28.7;-1.0;
07/04/2021 14:11:59;117;0;150.67;-17;19.26;-3.53;96.0;6.50;73676;4422.487;-6319.876;1;151;350;362.4;20.0;20.1;0;-0.9;29.2;-1.0;
07/04/2021 14:12:19;117;0;147.41;-17;17.90;-3.80;94.2;6.50;73659;4422.485;-6319.874;1;151;350;360.4;20.0;20.1;4;4.1;29.1;-1.0;
07/04/2021 14:12:39;117;0;150.76;-17;17.57;-0.65;92.4;6.50;73629;4422.483;-6319.872;1;151;350;362.4;20.0;20.1;0;0.0;29.1;-1.0;
07/04/2021 14:12:59;117;0;149.51;-17;17.58;-3.46;90.7;6.40;73600;4422.481;-6319.871;1;151;350;362.4;20.0;20.3;2;1.8;29.1;-1.0;
07/04/2021 14:13:19;117;0;150.00;-17;17.20;-1.95;88.8;6.40;73589;4422.479;-6319.869;1;151;350;362.4;20.0;20.1;2;2.3;29.2;-1.0;
07/04/2021 14:13:39;117;0;149.33;-17;17.13;-1.95;87.2;6.40;73572;4422.477;-6319.867;1;151;350;362.4;20.0;20.1;2;2.3;29.2;-1.0;
07/04/2021 14:13:59;117;0;149.66;-17;17.04;-1.94;85.5;6.30;73548;4422.475;-6319.865;1;151;350;362.4;20.0;20.1;2;2.3;29.2;-1.0;
07/04/2021 14:14:19;117;0;149.67;-17;17.13;-1.92;83.8;6.30;73546;4422.472;-6319.864;1;151;350;362.4;20.0;20.3;2;2.3;29.2;-1.0;
07/04/2021 14:14:39;117;0;149.66;-17;16.94;-1.93;82.2;6.20;73531;4422.470;-6319.862;1;151;350;362.4;19.8;19.8;2;2.3;29.2;-1.0;
07/04/2021 14:14:59;117;0;150.01;-17;17.70;-1.93;80.5;6.20;73519;4422.468;-6319.861;1;151;350;362.4;19.8;19.7;2;2.3;29.2;-1.0;
07/04/2021 14:15:19;117;0;150.20;-17;17.42;-1.94;78.8;6.20;73520;4422.466;-6319.859;1;151;350;362.4;19.8;19.7;2;2.3;29.2;-1.0;
07/04/2021 14:15:39;117;0;149.81;-17;17.46;-1.99;77.0;6.10;73511;4422.464;-6319.857;1;151;350;362.4;19.8;19.7;2;2.3;29.2;-1.0;
07/04/2021 14:15:59;117;0;151.10;-17;17.46;-1.95;75.4;6.10;73495;4422.462;-6319.855;1;151;350;362.4;19.8;19.7;0;0.0;29.2;-1.0;
07/04/2021 14:16:19;117;0;149.74;-17;17.40;-3.58;73.6;6.10;73496;4422.460;-6319.854;1;151;350;364.4;19.8;19.5;2;2.3;29.2;-1.0;
07/04/2021 14:16:39;117;0;148.93;-17;16.89;-1.78;71.9;6.00;73487;4422.458;-6319.852;1;151;350;362.4;19.5;19.5;2;2.7;29.2;-1.0;
07/04/2021 14:16:59;117;0;147.00;-17;17.07;-1.90;70.1;6.00;73486;4422.456;-6319.850;1;151;350;362.4;19.5;19.7;5;5.4;29.2;-1.0;
07/04/2021 14:17:19;117;0;147.09;-17;17.18;-0.15;68.6;6.00;73484;4422.454;-6319.848;1;151;350;362.4;19.5;19.7;5;5.9;29.2;-1.0;
07/04/2021 14:17:39;117;0;146.70;-17;17.12;-0.09;67.0;5.90;73464;4422.452;-6319.847;1;151;350;362.4;19.5;19.7;5;5.9;29.2;-1.0;
07/04/2021 14:17:59;117;0;146.14;-17;17.06;-0.08;65.4;5.90;73455;4422.450;-6319.845;1;151;350;362.4;19.5;19.5;5;5.9;29.2;-1.0;
07/04/2021 14:18:19;117;0;145.94;-17;17.04;-0.01;63.9;5.90;73448;4422.448;-6319.843;1;151;350;360.4;19.5;19.7;5;5.9;29.2;-1.0;
07/04/2021 14:18:40;117;0;145.61;-17;16.77;-0.00;62.3;5.90;73440;4422.447;-6319.841;1;151;350;360.4;19.2;19.2;7;7.2;29.2;-1.0;
07/04/2021 14:19:00;117;0;145.67;-17;17.84;0.89;60.7;5.80;73432;4422.445;-6319.840;1;151;350;362.4;19.2;18.9;7;7.7;29.2;-1.0;
07/04/2021 14:19:20;117;0;145.02;-17;17.53;0.93;59.0;5.80;73416;4422.443;-6319.838;1;151;350;362.4;19.2;19.1;7;7.7;29.2;-1.0;
07/04/2021 14:19:40;117;0;145.06;-17;17.68;0.95;57.5;5.80;73412;4422.441;-6319.836;1;151;350;362.4;19.2;19.1;7;7.7;29.2;-1.0;
07/04/2021 14:20:00;117;0;145.58;-17;17.17;0.99;55.9;5.80;73392;4422.439;-6319.834;1;151;350;360.4;19.2;18.9;7;7.7;29.2;-1.0;
07/04/2021 14:20:20;117;0;145.75;-17;16.96;0.89;54.3;5.70;73377;4422.437;-6319.833;1;151;350;364.4;19.0;18.9;7;7.7;29.2;-1.0;
07/04/2021 14:20:40;117;0;145.37;-17;17.37;0.94;52.7;5.70;73370;4422.436;-6319.831;1;151;350;362.4;19.0;18.8;7;7.7;29.2;-1.0;
07/04/2021 14:21:00;117;0;144.04;-17;17.39;0.97;51.1;5.70;73361;4422.434;-6319.829;1;151;350;362.4;19.0;18.8;9;9.0;29.2;-1.0;
07/04/2021 14:21:20;117;0;144.50;-17;17.00;1.91;49.5;5.60;73348;4422.432;-6319.827;1;151;350;362.4;19.0;18.8;9;9.5;29.2;-1.0;
07/04/2021 14:21:40;117;0;148.30;-17;17.36;1.99;48.0;5.60;73345;4422.430;-6319.825;1;151;350;362.4;19.0;18.8;4;4.1;29.2;-1.0;
07/04/2021 14:22:00;117;0;148.15;-17;17.09;-1.18;46.4;5.60;73337;4422.428;-6319.824;1;151;350;362.4;19.0;18.8;4;3.6;29.2;-1.0;
07/04/2021 14:22:20;117;0;149.26;-17;17.10;-1.30;45.0;5.50;73330;4422.426;-6319.822;1;151;350;362.4;19.0;18.8;4;3.6;29.2;-1.0;
07/04/2021 14:22:40;117;0;152.64;-17;17.08;-1.27;43.5;5.50;73321;4422.424;-6319.821;1;151;350;362.4;19.0;18.6;-1;-0.9;29.2;-1.0;
07/04/2021 14:23:00;117;0;152.03;-17;17.01;-4.16;42.1;5.50;73320;4422.423;-6319.820;1;151;350;362.4;19.0;18.8;-1;-1.8;29.1;-1.0;
07/04/2021 14:23:20;117;0;151.33;-17;17.03;-4.20;40.7;5.40;73327;4422.421;-6319.818;1;151;350;362.4;19.0;18.8;1;0.9;29.2;-1.0;
07/04/2021 14:23:40;117;0;152.94;-17;16.93;-2.25;39.3;5.40;73320;4422.419;-6319.817;1;151;350;362.4;18.7;18.3;-1;-0.9;29.2;-1.0;
07/04/2021 14:24:00;117;0;151.33;-17;18.35;-4.14;37.9;5.40;73317;4422.417;-6319.816;1;151;350;360.4;18.7;18.2;-1;-1.4;29.2;-1.0;
07/04/2021 14:24:20;117;0;150.42;-17;17.61;-4.14;36.3;5.40;73312;4422.416;-6319.814;1;151;350;362.4;18.7;18.2;2;2.3;29.2;-1.0;
07/04/2021 14:24:40;117;0;151.96;-17;17.81;-1.66;34.8;5.30;73290;4422.414;-6319.813;1;151;350;364.4;18.7;18.3;0;0.0;29.2;-1.0;
07/04/2021 14:25:00;117;0;150.63;-17;17.89;-3.61;33.4;5.30;73289;4422.412;-6319.812;1;151;350;362.4;18.7;18.3;0;-0.9;29.2;-1.0;
07/04/2021 14:25:20;117;0;150.33;-17;17.61;-3.67;31.9;5.30;73276;4422.410;-6319.810;1;151;350;362.4;18.7;18.2;2;1.8;29.1;-1.0;
07/04/2021 14:25:40;117;0;150.75;-17;17.67;-1.83;30.5;5.30;73264;4422.409;-6319.809;1;151;350;362.4;18.7;18.3;2;2.7;29.2;-1.0;
07/04/2021 14:26:00;117;0;149.57;-17;17.47;-1.83;29.0;5.20;73260;4422.407;-6319.807;1;151;350;362.4;18.7;18.3;2;2.7;29.1;-1.0;
07/04/2021 14:26:20;117;0;149.24;-17;17.65;-1.85;27.6;5.20;73259;4422.405;-6319.806;1;151;350;362.4;18.7;18.3;2;2.7;29.2;-1.0;
07/04/2021 14:26:40;117;0;149.09;-17;17.65;-1.86;26.2;5.20;73246;4422.403;-6319.805;1;151;350;364.4;18.7;18.3;2;2.7;29.2;-1.0;
07/04/2021 14:27:00;117;0;147.74;-17;17.63;-1.86;24.8;5.20;73245;4422.402;-6319.803;1;151;350;362.4;18.7;18.3;5;5.4;29.2;-1.0;
07/04/2021 14:27:20;117;0;148.32;-17;17.48;-0.21;23.3;5.10;73232;4422.400;-6319.802;1;151;350;362.4;18.7;18.3;5;5.9;29.2;-1.0;
07/04/2021 14:27:40;117;0;147.98;-17;17.15;-0.26;21.8;5.10;73226;4422.398;-6319.800;1;151;350;362.4;18.7;18.2;5;5.9;29.2;-1.0;
07/04/2021 14:28:00;117;0;147.44;-17;17.34;-0.28;20.3;5.10;73220;4422.396;-6319.798;1;151;350;362.4;18.7;18.3;5;5.9;29.2;-1.0;
07/04/2021 14:28:20;117;0;147.35;-17;17.57;-0.24;18.8;5.10;73209;4422.395;-6319.797;1;151;350;362.4;18.7;18.3;5;5.9;29.2;-1.0;
07/04/2021 14:28:40;117;0;148.29;-17;17.45;-0.13;17.3;5.00;73206;4422.393;-6319.795;1;151;350;362.4;18.7;18.3;5;5.9;29.2;-1.0;
07/04/2021 14:29:00;117;0;150.03;-17;17.06;-0.20;15.8;5.00;73205;4422.391;-6319.794;1;151;350;360.4;18.7;18.3;2;1.8;29.2;-1.0;
07/04/2021 14:29:20;117;0;148.35;-17;17.47;-2.73;14.3;5.00;73199;4422.389;-6319.792;1;151;350;362.4;18.7;18.2;4;4.1;29.2;-1.0;
07/04/2021 14:29:40;117;0;150.50;-17;17.82;-0.83;12.7;4.90;73195;4422.387;-6319.791;1;151;350;362.4;18.7;18.2;2;1.4;29.2;-1.0;
07/04/2021 14:30:00;117;0;149.77;-17;17.13;-3.04;11.1;4.90;73201;4422.385;-6319.789;1;151;350;364.4;18.7;18.3;2;0.9;29.2;-1.0;
