Timestamp;NavState;SecurityLevel;Heading;Declination;Pitch;Roll;Depth;Temperature;Pa;Lat;Lon;DeadReckoning;DesiredH;BallastCmd;BallastPos;LinCmd;LinPos;AngCmd;AngPos;Voltage;Altitude;
07/04/2021 17:19:32;117;0;137.78;-17;17.68;-0.68;9.9;3.50;72362;4421.099;-6320.078;1;137;475;481.2;18.1;17.7;2;1.8;29.1;-1.0;
07/04/2021 17:19:52;115;0;137.82;-17;17.50;-2.82;7.7;3.50;72362;4421.097;-6320.075;1;137;500;483.2;100.0;31.6;0;-0.9;29.1;-1.0;
07/04/2021 17:20:02;115;0;137.82;-17;-27.87;-2.60;6.9;3.50;72292;4421.096;-6320.074;1;137;500;503.0;100.0;100.0;0;-0.9;29.0;-1.0;
07/04/2021 17:20:12;115;0;125.52;-17;-74.52;-12.32;8.2;3.50;72303;4421.096;-6320.073;1;137;500;503.0;100.0;100.1;0;-0.9;29.1;-1.0;
07/04/2021 17:20:32;116;0;114.75;-17;-67.76;-3.70;3.7;3.50;72303;4421.095;-6320.071;1;137;500;505.0;100.0;100.1;0;-0.9;29.1;-1.0;
07/04/2021 17:21:01;116;0;74.26;-17;-62.05;-7.65;0.3;3.50;72308;4421.095;-6320.071;1;137;500;505.0;100.0;100.3;0;-0.9;29.1;-1.0;
07/04/2021 17:21:21;116;0;68.59;-17;-70.60;-7.49;0.8;3.50;72320;4420.948;-6320.636;0;137;500;505.0;100.0;100.1;0;-0.9;29.1;-1.0;
07/04/2021 17:21:41;116;0;73.14;-17;-64.52;-12.63;0.3;3.50;72325;4420.947;-6320.638;0;137;500;503.0;100.0;100.3;0;-0.5;29.1;-1.0;
07/04/2021 17:22:01;116;0;74.81;-17;-54.58;-6.47;0.3;3.50;72337;4420.948;-6320.641;0;148;500;503.0;100.0;100.3;0;-0.9;29.1;-1.0;
07/04/2021 17:22:21;116;0;61.90;-17;-69.93;-0.56;0.5;3.50;72334;4420.948;-6320.644;0;148;500;505.0;100.0;100.3;0;-0.9;29.1;-1.0;
07/04/2021 17:22:41;116;0;73.06;-17;-72.42;-18.13;0.6;3.50;72338;4420.949;-6320.650;0;148;500;505.0;100.0;100.1;0;-0.9;29.1;-1.0;
07/04/2021 17:23:15;116;0;54.86;-17;-60.52;-12.10;0.4;3.60;72348;4420.949;-6320.651;0;136;500;503.0;100.0;100.3;0;-0.5;29.1;-1.0;
07/04/2021 17:23:35;116;0;58.47;-17;-66.70;-7.06;0.4;3.60;72342;4420.948;-6320.654;0;136;500;506.9;100.0;100.3;0;-0.9;29.1;-1.0;
07/04/2021 17:23:55;116;0;64.21;-17;-61.19;-10.74;0.4;3.60;72340;4420.947;-6320.662;0;136;500;505.0;100.0;100.3;0;-0.9;29.0;-1.0;
07/04/2021 17:24:23;116;0;49.97;-17;-70.60;10.39;0.4;3.70;72350;4420.947;-6320.663;0;136;500;505.0;100.0;100.3;0;-0.9;29.1;-1.0;
07/04/2021 17:24:43;116;0;62.38;-17;-66.69;-21.92;0.5;3.70;72340;4420.945;-6320.666;0;136;500;503.0;100.0;100.1;0;-0.9;29.1;-1.0;
07/04/2021 17:25:03;116;0;42.39;-17;-63.74;8.12;0.4;3.80;72348;4420.945;-6320.668;0;136;500;505.0;100.0;100.3;0;-0.5;29.0;-1.0;
07/04/2021 17:25:23;116;0;48.36;-17;-63.65;-12.47;0.4;3.80;72352;4420.944;-6320.671;0;136;500;503.0;100.0;100.3;0;-0.9;29.1;-1.0;
07/04/2021 17:25:43;116;0;44.84;-17;-65.17;1.72;0.5;3.80;72342;4420.942;-6320.678;0;136;500;505.0;100.0;100.3;0;-0.9;29.0;-1.0;
07/04/2021 17:26:19;116;0;57.28;-17;-67.45;-7.39;0.5;3.90;72349;4420.941;-6320.679;0;136;500;503.0;100.0;100.3;0;-0.9;29.1;-1.0;
07/04/2021 17:26:39;116;0;57.43;-17;-63.18;5.65;0.4;3.90;72344;4420.941;-6320.682;0;136;500;505.0;100.0;100.3;0;-0.9;29.1;-1.0;
07/04/2021 17:26:59;116;0;71.95;-17;-64.88;-2.41;0.5;3.90;72353;4420.939;-6320.689;0;136;500;505.0;100.0;100.3;0;-0.9;29.1;-1.0;
07/04/2021 17:27:31;116;0;74.94;-17;-62.04;-10.03;0.5;4.00;72354;4420.939;-6320.690;0;136;500;503.0;100.0;100.1;0;-0.9;29.1;-1.0;
07/04/2021 17:27:51;116;0;68.41;-17;-63.52;-0.43;0.5;4.00;72347;4420.938;-6320.692;0;136;500;505.0;100.0;100.3;0;-0.5;28.9;-1.0;
07/04/2021 17:28:11;116;0;67.33;-17;-62.95;-11.21;0.4;4.10;72351;4420.936;-6320.695;0;136;500;505.0;100.0;100.3;0;-0.5;29.1;-1.0;
07/04/2021 17:28:31;116;0;59.85;-17;-61.39;2.00;0.5;4.10;72358;4420.935;-6320.698;0;136;500;505.0;100.0;100.3;0;-0.9;29.1;-1.0;
07/04/2021 17:28:51;116;0;50.32;-17;-60.89;-3.85;0.5;4.10;72361;4420.933;-6320.700;0;136;500;505.0;100.0;100.3;0;-0.9;29.1;-1.0;
07/04/2021 17:29:11;110;0;40.28;-17;-64.77;5.76;0.6;4.20;72351;4420.933;-6320.700;1;136;-225;491.1;100.0;100.3;0;-0.9;29.1;-1.0;
07/04/2021 17:29:21;110;0;66.41;-17;-67.93;-10.90;0.6;4.20;72546;4420.933;-6320.700;1;136;-225;382.2;100.0;100.3;0;-0.5;29.0;-1.0;
07/04/2021 17:29:31;110;0;64.37;-17;-70.90;-7.76;0.8;4.20;72744;4420.933;-6320.700;1;136;-225;263.4;100.0;100.3;0;-0.9;29.0;-1.0;
07/04/2021 17:29:41;110;0;56.75;-17;-72.49;3.91;1.0;4.20;72953;4420.933;-6320.700;1;136;-225;140.6;100.0;100.3;0;-0.9;29.0;-1.0;
07/04/2021 17:29:51;110;0;65.42;-17;-70.20;1.38;1.6;4.20;73169;4420.933;-6320.699;1;136;-225;4.0;100.0;100.3;0;-0.9;29.0;-1.0;
07/04/2021 17:30:01;110;0;72.81;-17;-71.43;-9.32;3.6;4.20;73441;4420.933;-6320.698;1;136;-225;-172.3;61.1;90.2;0;-0.9;29.0;-1.0;
07/04/2021 17:30:11;110;0;70.15;-17;-63.14;-9.33;8.0;4.20;73585;4420.934;-6320.695;1;136;-225;-223.8;33.2;49.9;0;-0.9;28.9;-1.0;
07/04/2021 17:30:31;100;0;82.10;-17;-36.01;-4.58;18.0;4.20;73561;4420.935;-6320.685;1;136;-225;-229.7;33.4;33.4;0;-0.9;29.0;-1.0;
07/04/2021 17:30:51;100;0;86.82;-17;-25.57;-3.85;24.8;4.20;73548;4420.936;-6320.676;1;136;-225;-227.7;31.9;31.6;-56;-37.9;29.1;0.0;
07/04/2021 17:31:11;100;0;96.43;-17;-11.46;-33.93;28.9;4.20;73542;4420.935;-6320.667;1;136;-225;-229.7;33.3;33.7;-44;-44.2;29.1;0.0;
07/04/2021 17:31:31;100;0;113.51;-17;-14.53;-27.00;31.9;4.20;73547;4420.933;-6320.661;1;136;-225;-229.7;34.1;34.4;-24;-23.9;29.1;0.0;
07/04/2021 17:31:51;100;0;127.11;-17;-19.24;-15.88;35.4;4.20;73556;4420.930;-6320.656;1;136;-225;-229.7;33.9;33.7;-7;-7.2;29.1;0.0;
07/04/2021 17:32:11;100;0;134.46;-17;-20.38;-6.77;39.3;4.20;73555;4420.927;-6320.651;1;136;-225;-229.7;33.5;33.2;2;1.8;29.1;0.0;
07/04/2021 17:32:31;100;0;137.55;-17;-19.83;-2.24;43.3;4.20;73558;4420.923;-6320.646;1;136;-225;-229.7;33.1;32.9;5;5.4;29.1;0.0;
07/04/2021 17:32:51;100;0;138.34;-17;-18.78;-0.33;47.2;4.20;73546;4420.919;-6320.641;1;136;-225;-229.7;33.1;32.9;5;5.9;29.1;0.0;
07/04/2021 17:33:11;100;0;138.86;-17;-18.43;-0.27;51.0;4.20;73546;4420.915;-6320.637;1;136;-225;-229.7;33.1;32.9;7;7.2;29.1;0.0;
07/04/2021 17:33:31;100;0;141.37;-17;-18.19;0.58;54.7;4.10;73540;4420.911;-6320.632;1;136;-225;-229.7;33.1;32.8;10;10.4;29.1;0.0;
07/04/2021 17:33:51;100;0;142.30;-17;-17.82;2.20;58.2;4.10;73539;4420.907;-6320.628;1;136;-225;-227.7;33.1;32.9;10;10.8;29.1;0.0;
07/04/2021 17:34:11;100;0;139.75;-17;-17.40;2.35;61.8;4.10;73535;4420.904;-6320.623;1;136;-225;-227.7;33.1;32.9;8;8.1;29.1;0.0;
07/04/2021 17:34:31;100;0;140.81;-17;-17.36;0.25;65.2;4.10;73544;4420.900;-6320.619;1;136;-225;-229.7;33.1;32.8;8;7.2;29.1;0.0;
07/04/2021 17:34:51;100;0;139.29;-17;-16.92;0.51;68.6;4.00;73553;4420.896;-6320.615;1;136;-225;-229.7;33.4;33.5;8;7.2;29.1;0.0;
07/04/2021 17:35:11;100;0;138.93;-17;-17.78;0.58;72.1;4.00;73572;4420.893;-6320.610;1;136;-225;-229.7;33.4;33.7;8;7.2;29.1;0.0;
07/04/2021 17:35:31;100;0;138.24;-17;-17.22;0.52;75.6;4.00;73584;4420.889;-6320.606;1;136;-225;-227.7;33.4;33.7;6;5.9;29.1;0.0;
07/04/2021 17:35:51;100;0;137.37;-17;-17.02;-0.65;78.9;4.00;73603;4420.885;-6320.601;1;136;-225;-229.7;33.4;33.7;6;5.0;29.1;0.0;
07/04/2021 17:36:11;100;0;136.98;-17;-17.07;-0.72;82.1;4.00;73614;4420.882;-6320.597;1;136;-225;-227.7;33.4;33.7;6;5.0;29.1;0.0;
07/04/2021 17:36:31;100;0;137.93;-17;-16.90;-0.78;85.4;4.00;73623;4420.879;-6320.593;1;136;-225;-229.7;33.7;33.7;6;5.0;29.1;44.2;
07/04/2021 17:36:51;100;0;138.89;-17;-16.54;-0.43;88.5;4.00;73645;4420.875;-6320.588;1;136;-225;-227.7;34.1;34.1;6;5.0;29.1;40.7;
07/04/2021 17:37:11;100;0;138.51;-17;-17.73;-0.61;91.8;4.00;73656;4420.872;-6320.584;1;136;-225;-227.7;34.1;34.3;6;5.0;29.1;37.0;
07/04/2021 17:37:31;100;0;138.53;-17;-17.61;-0.74;95.1;4.00;73662;4420.869;-6320.580;1;136;-225;-229.7;34.1;34.3;6;5.0;29.0;32.8;
07/04/2021 17:37:51;100;0;139.18;-17;-17.09;-0.86;98.4;4.00;73691;4420.865;-6320.576;1;136;-225;-227.7;34.1;34.3;8;8.1;29.1;28.4;
07/04/2021 17:38:11;100;0;140.00;-17;-16.79;1.33;101.4;4.00;73751;4420.862;-6320.572;1;136;-225;-229.7;34.4;34.4;8;8.6;29.1;23.4;
07/04/2021 17:38:31;100;0;137.25;-17;-15.78;1.25;104.5;4.00;73805;4420.858;-6320.568;1;136;-225;-227.7;34.9;35.2;5;5.0;29.1;17.7;
07/04/2021 17:38:51;100;0;138.69;-17;-16.14;-0.91;107.4;4.10;73878;4420.855;-6320.564;1;136;-225;-227.7;35.4;35.6;7;7.7;29.1;11.6;
07/04/2021 17:39:11;118;0;137.71;-17;-16.71;1.10;110.2;4.10;73941;4420.852;-6320.560;1;136;500;-227.7;19.7;22.5;-1;-1.4;29.1;6.6;
07/04/2021 17:39:21;118;0;137.71;-17;1.97;-3.76;111.3;4.10;73893;4420.852;-6320.559;1;136;500;-150.5;19.7;19.1;-1;-1.4;29.0;-1.0;
07/04/2021 17:39:31;118;0;137.71;-17;19.14;-3.86;111.1;4.20;73650;4420.852;-6320.559;1;136;500;4.0;19.7;19.7;-1;-1.4;28.6;-1.0;
07/04/2021 17:39:41;118;0;137.71;-17;22.18;-4.04;110.8;4.20;73414;4420.851;-6320.559;1;136;500;156.4;19.7;19.8;-1;-1.4;28.6;-1.0;
07/04/2021 17:39:51;118;0;137.71;-17;18.96;-3.98;110.3;4.20;73181;4420.851;-6320.558;1;136;500;308.9;19.7;19.8;-1;-1.4;28.6;-1.0;
07/04/2021 17:40:01;118;0;137.71;-17;19.17;-3.86;109.5;4.20;72941;4420.850;-6320.557;1;136;500;453.5;19.7;20.0;-1;-1.4;28.6;-1.0;
07/04/2021 17:40:11;118;0;138.31;-17;20.67;-3.90;108.3;4.20;72815;4420.849;-6320.556;1;136;500;506.9;19.7;19.8;-1;-1.4;28.6;-1.0;
07/04/2021 17:40:31;117;0;135.34;-17;21.55;-4.56;105.2;4.30;72829;4420.846;-6320.552;1;136;500;505.0;20.2;20.1;-1;-1.4;29.0;-1.0;
07/04/2021 17:40:51;117;0;136.60;-17;19.79;-4.18;102.0;4.40;72801;4420.843;-6320.548;1;136;500;506.9;20.2;20.4;2;1.8;29.0;-1.0;
07/04/2021 17:41:11;117;0;135.97;-17;18.66;-2.29;99.1;4.40;72774;4420.841;-6320.544;1;136;500;506.9;20.2;20.3;2;2.3;29.1;-1.0;
07/04/2021 17:41:31;117;0;135.22;-17;17.70;-1.95;96.3;4.40;72729;4420.838;-6320.541;1;136;500;506.9;20.2;20.3;4;4.5;29.1;-1.0;
07/04/2021 17:41:51;117;0;137.98;-17;16.53;-0.39;93.6;4.40;72677;4420.835;-6320.537;1;136;500;508.9;19.6;19.2;0;-0.5;29.1;-1.0;
07/04/2021 17:42:11;117;0;135.16;-17;18.18;-3.85;90.9;4.40;72628;4420.832;-6320.533;1;136;500;506.9;19.6;19.2;4;4.1;29.1;-1.0;
07/04/2021 17:42:31;117;0;137.82;-17;18.06;-0.80;88.1;4.40;72600;4420.829;-6320.530;1;136;500;506.9;19.6;19.2;0;0.0;29.1;-1.0;
07/04/2021 17:42:51;117;0;134.71;-17;18.20;-3.59;85.5;4.40;72576;4420.827;-6320.526;1;136;500;508.9;19.6;19.2;4;4.1;29.0;-1.0;
07/04/2021 17:43:11;117;0;136.75;-17;18.21;-0.56;82.7;4.40;72546;4420.824;-6320.523;1;136;500;506.9;19.6;19.1;2;1.4;29.1;-1.0;
07/04/2021 17:43:31;117;0;136.45;-17;18.12;-2.67;80.1;4.30;72527;4420.822;-6320.519;1;136;500;506.9;19.6;19.2;2;0.9;29.1;-1.0;
07/04/2021 17:43:51;117;0;136.40;-17;17.96;-2.65;77.4;4.30;72517;4420.819;-6320.516;1;136;500;506.9;19.6;19.1;2;0.9;29.0;-1.0;
07/04/2021 17:44:11;117;0;135.91;-17;17.72;-2.73;74.8;4.30;72507;4420.816;-6320.512;1;136;500;508.9;19.6;19.2;2;0.9;29.1;-1.0;
07/04/2021 17:44:31;117;0;136.38;-17;17.66;-2.50;72.2;4.30;72492;4420.814;-6320.509;1;136;500;506.9;19.6;19.1;2;0.9;29.1;-1.0;
07/04/2021 17:44:51;117;0;134.62;-17;17.32;-2.74;69.6;4.30;72469;4420.811;-6320.505;1;136;500;508.9;19.6;19.1;4;4.1;29.1;-1.0;
07/04/2021 17:45:11;117;0;136.07;-17;17.27;-0.65;67.2;4.30;72458;4420.809;-6320.502;1;136;500;508.9;19.6;19.2;4;4.5;29.1;-1.0;
07/04/2021 17:45:31;117;0;137.55;-17;17.04;-0.56;64.8;4.20;72436;4420.806;-6320.498;1;136;500;508.9;19.6;19.1;1;0.9;29.1;-1.0;
07/04/2021 17:45:52;117;0;134.64;-17;16.77;-3.05;62.4;4.20;72417;4420.804;-6320.495;1;136;500;506.9;19.0;18.8;4;4.1;29.1;-1.0;
07/04/2021 17:46:12;117;0;135.88;-17;17.20;-0.59;59.9;4.20;72403;4420.801;-6320.492;1;136;500;508.9;19.0;18.9;4;4.5;29.1;-1.0;
07/04/2021 17:46:32;117;0;134.71;-17;17.06;-0.79;57.5;4.20;72395;4420.799;-6320.488;1;136;500;508.9;19.0;18.8;4;5.0;29.1;-1.0;
07/04/2021 17:46:52;117;0;134.78;-17;16.93;-0.62;55.0;4.20;72373;4420.796;-6320.485;1;136;500;506.9;18.5;18.5;4;4.5;29.1;-1.0;
07/04/2021 17:47:12;117;0;133.31;-17;17.92;-0.77;52.6;4.10;72367;4420.794;-6320.481;1;136;500;508.9;18.5;18.2;6;6.3;29.0;-1.0;
07/04/2021 17:47:32;117;0;132.07;-17;18.07;0.23;50.1;4.10;72366;4420.792;-6320.478;1;136;500;506.9;18.5;18.0;6;6.3;29.0;-1.0;
07/04/2021 17:47:52;117;0;132.34;-17;17.57;0.32;47.7;4.10;72359;4420.789;-6320.474;1;136;500;508.9;18.5;18.2;6;6.3;29.1;-1.0;
07/04/2021 17:48:12;117;0;134.71;-17;17.48;0.29;45.1;4.10;72357;4420.787;-6320.471;1;136;500;506.9;18.5;18.0;4;4.1;29.1;-1.0;
07/04/2021 17:48:32;117;0;134.70;-17;17.44;-1.25;42.7;4.00;72366;4420.785;-6320.467;1;136;500;505.0;18.5;18.0;4;3.6;29.1;-1.0;
07/04/2021 17:48:52;117;0;133.74;-17;17.45;-1.43;40.3;4.00;72359;4420.782;-6320.464;1;136;500;508.9;18.5;18.2;6;5.9;29.1;-1.0;
07/04/2021 17:49:12;117;0;135.01;-17;17.38;0.30;38.0;4.00;72357;4420.780;-6320.461;1;136;500;506.9;18.5;18.2;4;4.1;29.1;-1.0;
07/04/2021 17:49:32;117;0;135.06;-17;17.53;-1.22;35.6;4.00;72345;4420.777;-6320.457;1;136;500;506.9;18.5;18.0;4;3.6;29.1;-1.0;
07/04/2021 17:49:52;117;0;136.20;-17;17.25;-1.22;33.1;4.00;72343;4420.775;-6320.454;1;136;500;506.9;18.5;18.0;4;3.6;29.1;-1.0;
07/04/2021 17:50:12;117;0;136.55;-17;17.33;-1.26;30.7;3.90;72330;4420.773;-6320.451;1;136;500;506.9;18.5;18.0;2;1.4;29.1;-1.0;
07/04/2021 17:50:32;117;0;135.51;-17;17.31;-2.69;28.3;3.90;72325;4420.770;-6320.447;1;136;500;508.9;18.5;18.0;2;0.9;29.0;-1.0;
07/04/2021 17:50:52;117;0;134.06;-17;17.40;-2.71;26.0;3.90;72332;4420.768;-6320.444;1;136;500;508.9;18.5;18.2;5;5.0;29.1;-1.0;
07/04/2021 17:51:12;117;0;135.22;-17;17.35;-0.33;23.7;3.90;72324;4420.765;-6320.441;1;136;500;508.9;18.5;18.0;5;5.4;29.0;-1.0;
07/04/2021 17:51:32;117;0;137.89;-17;17.15;-0.24;21.3;3.90;72316;4420.763;-6320.438;1;136;500;506.9;18.5;18.0;1;0.5;29.1;-1.0;
07/04/2021 17:51:52;117;0;136.05;-17;17.37;-3.16;19.1;3.90;72303;4420.761;-6320.435;1;136;500;506.9;18.5;18.0;3;3.2;29.0;-1.0;
07/04/2021 17:52:12;117;0;135.80;-17;17.05;-1.24;16.6;3.90;72303;4420.758;-6320.431;1;136;500;508.9;18.5;18.0;3;3.6;29.1;-1.0;
07/04/2021 17:52:32;117;0;136.16;-17;16.89;-1.18;14.4;3.80;72299;4420.756;-6320.428;1;136;500;506.9;17.9;17.7;3;3.6;29.1;-1.0;
07/04/2021 17:52:52;117;0;136.48;-17;18.05;-1.28;12.0;3.80;72285;4420.753;-6320.425;1;136;500;506.9;17.9;17.4;3;3.6;29.1;-1.0;
