Timestamp;NavState;SecurityLevel;Heading;Declination;Pitch;Roll;Depth;Temperature;Pa;Lat;Lon;DeadReckoning;DesiredH;BallastCmd;BallastPos;LinCmd;LinPos;AngCmd;AngPos;Voltage;Altitude;
07/04/2021 15:08:32;117;0;150.03;-17;17.23;-3.59;9.1;4.40;72834;4422.123;-6319.974;1;151;425;433.7;18.4;18.0;3;3.6;29.1;-1.0;
07/04/2021 15:08:52;115;0;152.80;-17;16.75;-0.93;7.2;4.40;72833;4422.120;-6319.973;1;151;500;435.6;100.0;32.0;0;-0.5;29.1;-1.0;
07/04/2021 15:09:02;115;0;152.80;-17;-30.24;-4.02;6.6;4.40;72747;4422.120;-6319.972;1;151;500;493.1;100.0;100.0;0;-0.9;29.1;-1.0;
07/04/2021 15:09:12;115;0;141.25;-17;-74.52;-1.14;7.6;4.40;72694;4422.120;-6319.972;1;151;500;505.0;100.0;100.1;0;-0.5;28.8;-1.0;
07/04/2021 15:09:32;116;0;139.68;-17;-72.25;-4.91;2.4;4.40;72707;4422.118;-6319.970;1;151;500;505.0;100.0;100.1;0;-0.5;29.1;-1.0;
07/04/2021 15:10:01;116;0;174.62;-17;-51.29;-2.42;-0.3;4.40;72696;4422.118;-6319.970;1;151;500;506.9;100.0;100.1;0;-0.5;29.1;-1.0;
07/04/2021 15:10:21;116;0;239.31;-17;-69.41;8.51;0.4;4.40;72710;4422.073;-6320.228;0;151;500;506.9;100.0;100.1;0;-0.5;29.1;-1.0;
07/04/2021 15:10:41;116;0;1.29;-17;-61.16;-4.33;0.4;4.50;72710;4422.072;-6320.228;0;151;500;506.9;100.0;100.3;0;-0.5;29.1;-1.0;
07/04/2021 15:11:01;116;0;31.83;-17;-61.65;-8.86;0.2;4.50;72703;4422.071;-6320.231;0;150;500;506.9;100.0;100.3;0;-0.5;29.1;-1.0;
07/04/2021 15:11:21;116;0;42.76;-17;-58.31;-4.87;0.3;4.60;72699;4422.070;-6320.234;0;150;500;508.9;100.0;100.3;0;-0.5;29.1;-1.0;
07/04/2021 15:11:41;116;0;41.20;-17;-65.70;-2.33;0.4;4.70;72702;4422.058;-6320.254;0;150;500;506.9;100.0;100.3;0;-0.5;29.1;-1.0;
07/04/2021 15:14:57;116;0;43.74;-17;-61.26;-6.77;0.4;5.40;72706;4422.058;-6320.254;0;150;500;506.9;100.0;100.1;0;-0.5;29.1;-1.0;
07/04/2021 15:15:17;116;0;42.09;-17;-68.00;-12.25;0.5;5.40;72706;4422.056;-6320.257;0;150;500;506.9;100.0;100.3;0;-0.5;29.1;-1.0;
07/04/2021 15:15:37;116;0;23.82;-17;-59.35;-4.62;0.4;5.40;72698;4422.056;-6320.258;0;150;500;508.9;100.0;100.1;0;-0.5;29.1;-1.0;
07/04/2021 15:15:57;116;0;27.02;-17;-64.42;11.65;0.4;5.50;72701;4422.056;-6320.260;0;150;500;508.9;100.0;100.1;0;-0.5;29.1;-1.0;
07/04/2021 15:16:17;116;0;44.14;-17;-63.44;-7.53;0.4;5.50;72698;4422.055;-6320.262;0;150;500;506.9;100.0;100.1;0;-0.5;29.1;-1.0;
07/04/2021 15:16:37;116;0;45.84;-17;-62.84;-19.80;0.5;5.60;72694;4422.053;-6320.264;0;150;500;505.0;100.0;100.3;0;-0.5;29.1;-1.0;
07/04/2021 15:16:57;116;0;43.48;-17;-62.13;-19.29;0.4;5.60;72697;4422.053;-6320.266;0;150;500;506.9;100.0;100.1;0;-0.5;29.1;-1.0;
07/04/2021 15:17:17;116;0;37.90;-17;-64.02;-13.44;0.4;5.60;72692;4422.051;-6320.267;0;150;500;508.9;100.0;100.1;0;-0.5;29.1;-1.0;
07/04/2021 15:17:37;116;0;47.45;-17;-67.86;-36.29;0.3;5.70;72698;4422.050;-6320.270;0;150;500;506.9;100.0;100.1;0;-0.5;29.1;-1.0;
07/04/2021 15:17:57;116;0;28.08;-17;-64.41;2.43;0.4;5.70;72695;4422.047;-6320.275;0;150;500;508.9;100.0;100.3;0;-0.5;29.1;-1.0;
07/04/2021 15:18:34;116;0;26.23;-17;-62.26;1.02;0.4;5.70;72690;4422.047;-6320.278;0;150;500;506.9;100.0;100.3;0;-0.5;29.1;-1.0;
07/04/2021 15:18:54;116;0;45.31;-17;-65.67;-16.58;0.5;5.70;72694;4422.046;-6320.280;0;150;500;506.9;100.0;100.3;0;-0.5;29.0;-1.0;
07/04/2021 15:19:14;116;0;35.11;-17;-63.13;6.53;0.3;5.80;72691;4422.045;-6320.283;0;150;500;506.9;100.0;100.1;0;-0.5;29.1;-1.0;
07/04/2021 15:19:34;116;0;33.67;-17;-62.72;6.88;0.4;5.80;72688;4422.041;-6320.289;0;150;500;508.9;100.0;100.3;0;-0.5;29.1;-1.0;
07/04/2021 15:20:08;116;0;30.30;-17;-63.71;-9.77;0.4;5.90;72678;4422.040;-6320.290;0;150;500;506.9;100.0;100.3;0;-0.5;29.1;-1.0;
07/04/2021 15:20:28;116;0;41.94;-17;-66.78;-17.70;0.4;6.00;72687;4422.040;-6320.292;0;150;500;506.9;100.0;100.3;0;-0.5;29.1;-1.0;
07/04/2021 15:20:48;116;0;31.88;-17;-67.08;12.63;0.4;6.10;72679;4422.039;-6320.293;0;150;500;508.9;100.0;100.3;0;-0.5;29.1;-1.0;
07/04/2021 15:21:08;116;0;41.30;-17;-60.38;-4.66;0.4;6.10;72690;4422.038;-6320.295;0;150;500;506.9;100.0;100.3;0;-0.5;29.1;-1.0;
07/04/2021 15:21:28;116;0;33.65;-17;-59.77;-0.41;0.4;6.20;72689;4422.037;-6320.296;0;150;500;508.9;100.0;100.1;0;-0.5;29.1;-1.0;
07/04/2021 15:21:48;116;0;29.55;-17;-64.59;-8.39;0.5;6.20;72689;4422.036;-6320.298;0;150;500;506.9;100.0;100.1;0;-0.5;29.1;-1.0;
07/04/2021 15:22:08;116;0;40.72;-17;-65.51;-15.24;0.5;6.20;72681;4422.034;-6320.300;0;150;500;506.9;100.0;100.1;0;-0.5;29.1;-1.0;
07/04/2021 15:22:28;116;0;30.19;-17;-61.42;3.69;0.4;6.20;72683;4422.033;-6320.302;0;150;500;508.9;100.0;100.1;0;-0.5;29.1;-1.0;
07/04/2021 15:22:48;116;0;37.37;-17;-63.97;-3.97;0.3;6.20;72678;4422.033;-6320.303;0;150;500;508.9;100.0;100.1;0;-0.5;29.1;-1.0;
07/04/2021 15:23:08;116;0;31.77;-17;-66.66;4.72;0.3;6.20;72680;4422.030;-6320.308;0;150;500;508.9;100.0;100.1;0;-0.9;29.1;-1.0;
07/04/2021 15:23:45;116;0;35.55;-17;-67.41;-5.69;0.5;6.20;72672;4422.029;-6320.310;0;150;500;506.9;100.0;100.3;0;-0.5;29.1;-1.0;
07/04/2021 15:24:05;116;0;40.08;-17;-66.25;-5.86;0.4;6.20;72682;4422.029;-6320.311;0;150;500;506.9;100.0;100.1;0;-0.5;29.1;-1.0;
07/04/2021 15:24:25;116;0;30.65;-17;-66.35;-5.54;0.4;6.30;72688;4422.028;-6320.313;0;150;500;506.9;100.0;100.1;0;-0.5;29.1;-1.0;
07/04/2021 15:24:45;116;0;22.66;-17;-59.08;1.73;0.4;6.30;72676;4422.027;-6320.314;0;150;500;508.9;100.0;100.3;0;-0.5;29.1;-1.0;
07/04/2021 15:25:05;116;0;39.64;-17;-62.91;-21.88;0.4;6.30;72675;4422.026;-6320.317;0;150;500;506.9;100.0;100.1;0;-0.5;29.1;-1.0;
07/04/2021 15:25:25;116;0;28.17;-17;-67.09;-9.86;0.4;6.30;72669;4422.025;-6320.319;0;150;500;508.9;100.0;100.1;0;-0.5;29.1;-1.0;
07/04/2021 15:25:45;116;0;27.82;-17;-63.56;-6.66;0.4;6.40;72674;4422.023;-6320.320;0;150;500;508.9;100.0;100.1;0;-0.5;29.1;-1.0;
07/04/2021 15:26:05;116;0;35.32;-17;-61.56;-15.23;0.4;6.40;72686;4422.023;-6320.323;0;150;500;506.9;100.0;100.3;0;-0.5;29.1;-1.0;
07/04/2021 15:26:25;116;0;35.67;-17;-64.49;-18.45;0.4;6.40;72672;4422.021;-6320.328;0;150;500;508.9;100.0;100.3;0;-0.5;29.1;-1.0;
07/04/2021 15:26:56;116;0;29.65;-17;-64.36;-4.65;0.4;6.40;72667;4422.020;-6320.328;0;150;500;506.9;100.0;100.3;0;-0.5;29.0;-1.0;
07/04/2021 15:27:16;116;0;19.90;-17;-67.05;11.56;0.4;6.50;72670;4422.019;-6320.331;0;150;500;508.9;100.0;100.1;0;-0.5;29.1;-1.0;
07/04/2021 15:27:36;116;0;51.47;-17;-64.06;-7.28;0.4;6.50;72655;4422.018;-6320.332;0;150;500;508.9;100.0;100.1;0;-0.5;29.1;-1.0;
07/04/2021 15:27:56;116;0;33.06;-17;-63.82;1.74;0.3;6.60;72671;4422.017;-6320.334;0;150;500;508.9;100.0;100.3;0;-0.5;29.1;-1.0;
07/04/2021 15:28:16;116;0;33.85;-17;-66.05;-7.90;0.4;6.60;72668;4422.016;-6320.337;0;150;500;506.9;100.0;100.1;0;-0.5;29.1;-1.0;
07/04/2021 15:28:36;116;0;29.57;-17;-66.53;-22.89;0.3;6.60;72671;4422.015;-6320.339;0;150;500;508.9;100.0;100.3;0;-0.5;29.1;-1.0;
07/04/2021 15:28:56;116;0;24.54;-17;-60.72;-16.74;0.4;6.60;72658;4422.014;-6320.340;0;150;500;506.9;100.0;100.3;0;-0.5;29.1;-1.0;
07/04/2021 15:29:16;116;0;35.86;-17;-60.59;-18.32;0.4;6.60;72660;4422.012;-6320.343;0;150;500;506.9;100.0;100.1;0;-0.5;29.1;-1.0;
07/04/2021 15:29:36;116;0;38.54;-17;-63.86;-8.70;0.4;6.60;72667;4422.012;-6320.346;0;150;500;508.9;100.0;100.3;0;-0.5;29.1;-1.0;
07/04/2021 15:29:56;116;0;37.67;-17;-66.39;-20.05;0.3;6.60;72670;4422.011;-6320.347;0;150;500;508.9;100.0;100.3;0;-0.5;29.1;-1.0;
07/04/2021 15:30:16;116;0;29.82;-17;-59.63;-16.74;0.3;6.60;72655;4422.009;-6320.349;0;150;500;508.9;100.0;100.1;0;-0.5;29.1;-1.0;
07/04/2021 15:30:36;116;0;28.74;-17;-66.61;-9.98;0.5;6.60;72658;4422.008;-6320.351;0;150;500;508.9;100.0;100.3;0;-0.5;29.1;-1.0;
07/04/2021 15:30:56;116;0;18.67;-17;-66.56;2.11;0.4;6.50;72660;4422.007;-6320.354;0;150;500;506.9;100.0;100.3;0;-0.5;29.1;-1.0;
07/04/2021 15:31:16;116;0;32.05;-17;-65.29;-15.85;0.3;6.50;72654;4422.006;-6320.356;0;150;500;508.9;100.0;100.3;0;-0.5;29.1;-1.0;
07/04/2021 15:31:36;116;0;18.06;-17;-62.66;13.69;0.5;6.40;72652;4422.004;-6320.358;0;150;500;508.9;100.0;100.3;0;-0.5;29.1;-1.0;
07/04/2021 15:31:56;116;0;35.31;-17;-66.55;-6.73;0.5;6.40;72654;4422.004;-6320.360;0;150;500;506.9;100.0;100.1;0;-0.5;29.1;-1.0;
07/04/2021 15:32:16;116;0;27.63;-17;-61.97;6.44;0.3;6.30;72652;4422.003;-6320.362;0;150;500;506.9;100.0;100.1;0;-0.5;29.1;-1.0;
07/04/2021 15:32:36;116;0;32.35;-17;-64.84;-6.65;0.5;6.30;72647;4422.002;-6320.365;0;150;500;508.9;100.0;100.1;0;-0.5;29.1;-1.0;
07/04/2021 15:32:56;116;0;30.17;-17;-66.95;7.57;0.4;6.30;72649;4422.000;-6320.367;0;150;500;508.9;100.0;100.1;0;-0.5;29.1;-1.0;
07/04/2021 15:33:16;116;0;36.52;-17;-64.46;-13.41;0.4;6.20;72643;4422.000;-6320.370;0;150;500;508.9;100.0;100.1;0;-0.5;29.1;-1.0;
07/04/2021 15:33:36;116;0;35.11;-17;-66.21;-16.56;0.4;6.20;72648;4421.999;-6320.372;0;139;500;506.9;100.0;100.1;0;-0.5;29.1;-1.0;
07/04/2021 15:33:56;116;0;18.29;-17;-62.05;4.88;0.4;6.20;72644;4421.999;-6320.375;0;139;500;508.9;100.0;100.3;0;-0.5;29.1;-1.0;
07/04/2021 15:34:16;116;0;28.50;-17;-63.14;-9.93;0.4;6.10;72649;4421.998;-6320.377;0;139;500;508.9;100.0;100.3;0;-0.5;29.1;-1.0;
07/04/2021 15:34:36;116;0;26.11;-17;-61.85;-5.21;0.4;6.10;72639;4421.998;-6320.379;0;139;500;506.9;100.0;100.3;0;-0.5;29.1;-1.0;
07/04/2021 15:34:56;116;0;22.05;-17;-58.77;3.72;0.3;6.10;72653;4421.997;-6320.381;0;139;500;506.9;100.0;100.1;0;-0.5;29.1;-1.0;
07/04/2021 15:35:16;110;0;37.46;-17;-63.91;-18.57;0.4;6.00;72634;4421.997;-6320.381;1;139;-275;495.0;100.0;100.1;0;-0.5;29.1;-1.0;
07/04/2021 15:35:26;110;0;41.85;-17;-64.56;-3.02;0.6;6.00;72819;4421.997;-6320.380;1;139;-275;386.1;100.0;100.1;0;-0.5;29.0;-1.0;
07/04/2021 15:35:36;110;0;45.47;-17;-71.10;-7.71;0.8;6.00;73025;4421.997;-6320.380;1;139;-275;267.3;100.0;100.1;0;-0.5;29.0;-1.0;
07/04/2021 15:35:46;110;0;62.01;-17;-71.27;-28.66;0.8;6.00;73224;4421.997;-6320.380;1;139;-275;148.5;100.0;100.1;0;-0.5;29.1;-1.0;
07/04/2021 15:35:56;110;0;54.35;-17;-73.17;-18.33;1.4;6.00;73421;4421.997;-6320.380;1;139;-275;17.8;100.0;100.3;0;-0.5;29.0;-1.0;
07/04/2021 15:36:06;110;0;49.17;-17;-71.04;-11.31;3.2;6.00;73688;4421.998;-6320.379;1;139;-275;-144.6;75.3;90.2;0;-0.5;29.0;-1.0;
07/04/2021 15:36:16;110;0;39.66;-17;-66.36;-8.68;7.2;5.90;73976;4422.000;-6320.377;1;139;-275;-275.2;35.9;64.5;0;-0.5;29.0;-1.0;
07/04/2021 15:36:36;100;0;58.54;-17;-42.03;-5.04;18.4;5.90;73945;4422.003;-6320.369;1;139;-275;-277.2;36.0;36.2;0;-0.5;29.0;-1.0;
07/04/2021 15:36:56;100;0;63.78;-17;-31.73;-4.42;27.0;5.80;73918;4422.006;-6320.360;1;139;-275;-277.2;33.2;33.2;-70;-37.9;29.1;0.0;
07/04/2021 15:37:16;100;0;73.90;-17;-14.53;-41.12;32.9;5.80;73916;4422.009;-6320.349;1;139;-275;-277.2;33.9;34.0;-70;-69.0;29.1;0.0;
07/04/2021 15:37:36;100;0;92.25;-17;-9.13;-40.75;36.1;5.80;73909;4422.008;-6320.341;1;139;-275;-277.2;35.7;36.1;-55;-55.1;29.1;0.0;
07/04/2021 15:37:56;100;0;116.28;-17;-16.33;-33.55;39.3;5.80;73912;4422.006;-6320.335;1;139;-275;-277.2;36.1;35.9;-26;-26.2;29.1;0.0;
07/04/2021 15:38:16;100;0;130.71;-17;-22.40;-17.33;43.3;5.70;73920;4422.003;-6320.330;1;139;-275;-277.2;35.2;34.9;-9;-9.0;29.1;0.0;
07/04/2021 15:38:36;100;0;136.61;-17;-23.10;-8.19;48.0;5.70;73929;4421.999;-6320.325;1;139;-275;-277.2;34.1;34.0;-2;-1.8;29.1;0.0;
07/04/2021 15:38:56;100;0;142.31;-17;-21.52;-4.38;52.5;5.60;73932;4421.995;-6320.320;1;139;-275;-277.2;33.4;33.1;5;5.4;29.1;0.0;
07/04/2021 15:39:16;100;0;146.86;-17;-19.64;-0.39;56.9;5.60;73932;4421.990;-6320.316;1;139;-275;-277.2;33.1;33.1;10;9.9;29.1;0.0;
07/04/2021 15:39:36;100;0;147.28;-17;-18.75;2.08;60.8;5.50;73925;4421.986;-6320.312;1;139;-275;-277.2;33.1;33.1;10;10.4;29.1;0.0;
07/04/2021 15:39:56;100;0;146.25;-17;-17.90;2.11;64.6;5.50;73939;4421.982;-6320.308;1;139;-275;-277.2;33.1;32.9;10;10.4;29.1;0.0;
07/04/2021 15:40:16;100;0;145.97;-17;-17.61;2.18;68.3;5.40;73964;4421.977;-6320.304;1;139;-275;-279.2;33.1;32.9;10;10.4;29.1;0.0;
07/04/2021 15:40:36;100;0;144.99;-17;-17.37;2.21;71.9;5.40;73975;4421.973;-6320.300;1;139;-275;-277.2;33.1;33.1;8;7.7;29.1;42.4;
07/04/2021 15:40:56;100;0;144.68;-17;-16.95;0.38;75.3;5.30;73981;4421.969;-6320.296;1;139;-275;-279.2;33.3;33.2;8;7.2;29.1;39.7;
07/04/2021 15:41:16;100;0;143.27;-17;-17.31;0.47;78.7;5.30;73999;4421.965;-6320.292;1;139;-275;-277.2;33.3;33.5;6;5.9;29.1;37.0;
07/04/2021 15:41:36;100;0;142.27;-17;-17.24;-0.43;82.2;5.30;74001;4421.961;-6320.287;1;139;-275;-277.2;33.3;33.5;6;5.4;29.1;33.8;
07/04/2021 15:41:56;100;0;141.03;-17;-17.19;-0.45;85.8;5.20;74005;4421.958;-6320.283;1;139;-275;-279.2;33.3;33.5;4;3.6;29.1;30.4;
07/04/2021 15:42:16;100;0;140.81;-17;-17.24;-1.75;89.2;5.20;74012;4421.954;-6320.279;1;139;-275;-275.2;33.3;33.5;4;3.2;29.1;27.1;
07/04/2021 15:42:36;100;0;142.04;-17;-16.90;-1.68;92.6;5.20;74026;4421.950;-6320.275;1;139;-275;-277.2;33.5;33.5;4;3.2;29.1;23.8;
07/04/2021 15:42:56;100;0;143.15;-17;-16.24;-1.40;96.0;5.20;74062;4421.946;-6320.270;1;139;-275;-277.2;33.8;34.1;6;6.3;29.1;20.3;
07/04/2021 15:43:16;100;0;142.94;-17;-16.04;0.01;99.3;5.10;74116;4421.942;-6320.266;1;139;-275;-277.2;34.2;34.3;6;6.8;29.1;17.0;
07/04/2021 15:43:36;100;0;143.91;-17;-15.39;0.14;102.3;5.10;74188;4421.938;-6320.263;1;139;-275;-277.2;34.7;34.9;6;6.8;29.1;13.8;
07/04/2021 15:43:56;118;0;142.93;-17;-16.00;0.11;105.4;5.10;74262;4421.935;-6320.259;1;139;475;-279.2;19.5;21.8;0;-0.5;29.1;10.7;
07/04/2021 15:44:06;118;0;142.93;-17;1.57;-3.38;106.3;5.20;74221;4421.934;-6320.258;1;139;475;-198.0;19.5;19.2;0;-0.5;29.1;-1.0;
07/04/2021 15:44:16;118;0;142.93;-17;18.36;-3.47;106.3;5.20;73990;4421.934;-6320.258;1;139;475;-45.5;19.5;19.5;0;-0.5;28.7;-1.0;
07/04/2021 15:44:26;118;0;142.93;-17;22.63;-3.40;106.1;5.20;73764;4421.934;-6320.258;1;139;475;108.9;19.5;19.7;0;-0.5;28.7;-1.0;
07/04/2021 15:44:36;118;0;142.93;-17;20.03;-3.39;105.7;5.20;73529;4421.934;-6320.258;1;139;475;259.4;19.5;19.7;0;-0.5;28.7;-1.0;
07/04/2021 15:44:47;118;0;142.93;-17;18.65;-3.60;105.1;5.20;73293;4421.933;-6320.257;1;139;475;411.9;19.5;19.7;0;0.0;28.7;-1.0;
07/04/2021 15:44:57;118;0;142.93;-17;20.24;-3.73;104.0;5.30;73130;4421.932;-6320.256;1;139;475;483.2;19.5;19.7;0;-0.5;28.7;-1.0;
07/04/2021 15:45:17;117;0;136.68;-17;21.50;-3.38;101.2;5.30;73142;4421.930;-6320.252;1;139;475;483.2;20.0;20.0;0;-0.5;29.1;-1.0;
07/04/2021 15:45:37;117;0;136.32;-17;18.98;-3.59;98.2;5.30;73108;4421.927;-6320.249;1;139;475;483.2;20.0;20.1;5;5.4;29.1;-1.0;
07/04/2021 15:45:57;117;0;139.50;-17;17.94;-0.23;95.3;5.30;73061;4421.924;-6320.245;1;139;475;483.2;20.0;20.1;1;0.9;29.1;-1.0;
07/04/2021 15:46:17;117;0;136.56;-17;17.64;-2.98;92.7;5.30;73014;4421.921;-6320.242;1;139;475;483.2;20.0;20.3;5;5.0;29.1;-1.0;
07/04/2021 15:46:37;117;0;139.31;-17;17.00;-0.17;90.3;5.30;72966;4421.919;-6320.239;1;139;475;483.2;20.0;20.1;1;0.9;29.1;-1.0;
07/04/2021 15:46:57;117;0;137.21;-17;16.93;-3.03;88.1;5.30;72926;4421.916;-6320.235;1;139;475;483.2;19.6;19.4;4;4.5;29.1;-1.0;
07/04/2021 15:47:17;117;0;139.28;-17;17.87;-0.50;85.6;5.20;72898;4421.914;-6320.232;1;139;475;481.2;19.6;19.4;1;0.9;29.1;-1.0;
07/04/2021 15:47:37;117;0;138.90;-17;18.02;-3.10;83.0;5.20;72878;4421.911;-6320.229;1;139;475;483.2;19.6;19.4;1;0.0;29.1;-1.0;
07/04/2021 15:47:57;117;0;141.25;-17;17.99;-3.04;80.6;5.10;72852;4421.908;-6320.226;1;139;475;483.2;19.6;19.4;-1;-0.9;29.1;-1.0;
07/04/2021 15:48:17;117;0;139.54;-17;17.84;-4.10;78.1;5.10;72849;4421.906;-6320.223;1;139;475;483.2;19.6;19.4;1;0.9;29.1;-1.0;
07/04/2021 15:48:37;117;0;140.56;-17;17.53;-2.37;75.7;5.10;72839;4421.903;-6320.220;1;139;475;483.2;19.6;19.4;1;1.4;29.1;-1.0;
07/04/2021 15:48:57;117;0;137.43;-17;17.51;-2.62;73.2;5.00;72825;4421.901;-6320.217;1;139;475;483.2;19.6;19.4;4;4.1;29.1;-1.0;
07/04/2021 15:49:17;117;0;140.52;-17;17.08;-0.73;70.8;5.00;72811;4421.898;-6320.214;1;139;475;483.2;19.6;19.4;0;-0.5;29.1;-1.0;
07/04/2021 15:49:37;117;0;138.60;-17;17.15;-3.75;68.5;5.00;72809;4421.896;-6320.211;1;139;475;483.2;19.6;19.4;2;1.8;29.1;-1.0;
07/04/2021 15:49:57;117;0;137.85;-17;16.80;-2.07;66.3;4.90;72787;4421.893;-6320.208;1;139;475;483.2;19.2;19.2;2;2.3;29.1;-1.0;
07/04/2021 15:50:17;117;0;135.86;-17;17.42;-2.11;64.0;4.90;72785;4421.891;-6320.205;1;139;475;485.1;19.2;18.9;6;5.9;29.1;-1.0;
07/04/2021 15:50:37;117;0;135.98;-17;17.22;0.34;61.7;4.90;72767;4421.888;-6320.201;1;139;475;483.2;19.2;18.9;6;6.3;29.1;-1.0;
07/04/2021 15:50:57;117;0;137.63;-17;17.40;0.35;59.3;4.90;72753;4421.886;-6320.198;1;139;475;483.2;19.2;18.9;3;2.7;29.1;-1.0;
07/04/2021 15:51:17;117;0;137.58;-17;17.50;-1.95;57.0;4.80;72738;4421.884;-6320.195;1;139;475;483.2;19.2;18.9;3;2.3;29.1;-1.0;
07/04/2021 15:51:37;117;0;134.70;-17;16.91;-2.11;54.8;4.80;72719;4421.881;-6320.192;1;139;475;483.2;18.8;18.5;7;7.2;29.1;-1.0;
07/04/2021 15:51:57;117;0;134.70;-17;17.46;0.94;52.6;4.80;72708;4421.879;-6320.189;1;139;475;483.2;18.8;18.5;7;7.7;29.1;-1.0;
07/04/2021 15:52:17;117;0;132.33;-17;17.42;0.97;50.4;4.70;72698;4421.877;-6320.186;1;139;475;485.1;18.8;18.5;10;10.4;29.1;-1.0;
07/04/2021 15:52:37;117;0;136.06;-17;16.98;2.65;48.1;4.70;72698;4421.875;-6320.183;1;139;475;483.2;18.4;18.5;6;5.4;29.1;-1.0;
07/04/2021 15:52:57;117;0;135.61;-17;16.73;-0.60;45.9;4.70;72687;4421.873;-6320.180;1;139;475;483.2;18.0;18.0;6;5.0;29.1;-1.0;
07/04/2021 15:53:17;117;0;136.07;-17;18.08;-0.58;43.5;4.60;72681;4421.870;-6320.177;1;139;475;483.2;18.0;17.9;6;5.0;29.1;-1.0;
07/04/2021 15:53:37;117;0;137.18;-17;18.01;-0.58;41.2;4.60;72674;4421.868;-6320.173;1;139;475;483.2;18.0;17.9;4;4.1;29.1;-1.0;
07/04/2021 15:53:57;117;0;137.86;-17;18.19;-1.33;38.9;4.60;72670;4421.866;-6320.171;1;139;475;485.1;18.0;17.9;4;3.6;29.1;-1.0;
07/04/2021 15:54:17;117;0;138.32;-17;18.03;-1.39;36.7;4.60;72667;4421.863;-6320.168;1;139;475;483.2;18.0;17.9;4;3.6;29.1;-1.0;
07/04/2021 15:54:37;117;0;139.38;-17;18.14;-1.22;34.4;4.50;72658;4421.861;-6320.165;1;139;475;481.2;18.0;17.9;2;1.8;29.1;-1.0;
07/04/2021 15:54:57;117;0;139.97;-17;18.20;-2.67;32.2;4.50;72649;4421.859;-6320.162;1;139;475;483.2;18.0;17.7;2;1.4;29.1;-1.0;
07/04/2021 15:55:17;117;0;139.60;-17;17.91;-2.71;29.9;4.50;72641;4421.856;-6320.159;1;139;475;485.1;18.0;17.9;2;1.4;29.1;-1.0;
07/04/2021 15:55:37;117;0;137.32;-17;17.97;-2.71;27.7;4.50;72626;4421.854;-6320.156;1;139;475;481.2;18.0;17.7;4;4.1;29.1;-1.0;
07/04/2021 15:55:57;117;0;137.38;-17;17.75;-0.78;25.5;4.40;72616;4421.852;-6320.153;1;139;475;485.1;18.0;17.9;4;5.0;29.1;-1.0;
07/04/2021 15:56:17;117;0;137.30;-17;17.85;-0.71;23.3;4.40;72621;4421.849;-6320.151;1;139;475;483.2;18.0;17.7;4;4.5;29.1;-1.0;
07/04/2021 15:56:37;117;0;139.65;-17;17.71;-0.62;21.0;4.40;72599;4421.847;-6320.148;1;139;475;483.2;18.0;17.7;1;0.5;29.1;-1.0;
07/04/2021 15:56:57;117;0;138.11;-17;17.62;-3.34;18.7;4.30;72592;4421.845;-6320.145;1;139;475;485.1;18.0;17.9;3;3.2;29.1;-1.0;
07/04/2021 15:57:17;117;0;139.34;-17;17.66;-1.27;16.4;4.30;72591;4421.842;-6320.142;1;139;475;483.2;18.0;17.7;3;3.6;29.1;-1.0;
07/04/2021 15:57:37;117;0;139.64;-17;17.57;-1.35;14.0;4.30;72581;4421.840;-6320.139;1;139;475;483.2;18.0;17.7;1;0.9;29.1;-1.0;
07/04/2021 15:57:57;117;0;138.46;-17;17.86;-3.21;11.7;4.30;72587;4421.837;-6320.136;1;139;475;483.2;18.0;17.7;3;3.2;29.1;-1.0;
