Timestamp;NavState;SecurityLevel;Heading;Declination;Pitch;Roll;Depth;Temperature;Pa;Lat;Lon;DeadReckoning;DesiredH;BallastCmd;BallastPos;LinCmd;LinPos;AngCmd;AngPos;Voltage;Altitude;
07/04/2021 20:25:26;117;0;135.96;-17;17.61;-0.34;9.6;3.50;72132;4419.472;-6318.743;1;136;500;505.0;17.9;17.9;3;2.7;29.0;-1.0;
07/04/2021 20:25:46;110;0;135.57;-17;17.74;-1.77;7.2;3.50;72132;4419.469;-6318.740;1;136;-225;473.3;32.8;31.4;3;2.3;29.0;-1.0;
07/04/2021 20:25:56;110;0;138.76;-17;-0.30;-2.03;6.2;3.40;72553;4419.469;-6318.739;1;136;-225;227.7;32.8;33.1;3;2.3;28.9;-1.0;
07/04/2021 20:26:06;110;0;140.66;-17;-13.11;-1.91;6.7;3.50;72983;4419.469;-6318.739;1;136;-225;-23.8;32.8;33.5;3;2.3;28.9;-1.0;
07/04/2021 20:26:16;110;0;139.07;-17;-16.04;-2.00;7.7;3.40;73414;4419.467;-6318.737;1;136;-225;-227.7;32.8;33.5;3;2.3;28.9;-1.0;
07/04/2021 20:26:36;100;0;140.67;-17;-20.11;-2.15;10.9;3.40;73387;4419.464;-6318.734;1;136;-225;-231.7;32.8;33.8;3;2.3;29.0;-1.0;
07/04/2021 20:26:56;100;0;142.21;-17;-20.08;-2.20;14.7;3.40;73376;4419.460;-6318.730;1;136;-225;-231.7;32.7;32.5;14;14.0;29.0;0.0;
07/04/2021 20:27:16;100;0;141.69;-17;-18.29;4.27;18.6;3.40;73381;4419.456;-6318.725;1;136;-225;-229.7;32.7;32.6;14;14.4;29.0;0.0;
07/04/2021 20:27:36;100;0;139.01;-17;-17.64;4.17;22.2;3.40;73374;4419.453;-6318.720;1;136;-225;-231.7;32.7;32.5;10;9.9;29.0;0.0;
07/04/2021 20:27:56;100;0;137.17;-17;-17.48;1.53;25.7;3.40;73353;4419.449;-6318.716;1;136;-225;-233.7;32.7;32.5;8;8.1;29.0;0.0;
07/04/2021 20:28:16;100;0;135.21;-17;-17.26;0.79;29.2;3.40;73364;4419.445;-6318.711;1;136;-225;-231.7;32.7;32.3;5;4.5;29.0;0.0;
07/04/2021 20:28:36;100;0;136.07;-17;-17.13;-1.25;32.8;3.40;73364;4419.442;-6318.706;1;136;-225;-233.7;32.7;32.5;5;4.1;29.0;0.0;
07/04/2021 20:28:57;100;0;137.42;-17;-16.70;-1.35;36.4;3.40;73390;4419.438;-6318.701;1;136;-225;-229.7;33.2;33.4;8;8.1;29.0;0.0;
07/04/2021 20:29:17;100;0;137.63;-17;-18.13;1.07;39.9;3.40;73397;4419.434;-6318.696;1;136;-225;-233.7;33.2;33.4;8;8.6;29.0;0.0;
07/04/2021 20:29:37;100;0;138.05;-17;-18.47;1.07;43.6;3.40;73399;4419.431;-6318.692;1;136;-225;-231.7;33.2;33.4;8;8.6;29.0;0.0;
07/04/2021 20:29:57;100;0;135.49;-17;-18.21;1.16;47.5;3.40;73407;4419.427;-6318.686;1;136;-225;-231.7;33.2;33.4;6;5.9;29.0;0.0;
07/04/2021 20:30:17;100;0;135.05;-17;-18.10;-0.78;51.1;3.40;73404;4419.423;-6318.681;1;136;-225;-231.7;33.2;33.4;6;5.0;29.0;0.0;
07/04/2021 20:30:37;100;0;136.29;-17;-18.32;-0.85;54.7;3.40;73392;4419.420;-6318.677;1;136;-225;-229.7;33.2;33.4;6;5.0;29.0;0.0;
07/04/2021 20:30:57;100;0;135.95;-17;-17.90;-0.77;58.3;3.40;73405;4419.416;-6318.672;1;136;-225;-229.7;33.2;33.5;6;5.0;29.0;0.0;
07/04/2021 20:31:17;100;0;135.51;-17;-17.75;-0.76;61.8;3.40;73399;4419.413;-6318.667;1;136;-225;-229.7;33.2;33.4;6;5.0;29.0;0.0;
07/04/2021 20:31:37;100;0;136.16;-17;-17.56;-0.92;65.2;3.40;73390;4419.409;-6318.663;1;136;-225;-231.7;33.2;33.4;6;5.0;29.0;0.0;
07/04/2021 20:31:57;100;0;138.07;-17;-17.68;-0.82;68.7;3.40;73365;4419.406;-6318.658;1;136;-225;-229.7;33.2;33.4;9;9.0;29.0;0.0;
07/04/2021 20:32:17;100;0;139.34;-17;-17.01;1.43;72.2;3.40;73374;4419.402;-6318.654;1;136;-225;-229.7;33.2;33.4;9;9.5;29.0;0.0;
07/04/2021 20:32:37;100;0;137.28;-17;-16.15;1.45;75.6;3.40;73379;4419.398;-6318.649;1;136;-225;-229.7;33.8;34.0;9;9.5;29.0;0.0;
07/04/2021 20:32:57;100;0;134.93;-17;-16.97;1.70;78.8;3.30;73412;4419.395;-6318.644;1;136;-225;-231.7;34.3;34.4;5;5.0;29.0;0.0;
07/04/2021 20:33:17;100;0;132.02;-17;-17.87;-0.66;82.1;3.30;73449;4419.392;-6318.640;1;136;-225;-229.7;34.3;34.6;2;1.4;29.0;0.0;
07/04/2021 20:33:37;100;0;131.95;-17;-17.60;-2.82;85.6;3.40;73497;4419.389;-6318.635;1;136;-225;-231.7;34.3;34.4;2;0.9;29.0;0.0;
07/04/2021 20:33:57;100;0;133.48;-17;-17.20;-2.84;89.0;3.40;73516;4419.385;-6318.630;1;136;-225;-231.7;34.3;34.4;2;0.9;29.0;42.3;
07/04/2021 20:34:17;100;0;135.21;-17;-17.08;-2.78;92.3;3.40;73539;4419.382;-6318.625;1;136;-225;-233.7;34.3;34.6;5;5.4;29.0;38.7;
07/04/2021 20:34:37;100;0;136.20;-17;-17.06;-0.40;95.5;3.40;73573;4419.379;-6318.621;1;136;-225;-229.7;34.3;34.4;7;7.7;29.0;35.5;
07/04/2021 20:34:57;100;0;135.58;-17;-16.61;1.02;98.7;3.50;73595;4419.376;-6318.616;1;136;-225;-231.7;34.9;34.9;7;8.6;29.0;32.2;
07/04/2021 20:35:17;100;0;136.54;-17;-17.04;0.90;101.7;3.50;73628;4419.372;-6318.612;1;136;-225;-233.7;34.9;35.2;7;8.6;29.0;29.0;
07/04/2021 20:35:37;100;0;136.22;-17;-16.69;1.05;104.7;3.50;73691;4419.369;-6318.608;1;136;-225;-229.7;35.5;35.6;7;8.6;29.0;26.0;
07/04/2021 20:35:57;100;0;135.76;-17;-16.60;1.25;107.7;3.50;73747;4419.366;-6318.604;1;136;-225;-229.7;36.0;36.2;7;8.6;29.0;23.0;
07/04/2021 20:36:17;100;0;133.01;-17;-17.56;1.26;110.7;3.60;73848;4419.364;-6318.600;1;136;-225;-229.7;36.0;36.4;3;2.7;29.0;20.0;
07/04/2021 20:36:37;100;0;134.00;-17;-16.86;-2.18;113.6;3.60;73914;4419.361;-6318.596;1;136;-225;-231.7;36.6;36.5;3;2.3;29.0;16.9;
07/04/2021 20:36:57;100;0;136.75;-17;-17.07;-1.88;116.6;3.70;73982;4419.358;-6318.592;1;136;-225;-229.7;36.6;36.5;7;7.2;29.0;14.1;
07/04/2021 20:37:17;118;0;135.91;-17;-16.02;0.87;119.4;3.80;74060;4419.355;-6318.588;1;136;500;-231.7;19.6;23.4;-2;-2.3;29.0;11.2;
07/04/2021 20:37:27;118;0;135.91;-17;3.95;-4.32;120.4;3.80;74025;4419.354;-6318.587;1;136;500;-166.3;19.6;19.2;-2;-2.3;29.0;-1.0;
07/04/2021 20:37:37;118;0;135.91;-17;22.00;-4.33;120.1;3.90;73796;4419.354;-6318.586;1;136;500;-13.9;19.6;19.5;-2;-2.3;28.5;-1.0;
07/04/2021 20:37:47;118;0;135.91;-17;24.12;-4.39;119.7;3.90;73566;4419.353;-6318.586;1;136;500;136.6;19.6;19.7;-2;-2.3;28.5;-1.0;
07/04/2021 20:37:57;118;0;135.91;-17;21.56;-4.49;119.1;4.00;73349;4419.353;-6318.585;1;136;500;289.1;19.6;19.5;-2;-2.3;28.5;-1.0;
07/04/2021 20:38:07;118;0;135.91;-17;23.17;-4.30;118.1;4.00;73120;4419.352;-6318.584;1;136;500;437.6;19.6;19.7;-2;-2.3;28.5;-1.0;
07/04/2021 20:38:17;118;0;135.91;-17;23.75;-4.57;116.6;4.10;72948;4419.351;-6318.583;1;136;500;505.0;19.6;19.7;-2;-2.3;28.5;-1.0;
07/04/2021 20:38:27;118;0;137.55;-17;23.63;-4.82;114.8;4.10;72957;4419.350;-6318.581;1;136;500;505.0;19.6;19.7;-2;-2.3;29.0;-1.0;
07/04/2021 20:38:47;117;0;133.99;-17;22.52;-4.55;110.8;4.20;72929;4419.346;-6318.576;1;136;500;506.9;20.2;20.3;-2;-2.3;29.0;-1.0;
07/04/2021 20:39:07;117;0;136.56;-17;20.74;-4.56;107.0;4.20;72897;4419.343;-6318.572;1;136;500;505.0;20.3;20.6;2;1.8;29.0;-1.0;
07/04/2021 20:39:27;117;0;137.10;-17;18.99;-1.94;103.4;4.30;72856;4419.339;-6318.567;1;136;500;505.0;20.3;20.6;2;2.3;29.0;-1.0;
07/04/2021 20:39:47;117;0;135.79;-17;18.09;-2.06;100.2;4.40;72786;4419.336;-6318.563;1;136;500;506.9;20.3;20.6;2;2.3;29.0;-1.0;
07/04/2021 20:40:07;117;0;136.85;-17;17.33;-1.93;97.4;4.40;72707;4419.333;-6318.559;1;136;500;506.9;20.3;20.6;2;2.3;29.0;-1.0;
07/04/2021 20:40:27;117;0;135.44;-17;17.36;-2.09;94.7;4.40;72649;4419.331;-6318.555;1;136;500;505.0;20.3;20.6;4;4.1;29.0;-1.0;
07/04/2021 20:40:47;117;0;136.86;-17;17.26;-0.43;92.1;4.40;72603;4419.328;-6318.552;1;136;500;506.9;20.3;20.6;2;1.8;29.0;-1.0;
07/04/2021 20:41:07;117;0;137.50;-17;16.99;-2.46;89.6;4.40;72580;4419.325;-6318.548;1;136;500;505.0;19.6;19.5;2;1.4;29.0;-1.0;
07/04/2021 20:41:27;117;0;138.54;-17;18.99;-2.50;87.0;4.40;72549;4419.323;-6318.545;1;136;500;506.9;19.6;19.4;0;0.0;29.0;-1.0;
07/04/2021 20:41:47;117;0;138.39;-17;18.79;-3.38;84.0;4.40;72526;4419.320;-6318.541;1;136;500;506.9;19.6;19.4;0;-0.5;29.0;-1.0;
07/04/2021 20:42:07;117;0;140.19;-17;18.30;-3.41;81.1;4.40;72494;4419.317;-6318.538;1;136;500;506.9;19.6;19.2;-2;-2.3;29.0;-1.0;
07/04/2021 20:42:27;117;0;140.42;-17;18.30;-4.68;78.3;4.40;72471;4419.314;-6318.534;1;136;500;506.9;19.6;19.2;-2;-2.7;29.0;-1.0;
07/04/2021 20:42:47;117;0;140.22;-17;17.81;-4.71;75.4;4.40;72436;4419.311;-6318.531;1;136;500;506.9;19.6;19.2;-2;-2.7;29.0;-1.0;
07/04/2021 20:43:07;117;0;139.19;-17;17.59;-4.75;72.6;4.40;72391;4419.308;-6318.527;1;136;500;508.9;19.6;19.4;-2;-2.7;29.0;-1.0;
07/04/2021 20:43:27;117;0;136.43;-17;17.29;-4.83;70.0;4.40;72352;4419.305;-6318.524;1;136;500;506.9;19.6;19.2;2;2.3;29.0;-1.0;
07/04/2021 20:43:47;117;0;137.58;-17;16.99;-1.77;67.5;4.30;72321;4419.302;-6318.520;1;136;500;506.9;18.9;18.9;2;2.7;29.0;-1.0;
07/04/2021 20:44:07;117;0;135.22;-17;17.86;-1.84;65.1;4.30;72296;4419.300;-6318.517;1;136;500;506.9;18.9;18.6;4;4.1;29.0;-1.0;
07/04/2021 20:44:27;117;0;136.08;-17;17.62;-0.74;62.6;4.30;72279;4419.298;-6318.514;1;136;500;505.0;18.9;18.6;4;4.5;29.0;-1.0;
07/04/2021 20:44:47;117;0;138.58;-17;17.44;-0.68;60.1;4.20;72276;4419.295;-6318.511;1;136;500;506.9;18.9;18.6;-1;-0.9;29.0;-1.0;
07/04/2021 20:45:07;117;0;137.12;-17;17.40;-3.94;57.8;4.20;72289;4419.293;-6318.507;1;136;500;506.9;18.9;18.6;1;0.9;29.0;-1.0;
07/04/2021 20:45:27;117;0;138.93;-17;17.36;-2.30;55.3;4.20;72268;4419.290;-6318.504;1;136;500;505.0;18.9;18.6;-1;-0.9;29.0;-1.0;
07/04/2021 20:45:47;117;0;137.69;-17;17.39;-3.85;52.9;4.20;72271;4419.287;-6318.501;1;136;500;506.9;18.9;18.8;-1;-0.9;29.0;-1.0;
07/04/2021 20:46:07;117;0;136.80;-17;17.39;-3.82;50.6;4.20;72266;4419.285;-6318.498;1;136;500;505.0;18.9;18.6;2;1.8;29.0;-1.0;
07/04/2021 20:46:27;117;0;137.61;-17;17.44;-1.91;48.2;4.20;72264;4419.283;-6318.495;1;136;500;506.9;18.9;18.6;2;2.7;29.0;-1.0;
07/04/2021 20:46:47;117;0;137.20;-17;17.35;-1.90;45.9;4.10;72248;4419.280;-6318.492;1;136;500;506.9;18.9;18.6;2;2.7;29.0;-1.0;
07/04/2021 20:47:07;117;0;137.04;-17;17.37;-1.86;43.5;4.10;72239;4419.278;-6318.488;1;136;500;505.0;18.9;18.6;2;2.7;29.0;-1.0;
07/04/2021 20:47:27;117;0;137.75;-17;17.61;-1.93;41.2;4.10;72252;4419.275;-6318.485;1;136;500;506.9;18.9;18.6;0;0.0;29.0;-1.0;
07/04/2021 20:47:47;117;0;135.58;-17;17.19;-3.53;38.8;4.10;72238;4419.273;-6318.482;1;136;500;506.9;18.9;18.6;3;3.2;29.0;-1.0;
07/04/2021 20:48:07;117;0;136.44;-17;17.10;-1.09;36.5;4.10;72242;4419.270;-6318.479;1;136;500;506.9;18.9;18.6;3;4.1;29.0;-1.0;
07/04/2021 20:48:27;117;0;136.73;-17;17.11;-1.16;34.2;4.10;72242;4419.268;-6318.476;1;136;500;505.0;18.9;18.6;3;4.1;29.0;-1.0;
07/04/2021 20:48:47;117;0;136.09;-17;16.74;-1.12;31.8;4.10;72240;4419.266;-6318.472;1;136;500;506.9;18.2;18.2;3;4.1;29.0;-1.0;
07/04/2021 20:49:07;117;0;134.66;-17;18.07;-1.23;29.4;4.00;72235;4419.263;-6318.469;1;136;500;506.9;18.2;18.0;3;4.1;29.0;-1.0;
07/04/2021 20:49:27;117;0;136.58;-17;17.86;-1.06;27.1;4.00;72220;4419.261;-6318.466;1;136;500;506.9;18.2;17.9;3;4.1;29.0;-1.0;
07/04/2021 20:49:47;117;0;135.61;-17;17.61;-1.19;24.6;4.00;72202;4419.259;-6318.463;1;136;500;506.9;18.2;18.0;3;4.1;29.0;-1.0;
07/04/2021 20:50:07;117;0;135.41;-17;17.52;-1.15;22.3;4.00;72194;4419.256;-6318.460;1;136;500;505.0;18.2;18.0;3;4.1;29.0;-1.0;
07/04/2021 20:50:27;117;0;135.30;-17;17.40;-1.10;19.9;3.90;72185;4419.254;-6318.456;1;136;500;508.9;18.2;18.0;3;4.1;29.0;-1.0;
07/04/2021 20:50:47;117;0;134.78;-17;17.48;-1.15;17.6;3.90;72179;4419.252;-6318.453;1;136;500;506.9;18.2;18.0;3;4.1;29.0;-1.0;
07/04/2021 20:51:07;117;0;135.26;-17;17.52;-1.21;15.1;3.90;72173;4419.249;-6318.450;1;136;500;506.9;18.2;18.0;3;4.1;29.0;-1.0;
07/04/2021 20:51:27;117;0;134.86;-17;17.26;-1.27;12.7;3.90;72173;4419.247;-6318.446;1;136;500;506.9;18.2;18.0;3;4.1;29.0;-1.0;
07/04/2021 20:51:47;117;0;135.01;-17;17.22;-1.21;10.3;3.90;72181;4419.244;-6318.443;1;136;500;506.9;18.2;18.0;3;4.1;29.0;-1.0;
