Timestamp;NavState;SecurityLevel;Heading;Declination;Pitch;Roll;Depth;Temperature;Pa;Lat;Lon;DeadReckoning;DesiredH;BallastCmd;BallastPos;LinCmd;LinPos;AngCmd;AngPos;Voltage;Altitude;
07/04/2021 20:52:07;117;0;134.13;-17;17.24;-1.36;7.9;3.90;72177;4419.242;-6318.439;1;136;500;506.9;18.2;18.0;5;5.0;29.0;-1.0;
07/04/2021 20:52:27;110;0;135.93;-17;17.17;-0.32;5.4;3.90;72177;4419.239;-6318.436;1;136;-225;479.2;33.2;31.4;2;1.4;29.0;-1.0;
07/04/2021 20:52:37;110;0;139.78;-17;-1.00;-2.19;4.6;3.80;72559;4419.239;-6318.436;1;136;-225;261.4;33.2;33.5;2;1.4;28.9;-1.0;
07/04/2021 20:52:47;110;0;139.66;-17;-14.72;-2.53;5.0;3.80;72915;4419.239;-6318.435;1;136;-225;41.6;33.2;34.0;2;1.4;28.9;-1.0;
07/04/2021 20:52:57;110;0;141.15;-17;-17.51;-2.45;5.9;3.80;73301;4419.238;-6318.434;1;136;-225;-186.1;33.2;34.3;2;1.4;28.9;-1.0;
07/04/2021 20:53:07;110;0;139.37;-17;-19.51;-2.37;7.4;3.80;73438;4419.236;-6318.432;1;136;-225;-229.7;33.2;34.3;2;1.4;28.9;-1.0;
07/04/2021 20:53:27;100;0;143.26;-17;-21.65;-2.89;11.1;3.80;73432;4419.233;-6318.429;1;136;-225;-229.7;32.7;32.6;2;1.4;29.0;-1.0;
07/04/2021 20:53:47;100;0;144.96;-17;-18.95;-2.82;14.9;3.80;73418;4419.228;-6318.424;1;136;-225;-229.7;32.7;32.5;17;17.1;29.0;0.0;
07/04/2021 20:54:07;100;0;144.26;-17;-17.73;5.84;18.6;3.80;73415;4419.224;-6318.420;1;136;-225;-229.7;32.7;32.5;17;17.6;29.0;0.0;
07/04/2021 20:54:27;100;0;140.13;-17;-17.60;5.98;22.1;3.80;73405;4419.221;-6318.416;1;136;-225;-229.7;32.7;32.5;11;10.4;29.0;0.0;
07/04/2021 20:54:47;100;0;138.16;-17;-17.57;1.76;25.8;3.80;73401;4419.217;-6318.411;1;136;-225;-229.7;32.7;32.5;9;8.6;29.0;0.0;
07/04/2021 20:55:07;100;0;136.81;-17;-17.34;0.66;29.2;3.80;73387;4419.213;-6318.407;1;136;-225;-229.7;32.7;32.5;9;7.7;29.0;0.0;
07/04/2021 20:55:27;100;0;136.53;-17;-16.77;0.75;32.8;3.70;73399;4419.210;-6318.402;1;136;-225;-229.7;33.2;33.2;7;6.8;29.0;0.0;
07/04/2021 20:55:47;100;0;137.82;-17;-18.10;-0.05;36.3;3.70;73392;4419.206;-6318.397;1;136;-225;-229.7;33.2;33.4;9;9.5;29.0;0.0;
07/04/2021 20:56:07;100;0;135.70;-17;-18.49;1.66;39.9;3.70;73397;4419.203;-6318.392;1;136;-225;-229.7;33.2;33.4;6;5.4;29.0;0.0;
07/04/2021 20:56:27;100;0;136.44;-17;-18.33;-1.05;43.7;3.70;73398;4419.199;-6318.387;1;136;-225;-229.7;33.2;33.4;6;5.0;29.0;0.0;
07/04/2021 20:56:47;100;0;137.39;-17;-18.51;-0.85;47.5;3.70;73399;4419.195;-6318.383;1;136;-225;-229.7;33.2;33.4;8;8.1;29.0;0.0;
07/04/2021 20:57:07;100;0;135.35;-17;-18.17;1.20;51.2;3.70;73413;4419.191;-6318.378;1;136;-225;-229.7;33.2;33.4;6;5.4;29.0;0.0;
07/04/2021 20:57:27;100;0;135.12;-17;-18.04;-0.83;54.9;3.70;73411;4419.188;-6318.373;1;136;-225;-231.7;33.2;33.4;6;5.0;29.0;0.0;
07/04/2021 20:57:47;100;0;135.41;-17;-17.93;-0.80;58.6;3.70;73417;4419.184;-6318.368;1;136;-225;-229.7;33.2;33.4;6;5.0;29.0;0.0;
07/04/2021 20:58:07;100;0;134.08;-17;-17.74;-0.66;62.0;3.70;73411;4419.181;-6318.363;1;136;-225;-231.7;33.2;33.4;4;3.6;29.0;0.0;
07/04/2021 20:58:27;100;0;135.61;-17;-17.59;-1.79;65.5;3.70;73417;4419.178;-6318.358;1;136;-225;-229.7;33.2;33.4;6;5.9;29.0;0.0;
07/04/2021 20:58:47;100;0;137.50;-17;-17.57;-0.10;68.8;3.60;73394;4419.174;-6318.354;1;136;-225;-229.7;33.2;33.4;8;8.1;29.0;0.0;
07/04/2021 20:59:07;100;0;137.15;-17;-16.76;1.34;72.3;3.60;73389;4419.171;-6318.349;1;136;-225;-229.7;33.8;33.8;8;9.0;29.0;0.0;
07/04/2021 20:59:27;100;0;137.20;-17;-17.26;1.38;75.8;3.60;73401;4419.167;-6318.344;1;136;-225;-229.7;33.8;34.0;8;9.0;29.0;0.0;
07/04/2021 20:59:47;100;0;134.16;-17;-16.98;1.36;79.1;3.60;73441;4419.164;-6318.340;1;136;-225;-229.7;34.3;34.4;4;3.6;29.0;0.0;
07/04/2021 21:00:07;100;0;131.95;-17;-17.54;-1.57;82.4;3.60;73471;4419.161;-6318.335;1;136;-225;-229.7;34.3;34.6;2;1.8;29.0;0.0;
07/04/2021 21:00:27;100;0;131.94;-17;-17.66;-2.82;85.7;3.60;73518;4419.158;-6318.330;1;136;-225;-229.7;34.3;34.4;2;0.9;29.0;44.3;
07/04/2021 21:00:47;100;0;134.95;-17;-17.36;-2.91;89.2;3.60;73547;4419.154;-6318.326;1;136;-225;-229.7;34.3;34.4;5;5.4;29.0;41.6;
07/04/2021 21:01:07;100;0;134.75;-17;-16.91;-0.25;92.4;3.60;73566;4419.151;-6318.321;1;136;-225;-229.7;34.9;35.0;5;5.9;29.0;38.7;
07/04/2021 21:01:27;100;0;135.09;-17;-17.72;-0.36;95.6;3.70;73599;4419.148;-6318.317;1;136;-225;-229.7;34.9;35.2;5;5.9;29.0;35.7;
07/04/2021 21:01:47;100;0;134.97;-17;-17.91;-0.40;98.9;3.70;73617;4419.145;-6318.312;1;136;-225;-229.7;34.9;35.0;5;5.9;29.0;33.1;
07/04/2021 21:02:07;100;0;135.95;-17;-17.60;-0.40;102.1;3.70;73636;4419.141;-6318.308;1;136;-225;-229.7;34.9;35.2;5;5.9;29.0;30.5;
07/04/2021 21:02:28;100;0;135.58;-17;-16.07;-0.20;105.0;3.70;73713;4419.138;-6318.304;1;136;-225;-229.7;35.6;35.6;5;5.9;29.0;28.1;
07/04/2021 21:02:48;100;0;136.10;-17;-16.65;-0.20;108.0;3.80;73780;4419.135;-6318.300;1;136;-225;-231.7;36.2;36.2;7;7.2;29.0;25.9;
07/04/2021 21:03:08;100;0;135.32;-17;-17.71;0.65;110.9;3.80;73851;4419.132;-6318.296;1;136;-225;-229.7;36.2;36.4;7;7.2;29.0;23.3;
07/04/2021 21:03:28;100;0;134.99;-17;-16.98;0.66;113.8;3.90;73918;4419.130;-6318.292;1;136;-225;-229.7;36.8;37.1;5;5.0;29.0;20.5;
07/04/2021 21:03:48;100;0;136.34;-17;-17.51;-0.86;116.8;3.90;74015;4419.127;-6318.288;1;136;-225;-229.7;36.8;37.1;7;7.2;29.0;17.5;
07/04/2021 21:04:08;100;0;135.82;-17;-16.85;0.72;119.7;4.00;74090;4419.124;-6318.284;1;136;-225;-229.7;37.3;37.4;7;7.7;29.0;14.6;
07/04/2021 21:04:28;118;0;135.22;-17;-17.62;0.69;122.5;4.10;74178;4419.121;-6318.280;1;136;500;-229.7;20.3;24.4;-2;-2.3;29.0;11.7;
07/04/2021 21:04:38;118;0;135.22;-17;2.18;-4.26;123.6;4.20;74118;4419.120;-6318.279;1;136;500;-164.4;20.3;20.0;-2;-2.3;29.0;-1.0;
07/04/2021 21:04:48;118;0;135.22;-17;19.47;-4.39;123.4;4.20;73886;4419.120;-6318.279;1;136;500;-11.9;20.3;20.3;-2;-2.3;28.5;-1.0;
07/04/2021 21:04:58;118;0;135.22;-17;22.18;-4.49;122.9;4.20;73656;4419.120;-6318.278;1;136;500;140.6;20.3;20.4;-2;-2.3;28.5;-1.0;
07/04/2021 21:05:08;118;0;135.22;-17;20.60;-4.44;122.3;4.30;73426;4419.119;-6318.277;1;136;500;291.1;20.3;20.6;-2;-2.7;28.5;-1.0;
07/04/2021 21:05:18;118;0;135.22;-17;21.71;-4.57;121.3;4.30;73188;4419.118;-6318.276;1;136;500;441.6;20.3;20.4;-2;-2.3;28.5;-1.0;
07/04/2021 21:05:28;118;0;135.22;-17;23.29;-4.73;119.8;4.40;73036;4419.117;-6318.275;1;136;500;503.0;20.3;20.4;-2;-2.3;28.5;-1.0;
07/04/2021 21:05:48;117;0;127.99;-17;22.09;-4.62;116.1;4.50;73053;4419.114;-6318.270;1;136;500;505.0;20.3;20.4;-2;-2.3;28.9;-1.0;
07/04/2021 21:06:08;117;0;125.52;-17;21.33;-4.71;112.3;4.60;73021;4419.112;-6318.264;1;136;500;505.0;20.5;20.4;15;14.9;29.0;-1.0;
07/04/2021 21:06:28;117;0;134.97;-17;20.05;5.33;108.6;4.60;72979;4419.108;-6318.260;1;136;500;505.0;20.4;20.4;4;4.1;29.0;-1.0;
07/04/2021 21:06:48;117;0;133.26;-17;19.52;-1.19;105.2;4.70;72921;4419.105;-6318.255;1;136;500;505.0;20.2;20.1;6;6.3;29.0;-1.0;
07/04/2021 21:07:08;117;0;134.74;-17;18.61;0.36;101.8;4.80;72842;4419.102;-6318.251;1;136;500;506.9;20.2;20.3;4;3.6;29.0;-1.0;
07/04/2021 21:07:28;117;0;134.22;-17;17.86;-1.51;98.9;4.80;72766;4419.099;-6318.247;1;136;500;506.9;20.2;20.3;4;3.2;29.0;-1.0;
07/04/2021 21:07:48;117;0;133.77;-17;17.92;-1.47;96.0;4.80;72711;4419.097;-6318.243;1;136;500;505.0;20.2;20.1;4;3.2;29.0;-1.0;
07/04/2021 21:08:08;117;0;135.66;-17;17.64;-1.41;93.1;4.80;72660;4419.094;-6318.239;1;136;500;506.9;20.2;20.1;4;3.2;29.0;-1.0;
07/04/2021 21:08:28;117;0;137.81;-17;17.26;-1.43;90.2;4.80;72628;4419.091;-6318.235;1;136;500;505.0;20.2;20.1;1;0.5;29.0;-1.0;
07/04/2021 21:08:48;117;0;135.88;-17;17.62;-3.29;87.6;4.80;72595;4419.088;-6318.232;1;136;500;505.0;20.2;20.1;3;3.2;29.0;-1.0;
07/04/2021 21:09:08;117;0;137.29;-17;17.17;-1.05;85.1;4.80;72559;4419.086;-6318.228;1;136;500;505.0;20.2;20.3;1;0.9;29.0;-1.0;
07/04/2021 21:09:28;117;0;135.97;-17;17.28;-2.93;82.4;4.80;72545;4419.083;-6318.225;1;136;500;505.0;20.2;20.1;3;3.2;29.0;-1.0;
07/04/2021 21:09:48;117;0;140.04;-17;16.88;-0.87;79.8;4.80;72515;4419.080;-6318.221;1;136;500;505.0;19.5;19.4;-2;-1.8;29.0;-1.0;
07/04/2021 21:10:08;117;0;140.81;-17;17.78;-4.61;77.0;4.70;72492;4419.077;-6318.218;1;136;500;503.0;19.5;19.4;-2;-2.3;29.0;-1.0;
07/04/2021 21:10:28;117;0;138.23;-17;18.05;-4.81;74.3;4.70;72451;4419.074;-6318.214;1;136;500;506.9;19.5;19.2;0;0.5;29.0;-1.0;
07/04/2021 21:10:48;117;0;137.90;-17;17.93;-2.64;71.6;4.70;72423;4419.072;-6318.211;1;136;500;505.0;19.5;19.4;0;1.4;29.0;-1.0;
07/04/2021 21:11:08;117;0;138.87;-17;17.21;-2.60;69.0;4.70;72386;4419.069;-6318.207;1;136;500;506.9;19.5;19.4;0;1.4;29.0;-1.0;
07/04/2021 21:11:28;117;0;136.57;-17;17.10;-2.72;66.4;4.70;72350;4419.066;-6318.204;1;136;500;506.9;19.5;19.2;2;1.8;29.0;-1.0;
07/04/2021 21:11:48;117;0;136.21;-17;16.62;-1.93;64.0;4.60;72326;4419.064;-6318.201;1;136;500;503.0;18.7;18.6;2;2.3;29.0;-1.0;
07/04/2021 21:12:08;117;0;134.36;-17;18.12;-1.91;61.4;4.60;72312;4419.061;-6318.197;1;136;500;508.9;18.7;18.5;4;4.1;29.0;-1.0;
07/04/2021 21:12:28;117;0;137.10;-17;18.16;-0.41;58.9;4.60;72298;4419.058;-6318.194;1;136;500;505.0;18.7;18.5;1;0.5;29.0;-1.0;
07/04/2021 21:12:48;117;0;136.42;-17;17.93;-3.17;56.3;4.50;72297;4419.056;-6318.190;1;136;500;506.9;18.7;18.5;1;0.0;29.0;-1.0;
07/04/2021 21:13:08;117;0;136.62;-17;17.80;-3.15;53.8;4.50;72287;4419.053;-6318.187;1;136;500;505.0;18.7;18.5;1;0.0;29.0;-1.0;
07/04/2021 21:13:28;117;0;136.52;-17;17.83;-3.24;51.3;4.50;72283;4419.051;-6318.184;1;136;500;505.0;18.7;18.5;1;0.0;29.0;-1.0;
07/04/2021 21:13:48;117;0;136.12;-17;17.82;-3.24;48.9;4.50;72276;4419.049;-6318.181;1;136;500;505.0;18.7;18.5;1;0.0;29.0;-1.0;
07/04/2021 21:14:08;117;0;136.21;-17;17.77;-3.12;46.4;4.50;72274;4419.046;-6318.177;1;136;500;505.0;18.7;18.5;1;0.0;29.0;-1.0;
07/04/2021 21:14:28;117;0;137.29;-17;17.71;-3.15;43.9;4.40;72262;4419.044;-6318.174;1;136;500;506.9;18.7;18.3;1;0.0;29.0;-1.0;
07/04/2021 21:14:48;117;0;136.09;-17;17.78;-3.15;41.5;4.40;72262;4419.041;-6318.171;1;136;500;505.0;18.7;18.5;1;0.0;29.0;-1.0;
07/04/2021 21:15:08;117;0;134.38;-17;17.66;-3.38;39.0;4.40;72240;4419.039;-6318.167;1;136;500;505.0;18.7;18.5;4;4.5;29.0;-1.0;
07/04/2021 21:15:28;117;0;137.23;-17;17.75;-0.56;36.5;4.40;72245;4419.036;-6318.164;1;136;500;505.0;18.7;18.3;1;0.9;29.0;-1.0;
07/04/2021 21:15:48;117;0;135.33;-17;17.64;-3.02;34.1;4.30;72227;4419.034;-6318.161;1;136;500;505.0;18.7;18.3;3;3.2;29.0;-1.0;
07/04/2021 21:16:08;117;0;136.94;-17;17.25;-1.22;31.7;4.30;72228;4419.031;-6318.158;1;136;500;505.0;18.7;18.3;1;0.5;29.0;-1.0;
07/04/2021 21:16:28;117;0;135.37;-17;17.12;-3.35;29.2;4.30;72230;4419.029;-6318.154;1;136;500;506.9;18.7;18.5;3;3.2;29.0;-1.0;
07/04/2021 21:16:48;117;0;133.96;-17;17.23;-1.35;27.0;4.30;72215;4419.027;-6318.151;1;136;500;505.0;18.7;18.5;5;5.0;29.0;-1.0;
07/04/2021 21:17:08;117;0;136.09;-17;16.87;-0.32;24.7;4.20;72191;4419.024;-6318.148;1;136;500;506.9;18.0;17.9;2;1.8;29.0;-1.0;
07/04/2021 21:17:28;117;0;132.51;-17;18.21;-2.69;22.4;4.20;72195;4419.022;-6318.145;1;136;500;505.0;18.0;17.7;7;7.7;29.0;-1.0;
07/04/2021 21:17:48;117;0;135.20;-17;17.90;1.16;19.9;4.20;72183;4419.020;-6318.141;1;136;500;505.0;18.0;17.7;4;4.1;29.0;-1.0;
07/04/2021 21:18:08;117;0;132.94;-17;17.88;-1.51;17.5;4.20;72188;4419.018;-6318.138;1;136;500;506.9;18.0;17.7;6;5.9;29.0;-1.0;
07/04/2021 21:18:28;117;0;134.10;-17;18.08;0.13;15.0;4.10;72180;4419.015;-6318.134;1;136;500;505.0;18.0;17.9;6;6.3;29.0;-1.0;
07/04/2021 21:18:48;117;0;135.28;-17;17.88;0.07;12.5;4.10;72185;4419.013;-6318.131;1;136;500;505.0;18.0;17.7;3;3.2;29.0;-1.0;
07/04/2021 21:19:08;117;0;134.20;-17;17.83;-1.81;10.0;4.10;72182;4419.010;-6318.127;1;136;500;505.0;18.0;17.7;5;5.0;29.0;-1.0;
