Timestamp;NavState;SecurityLevel;Heading;Declination;Pitch;Roll;Depth;Temperature;Pa;Lat;Lon;DeadReckoning;DesiredH;BallastCmd;BallastPos;LinCmd;LinPos;AngCmd;AngPos;Voltage;Altitude;
07/04/2021 16:58:02;117;0;137.50;-17;16.83;-2.41;8.4;3.90;72439;4421.283;-6320.297;1;137;475;481.2;17.6;17.6;2;1.4;29.1;-1.0;
07/04/2021 16:58:22;110;0;136.96;-17;18.03;-2.73;6.1;3.90;72427;4421.281;-6320.294;1;137;-275;451.5;33.7;30.8;0;-0.5;29.1;-1.0;
07/04/2021 16:58:32;110;0;139.81;-17;-1.67;-3.61;5.3;3.90;72817;4421.281;-6320.293;1;137;-275;219.8;33.7;34.0;0;-0.5;29.0;-1.0;
07/04/2021 16:58:42;110;0;140.20;-17;-17.00;-3.58;5.8;3.90;73205;4421.280;-6320.293;1;137;-275;-11.9;33.7;34.9;0;-0.5;29.0;-1.0;
07/04/2021 16:58:52;110;0;140.22;-17;-19.61;-3.50;6.8;3.90;73622;4421.279;-6320.292;1;137;-275;-259.4;33.7;34.9;0;-0.5;29.0;-1.0;
07/04/2021 16:59:02;110;0;139.27;-17;-21.88;-3.59;8.7;3.80;73717;4421.277;-6320.289;1;137;-275;-277.2;33.7;34.9;0;-0.5;29.0;-1.0;
07/04/2021 16:59:22;100;0;143.03;-17;-23.75;-3.72;13.3;3.80;73713;4421.273;-6320.285;1;137;-275;-279.2;34.3;34.1;0;-0.5;29.1;-1.0;
07/04/2021 16:59:42;100;0;144.68;-17;-22.43;-3.67;18.1;3.80;73711;4421.269;-6320.281;1;137;-275;-279.2;33.4;33.1;12;12.6;29.1;0.0;
07/04/2021 17:00:02;100;0;145.80;-17;-20.77;3.29;22.7;3.80;73718;4421.264;-6320.276;1;137;-275;-279.2;32.9;32.9;12;13.1;29.1;0.0;
07/04/2021 17:00:22;100;0;142.63;-17;-19.43;3.35;27.0;3.80;73703;4421.259;-6320.271;1;137;-275;-279.2;32.6;32.5;10;9.9;29.1;0.0;
07/04/2021 17:00:42;100;0;139.80;-17;-18.66;1.35;31.2;3.80;73713;4421.255;-6320.266;1;137;-275;-279.2;32.6;32.5;6;5.4;29.1;0.0;
07/04/2021 17:01:02;100;0;139.36;-17;-18.32;-0.87;35.1;3.80;73716;4421.251;-6320.261;1;137;-275;-279.2;32.6;32.5;6;5.0;29.1;0.0;
07/04/2021 17:01:22;100;0;140.47;-17;-18.06;-0.87;39.1;3.80;73714;4421.247;-6320.257;1;137;-275;-279.2;32.6;32.5;6;5.0;29.1;0.0;
07/04/2021 17:01:42;100;0;140.49;-17;-17.86;-0.87;42.8;3.80;73722;4421.243;-6320.252;1;137;-275;-279.2;32.6;32.5;6;5.0;29.1;0.0;
07/04/2021 17:02:02;100;0;140.06;-17;-17.57;-0.92;46.6;3.80;73720;4421.239;-6320.247;1;137;-275;-277.2;32.6;32.5;6;5.0;29.1;0.0;
07/04/2021 17:02:22;100;0;143.30;-17;-17.41;-1.05;50.3;3.70;73724;4421.235;-6320.243;1;137;-275;-279.2;32.6;32.5;11;11.3;29.1;0.0;
07/04/2021 17:02:42;100;0;145.10;-17;-17.08;2.55;54.0;3.70;73722;4421.230;-6320.239;1;137;-275;-281.2;32.6;32.5;13;13.1;29.1;0.0;
07/04/2021 17:03:02;100;0;143.76;-17;-16.77;3.59;57.6;3.70;73715;4421.226;-6320.234;1;137;-275;-279.2;32.9;33.1;11;10.8;29.1;40.9;
07/04/2021 17:03:22;100;0;140.03;-17;-17.56;2.12;61.3;3.70;73726;4421.222;-6320.230;1;137;-275;-279.2;32.9;33.1;7;7.2;29.1;38.8;
07/04/2021 17:03:42;100;0;141.80;-17;-17.45;0.03;65.0;3.70;73736;4421.218;-6320.225;1;137;-275;-279.2;32.9;33.2;9;9.5;29.1;36.1;
07/04/2021 17:04:02;100;0;140.77;-17;-17.39;1.67;68.7;3.70;73745;4421.214;-6320.221;1;137;-275;-279.2;32.9;33.2;9;9.9;29.1;34.5;
07/04/2021 17:04:22;100;0;138.90;-17;-16.94;1.78;72.3;3.70;73759;4421.210;-6320.216;1;137;-275;-279.2;33.2;33.2;6;5.9;29.1;32.0;
07/04/2021 17:04:42;100;0;138.19;-17;-16.56;-0.82;75.7;3.70;73766;4421.207;-6320.211;1;137;-275;-279.2;33.5;33.7;6;5.4;29.1;29.1;
07/04/2021 17:05:02;100;0;137.41;-17;-17.35;-0.69;79.1;3.70;73777;4421.203;-6320.207;1;137;-275;-279.2;33.5;33.8;4;4.1;29.1;26.2;
07/04/2021 17:05:22;100;0;137.25;-17;-17.52;-1.52;82.8;3.70;73785;4421.199;-6320.202;1;137;-275;-279.2;33.5;33.8;4;3.6;29.1;22.8;
07/04/2021 17:05:42;100;0;138.58;-17;-17.54;-1.71;86.4;3.70;73801;4421.196;-6320.197;1;137;-275;-279.2;33.5;33.8;4;3.2;29.1;17.8;
07/04/2021 17:06:02;100;0;139.60;-17;-17.15;-1.62;90.0;3.70;73817;4421.192;-6320.193;1;137;-275;-279.2;33.5;33.8;7;7.2;29.1;12.4;
07/04/2021 17:06:22;118;0;139.11;-17;-16.99;0.71;93.4;3.70;73828;4421.188;-6320.188;1;137;475;-277.2;19.3;20.9;0;-0.9;29.1;10.3;
07/04/2021 17:06:32;118;0;139.11;-17;-1.19;-3.50;94.8;3.70;73765;4421.188;-6320.188;1;137;475;-217.8;19.3;18.9;0;-0.9;29.1;-1.0;
07/04/2021 17:06:42;118;0;139.11;-17;13.92;-3.46;94.9;3.70;73503;4421.187;-6320.188;1;137;475;-63.4;19.3;19.4;0;-0.9;28.6;-1.0;
07/04/2021 17:06:52;118;0;139.11;-17;20.79;-3.46;94.8;3.70;73269;4421.187;-6320.187;1;137;475;89.1;19.3;19.5;0;-0.9;28.7;-1.0;
07/04/2021 17:07:02;118;0;139.11;-17;19.74;-3.51;94.7;3.70;73018;4421.187;-6320.187;1;137;475;239.6;19.3;19.4;0;-0.9;28.7;-1.0;
07/04/2021 17:07:12;118;0;139.11;-17;15.63;-3.67;94.5;3.70;72779;4421.187;-6320.187;1;137;475;390.1;19.3;19.5;0;-0.9;28.7;-1.0;
07/04/2021 17:07:22;118;0;139.11;-17;15.95;-2.34;93.9;3.70;72569;4421.186;-6320.186;1;137;475;479.2;19.3;19.4;0;-0.9;28.7;-1.0;
07/04/2021 17:07:32;118;0;154.85;-17;16.41;-3.49;92.9;3.70;72574;4421.185;-6320.185;1;137;475;481.2;19.3;19.4;0;-0.9;29.1;-1.0;
07/04/2021 17:07:52;117;0;151.70;-17;19.03;-3.88;90.8;3.70;72576;4421.183;-6320.183;1;137;475;483.2;19.7;19.7;0;-0.9;29.1;-1.0;
07/04/2021 17:08:12;117;0;150.83;-17;17.74;-3.80;88.3;3.70;72570;4421.180;-6320.181;1;137;475;483.2;19.7;19.8;-14;-14.0;29.1;-1.0;
07/04/2021 17:08:32;117;0;143.23;-17;17.33;-11.42;85.9;3.80;72569;4421.177;-6320.178;1;137;475;483.2;19.7;19.8;-5;-5.0;29.1;-1.0;
07/04/2021 17:08:52;117;0;144.23;-17;17.29;-5.53;83.4;3.80;72571;4421.174;-6320.175;1;137;475;481.2;19.7;19.8;-5;-4.5;29.1;-1.0;
07/04/2021 17:09:12;117;0;142.22;-17;17.16;-5.54;81.0;3.80;72556;4421.171;-6320.173;1;137;475;485.1;19.7;19.8;-5;-4.1;29.1;-1.0;
07/04/2021 17:09:32;117;0;141.36;-17;17.30;-5.47;78.6;3.80;72552;4421.169;-6320.170;1;137;475;483.2;19.7;19.8;-3;-3.2;29.1;-1.0;
07/04/2021 17:09:52;117;0;140.97;-17;17.09;-4.45;76.2;3.80;72543;4421.166;-6320.167;1;137;475;483.2;19.7;19.8;-3;-2.3;29.1;-1.0;
07/04/2021 17:10:12;117;0;139.03;-17;16.78;-4.54;73.8;3.80;72527;4421.163;-6320.163;1;137;475;485.1;19.2;19.1;0;0.0;29.1;-1.0;
07/04/2021 17:10:32;117;0;140.80;-17;18.24;-2.75;71.4;3.80;72514;4421.161;-6320.160;1;137;475;483.2;19.2;18.9;-2;-1.8;29.1;-1.0;
07/04/2021 17:10:52;117;0;138.03;-17;17.96;-4.39;68.9;3.80;72511;4421.158;-6320.157;1;137;475;483.2;19.2;18.9;1;0.9;29.1;-1.0;
07/04/2021 17:11:12;117;0;139.05;-17;17.87;-2.34;66.5;3.70;72507;4421.156;-6320.154;1;137;475;483.2;19.2;18.9;1;1.4;29.1;-1.0;
07/04/2021 17:11:32;117;0;138.20;-17;17.66;-2.37;64.2;3.70;72492;4421.153;-6320.151;1;137;475;483.2;19.2;18.9;1;1.4;29.1;-1.0;
07/04/2021 17:11:52;117;0;135.48;-17;17.43;-2.52;61.9;3.70;72490;4421.151;-6320.148;1;137;475;483.2;19.2;18.9;4;4.1;29.1;-1.0;
07/04/2021 17:12:12;117;0;135.92;-17;17.18;-0.77;59.6;3.70;72473;4421.149;-6320.145;1;137;475;483.2;19.2;18.8;4;4.5;29.1;-1.0;
07/04/2021 17:12:32;117;0;138.43;-17;17.21;-0.56;57.3;3.70;72468;4421.146;-6320.142;1;137;475;483.2;19.2;18.9;1;0.9;29.1;-1.0;
07/04/2021 17:12:52;117;0;135.62;-17;16.54;-3.07;55.1;3.70;72450;4421.144;-6320.139;1;137;475;483.2;18.6;18.5;4;4.1;29.1;-1.0;
07/04/2021 17:13:12;117;0;135.12;-17;17.53;-0.70;52.9;3.70;72439;4421.142;-6320.136;1;137;475;483.2;18.6;18.5;4;4.5;29.1;-1.0;
07/04/2021 17:13:32;117;0;134.32;-17;17.57;-0.62;50.7;3.70;72440;4421.140;-6320.133;1;137;475;483.2;18.6;18.5;6;5.9;29.1;-1.0;
07/04/2021 17:13:52;117;0;133.97;-17;17.48;0.26;48.5;3.60;72428;4421.138;-6320.130;1;137;475;481.2;18.6;18.5;6;6.3;29.1;-1.0;
07/04/2021 17:14:12;117;0;132.52;-17;17.49;0.14;46.3;3.60;72420;4421.136;-6320.126;1;137;475;483.2;18.6;18.5;8;8.1;29.1;-1.0;
07/04/2021 17:14:32;117;0;133.91;-17;17.26;1.71;44.0;3.60;72421;4421.133;-6320.123;1;137;475;483.2;18.6;18.5;6;5.9;29.1;-1.0;
07/04/2021 17:14:52;117;0;135.76;-17;16.97;-0.32;41.8;3.60;72418;4421.131;-6320.120;1;137;475;485.1;18.1;17.9;4;4.1;29.1;-1.0;
07/04/2021 17:15:12;117;0;135.96;-17;18.17;-1.32;39.6;3.60;72416;4421.129;-6320.117;1;137;475;483.2;18.1;17.9;4;3.6;29.1;-1.0;
07/04/2021 17:15:32;117;0;135.91;-17;18.18;-1.35;37.3;3.60;72403;4421.127;-6320.114;1;137;475;483.2;18.1;17.7;4;3.6;29.1;-1.0;
07/04/2021 17:15:52;117;0;134.75;-17;18.32;-1.45;34.9;3.60;72406;4421.124;-6320.111;1;137;475;481.2;18.1;17.9;4;3.6;29.1;-1.0;
07/04/2021 17:16:12;117;0;134.31;-17;18.04;-1.34;32.6;3.60;72402;4421.122;-6320.108;1;137;475;483.2;18.1;17.7;6;5.9;29.1;-1.0;
07/04/2021 17:16:32;117;0;136.29;-17;17.83;0.24;30.3;3.60;72402;4421.120;-6320.105;1;137;475;483.2;18.1;17.9;4;4.1;29.1;-1.0;
07/04/2021 17:16:52;117;0;136.02;-17;18.02;-1.32;28.1;3.60;72408;4421.118;-6320.102;1;137;475;483.2;18.1;17.9;4;3.6;29.1;-1.0;
07/04/2021 17:17:12;117;0;137.31;-17;18.04;-1.32;25.8;3.60;72394;4421.115;-6320.099;1;137;475;485.1;18.1;17.7;2;1.8;29.1;-1.0;
07/04/2021 17:17:32;117;0;137.04;-17;17.77;-2.68;23.5;3.50;72384;4421.113;-6320.096;1;137;475;483.2;18.1;17.9;2;0.9;29.1;-1.0;
07/04/2021 17:17:52;117;0;136.14;-17;17.64;-2.77;21.3;3.50;72384;4421.111;-6320.093;1;137;475;483.2;18.1;17.9;4;4.1;29.1;-1.0;
07/04/2021 17:18:12;117;0;138.48;-17;17.71;-0.59;19.1;3.50;72365;4421.109;-6320.090;1;137;475;483.2;18.1;17.9;1;0.5;29.1;-1.0;
07/04/2021 17:18:32;117;0;136.04;-17;17.97;-3.36;16.9;3.50;72366;4421.106;-6320.087;1;137;475;483.2;18.1;17.7;4;4.1;29.1;-1.0;
07/04/2021 17:18:52;117;0;139.12;-17;17.61;-0.69;14.6;3.50;72356;4421.104;-6320.084;1;137;475;483.2;18.1;17.7;0;0.0;29.1;-1.0;
07/04/2021 17:19:12;117;0;136.08;-17;17.40;-3.63;12.2;3.50;72356;4421.102;-6320.081;1;137;475;483.2;18.1;17.9;4;4.5;29.1;-1.0;
