Timestamp;NavState;SecurityLevel;Heading;Declination;Pitch;Roll;Depth;Temperature;Pa;Lat;Lon;DeadReckoning;DesiredH;BallastCmd;BallastPos;LinCmd;LinPos;AngCmd;AngPos;Voltage;Altitude;
07/04/2021 21:19:28;117;0;135.17;-17;18.01;0.07;7.4;4.10;72180;4419.008;-6318.124;1;136;500;503.0;18.0;17.7;5;5.9;29.0;-1.0;
07/04/2021 21:19:48;115;0;137.33;-17;17.42;-0.50;4.9;4.10;72181;4419.005;-6318.121;1;136;500;505.0;100.0;31.6;0;-0.5;29.0;-1.0;
07/04/2021 21:19:58;115;0;143.89;-17;-26.30;-3.50;4.1;4.10;72176;4419.004;-6318.120;1;136;500;505.0;100.0;100.1;0;-0.9;28.9;-1.0;
07/04/2021 21:20:08;115;0;137.44;-17;-75.21;-26.00;5.4;4.00;72173;4419.004;-6318.119;1;136;500;506.9;100.0;100.4;0;-0.9;29.0;-1.0;
07/04/2021 21:20:28;116;0;122.86;-17;-62.48;-3.49;1.5;4.00;72168;4419.003;-6318.117;1;136;500;506.9;100.0;100.4;0;-0.9;29.0;-1.0;
07/04/2021 21:20:56;116;0;52.50;-17;-51.33;5.46;0.1;4.00;72185;4419.003;-6318.117;1;136;500;506.9;100.0;100.4;0;-0.9;29.0;-1.0;
07/04/2021 21:21:16;116;0;36.59;-17;-71.03;-6.29;0.7;4.00;72213;4419.003;-6318.117;1;136;500;505.0;100.0;100.4;0;-0.9;29.0;-1.0;
07/04/2021 21:21:36;116;0;23.58;-17;-65.15;10.08;0.7;4.00;72208;4419.003;-6318.117;1;136;500;506.9;100.0;100.4;0;-0.9;29.0;-1.0;
07/04/2021 21:21:56;116;0;31.89;-17;-63.59;-0.31;0.6;4.00;72221;4418.147;-6321.208;0;136;500;505.0;100.0;100.4;0;-0.5;29.0;-1.0;
07/04/2021 21:22:16;116;0;19.49;-17;-54.91;-7.68;0.5;4.10;72222;4418.147;-6321.214;0;142;500;505.0;100.0;100.4;0;-0.9;29.0;-1.0;
07/04/2021 21:22:36;116;0;42.41;-17;-59.48;-9.09;0.6;4.10;72232;4418.142;-6321.225;0;142;500;506.9;100.0;100.4;0;-0.9;29.0;-1.0;
07/04/2021 21:23:11;116;0;22.73;-17;-63.41;8.71;0.5;4.10;72225;4418.142;-6321.227;0;142;500;506.9;100.0;100.4;0;-0.5;29.0;-1.0;
07/04/2021 21:23:31;116;0;37.97;-17;-58.89;2.01;0.5;4.10;72223;4418.141;-6321.230;0;142;500;506.9;100.0;100.4;0;-0.9;29.0;-1.0;
07/04/2021 21:23:51;116;0;36.72;-17;-64.30;-16.13;0.6;4.20;72239;4418.136;-6321.242;0;142;500;505.0;100.0;100.4;0;-0.9;29.0;-1.0;
07/04/2021 21:24:22;116;0;43.28;-17;-60.68;-14.09;0.6;4.20;72237;4418.136;-6321.242;0;129;500;506.9;100.0;100.4;0;-0.9;29.0;-1.0;
07/04/2021 21:24:42;116;0;34.35;-17;-64.39;-16.05;0.6;4.30;72240;4418.135;-6321.245;0;129;500;505.0;100.0;100.4;0;-0.5;29.0;-1.0;
07/04/2021 21:25:02;116;0;48.32;-17;-64.58;-17.69;0.6;4.30;72239;4418.131;-6321.257;0;129;500;506.9;100.0;100.4;0;-0.9;29.0;-1.0;
07/04/2021 21:25:38;116;0;23.63;-17;-63.05;5.53;0.5;4.30;72246;4418.132;-6321.258;0;129;500;506.9;100.0;100.4;0;-0.9;29.0;-1.0;
07/04/2021 21:25:58;116;0;28.24;-17;-65.70;6.46;0.6;4.40;72253;4418.130;-6321.263;0;129;500;506.9;100.0;100.4;0;-0.5;29.0;-1.0;
07/04/2021 21:26:18;116;0;42.24;-17;-63.14;-21.04;0.6;4.40;72255;4418.125;-6321.273;0;129;500;505.0;100.0;100.4;0;-0.9;29.0;-1.0;
07/04/2021 21:26:49;116;0;27.63;-17;-66.54;-2.31;0.6;4.50;72247;4418.124;-6321.274;0;129;500;505.0;100.0;100.4;0;-0.9;29.0;-1.0;
07/04/2021 21:27:09;116;0;43.22;-17;-63.25;-17.35;0.6;4.50;72245;4418.122;-6321.279;0;129;500;506.9;100.0;100.4;0;-0.5;29.0;-1.0;
07/04/2021 21:27:29;116;0;32.62;-17;-63.90;-0.95;0.6;4.50;72249;4418.120;-6321.283;0;129;500;506.9;100.0;100.4;0;-0.9;29.0;-1.0;
07/04/2021 21:27:49;116;0;27.82;-17;-63.12;-4.78;0.5;4.60;72257;4418.118;-6321.287;0;129;500;505.0;100.0;100.4;0;-0.9;29.0;-1.0;
07/04/2021 21:28:09;110;0;32.92;-17;-62.42;4.06;0.5;4.60;72251;4418.118;-6321.287;1;129;-225;489.1;100.0;100.4;2;2.3;29.0;-1.0;
07/04/2021 21:28:19;110;0;55.74;-17;-64.59;-18.80;0.7;4.60;72458;4418.118;-6321.287;1;129;-225;372.3;100.0;100.4;2;2.7;28.9;-1.0;
07/04/2021 21:28:29;110;0;69.99;-17;-66.75;-29.10;0.9;4.60;72665;4418.118;-6321.287;1;129;-225;247.5;100.0;100.4;2;2.7;28.9;-1.0;
07/04/2021 21:28:39;110;0;54.17;-17;-73.34;-2.98;1.2;4.60;72872;4418.118;-6321.287;1;129;-225;114.9;100.0;100.4;2;2.7;28.9;-1.0;
07/04/2021 21:28:49;110;0;64.37;-17;-69.45;-17.93;2.2;4.60;73111;4418.119;-6321.286;1;129;-225;-35.6;100.0;100.4;2;2.7;28.9;-1.0;
07/04/2021 21:28:59;110;0;70.78;-17;-72.11;-6.06;4.9;4.60;73427;4418.119;-6321.284;1;129;-225;-225.7;43.0;90.3;2;2.7;28.9;-1.0;
07/04/2021 21:29:09;110;0;70.63;-17;-65.23;-6.82;9.9;4.60;73456;4418.120;-6321.281;1;129;-225;-227.7;33.2;36.7;2;2.7;28.9;-1.0;
07/04/2021 21:29:19;110;0;81.18;-17;-48.13;-3.79;15.8;4.60;73451;4418.120;-6321.277;1;129;-225;-227.7;33.2;32.9;2;2.7;28.9;-1.0;
07/04/2021 21:29:39;100;0;85.65;-17;-28.57;-2.37;24.2;4.60;73422;4418.121;-6321.266;1;129;-225;-227.7;33.2;32.8;2;2.7;29.0;0.0;
07/04/2021 21:29:59;100;0;84.59;-17;-21.51;-2.32;29.7;4.60;73400;4418.122;-6321.257;1;129;-225;-227.7;32.9;32.9;-47;-34.3;29.0;0.0;
07/04/2021 21:30:19;100;0;95.27;-17;-13.23;-29.10;33.6;4.60;73403;4418.121;-6321.249;1;129;-225;-231.7;34.2;34.4;-34;-33.4;29.0;0.0;
07/04/2021 21:30:39;100;0;110.02;-17;-17.02;-20.97;36.8;4.60;73398;4418.119;-6321.243;1;129;-225;-227.7;34.2;34.4;-16;-15.8;29.0;0.0;
07/04/2021 21:30:59;100;0;120.20;-17;-19.84;-11.78;40.5;4.60;73402;4418.117;-6321.237;1;129;-225;-229.7;34.2;34.4;-4;-4.1;29.0;0.0;
07/04/2021 21:31:19;100;0;125.06;-17;-20.79;-5.33;44.5;4.50;73399;4418.114;-6321.231;1;129;-225;-231.7;33.9;33.8;1;0.9;29.0;0.0;
07/04/2021 21:31:39;100;0;126.96;-17;-20.39;-2.80;48.6;4.50;73406;4418.111;-6321.226;1;129;-225;-229.7;33.8;33.8;4;4.5;29.0;0.0;
07/04/2021 21:31:59;100;0;127.02;-17;-20.13;-0.63;52.5;4.50;73401;4418.108;-6321.220;1;129;-225;-229.7;33.7;33.7;4;5.0;29.0;0.0;
07/04/2021 21:32:19;100;0;126.52;-17;-18.89;-0.70;56.4;4.50;73402;4418.105;-6321.214;1;129;-225;-229.7;33.7;33.4;4;5.0;29.0;0.0;
07/04/2021 21:32:39;100;0;125.10;-17;-18.50;-0.56;60.0;4.50;73398;4418.102;-6321.209;1;129;-225;-229.7;33.7;33.4;1;0.9;29.0;0.0;
07/04/2021 21:32:59;100;0;127.44;-17;-18.31;-3.20;63.5;4.40;73401;4418.099;-6321.203;1;129;-225;-231.7;33.7;33.5;4;4.1;29.0;0.0;
07/04/2021 21:33:19;100;0;129.72;-17;-18.29;-1.00;67.0;4.40;73386;4418.096;-6321.198;1;129;-225;-229.7;33.7;33.4;7;7.2;29.0;0.0;
07/04/2021 21:33:39;100;0;128.72;-17;-17.54;0.53;70.7;4.40;73398;4418.093;-6321.193;1;129;-225;-229.7;33.7;33.4;7;7.7;29.0;0.0;
07/04/2021 21:33:59;100;0;128.74;-17;-17.18;0.61;74.0;4.40;73398;4418.090;-6321.187;1;129;-225;-227.7;33.7;33.4;7;7.7;29.0;0.0;
07/04/2021 21:34:19;100;0;126.97;-17;-16.30;0.57;77.3;4.40;73426;4418.087;-6321.182;1;129;-225;-229.7;34.4;34.6;4;4.1;29.0;0.0;
07/04/2021 21:34:39;100;0;127.19;-17;-17.95;-1.22;80.4;4.30;73445;4418.085;-6321.177;1;129;-225;-227.7;34.4;34.6;4;3.6;29.0;0.0;
07/04/2021 21:34:59;100;0;126.74;-17;-17.86;-1.46;83.6;4.30;73486;4418.082;-6321.172;1;129;-225;-227.7;34.4;34.6;4;3.6;29.0;0.0;
07/04/2021 21:35:19;100;0;128.21;-17;-17.53;-1.44;86.8;4.30;73523;4418.079;-6321.168;1;129;-225;-229.7;34.4;34.6;4;3.6;29.0;0.0;
07/04/2021 21:35:39;100;0;128.47;-17;-17.42;-1.39;90.0;4.30;73547;4418.076;-6321.163;1;129;-225;-231.7;34.4;34.6;4;3.6;29.0;0.0;
07/04/2021 21:35:59;100;0;129.13;-17;-17.08;-1.49;93.3;4.40;73576;4418.074;-6321.158;1;129;-225;-227.7;34.4;34.6;6;5.9;29.0;0.0;
07/04/2021 21:36:19;100;0;128.42;-17;-16.86;0.18;96.3;4.40;73608;4418.071;-6321.153;1;129;-225;-227.7;35.0;35.2;6;6.3;29.0;44.7;
07/04/2021 21:36:39;100;0;128.03;-17;-18.22;-0.03;99.5;4.40;73626;4418.068;-6321.148;1;129;-225;-229.7;35.0;35.3;6;6.3;29.0;40.8;
07/04/2021 21:36:59;100;0;128.35;-17;-18.41;0.13;102.6;4.40;73658;4418.065;-6321.143;1;129;-225;-227.7;35.0;35.5;6;6.3;29.0;36.4;
07/04/2021 21:37:19;100;0;128.80;-17;-17.35;0.05;106.0;4.40;73692;4418.062;-6321.138;1;129;-225;-229.7;35.0;35.3;6;6.3;29.0;31.8;
07/04/2021 21:37:39;100;0;126.75;-17;-16.44;0.22;108.9;4.40;73784;4418.060;-6321.133;1;129;-225;-227.7;35.6;35.9;3;3.2;29.0;24.7;
07/04/2021 21:37:59;100;0;126.57;-17;-16.91;-1.96;111.9;4.50;73845;4418.057;-6321.129;1;129;-225;-227.7;36.2;36.2;3;2.7;29.0;18.4;
07/04/2021 21:38:19;100;0;129.66;-17;-16.94;-2.04;114.8;4.50;73923;4418.055;-6321.124;1;129;-225;-229.7;36.8;37.1;7;7.2;29.0;12.9;
07/04/2021 21:38:39;118;0;128.65;-17;-17.47;1.01;117.6;4.60;74021;4418.052;-6321.120;1;129;500;-227.7;20.2;24.3;-2;-2.3;29.0;8.3;
07/04/2021 21:38:49;118;0;128.65;-17;1.27;-3.84;118.7;4.60;73977;4418.052;-6321.119;1;129;500;-150.5;20.2;19.8;-2;-2.3;29.0;-1.0;
07/04/2021 21:38:59;118;0;128.65;-17;20.06;-4.35;118.6;4.60;73755;4418.052;-6321.119;1;129;500;5.9;20.2;20.4;-2;-2.3;28.5;-1.0;
07/04/2021 21:39:09;118;0;128.65;-17;22.14;-4.25;118.2;4.70;73531;4418.051;-6321.118;1;129;500;158.4;20.2;20.6;-2;-2.3;28.5;-1.0;
07/04/2021 21:39:19;118;0;128.65;-17;19.84;-4.30;117.7;4.70;73299;4418.051;-6321.118;1;129;500;310.9;20.2;20.6;-2;-1.8;28.5;-1.0;
07/04/2021 21:39:29;118;0;128.65;-17;21.27;-4.23;116.8;4.80;73079;4418.050;-6321.116;1;129;500;457.4;20.2;20.6;-2;-2.3;28.5;-1.0;
07/04/2021 21:39:39;118;0;129.75;-17;22.50;-4.36;115.4;4.80;72947;4418.049;-6321.115;1;129;500;506.9;20.2;20.6;-2;-2.3;28.5;-1.0;
07/04/2021 21:39:59;117;0;126.34;-17;21.20;-4.57;111.8;4.90;72937;4418.047;-6321.110;1;129;500;506.9;20.2;20.6;-2;-2.3;29.0;-1.0;
07/04/2021 21:40:19;117;0;126.98;-17;20.15;-4.48;108.2;4.90;72894;4418.044;-6321.105;1;129;500;506.9;20.1;20.0;5;5.0;29.0;-1.0;
07/04/2021 21:40:39;117;0;130.84;-17;19.85;-0.46;104.7;5.00;72853;4418.041;-6321.100;1;129;500;508.9;20.0;19.8;0;0.0;29.0;-1.0;
07/04/2021 21:40:59;117;0;128.19;-17;19.38;-3.61;101.4;5.00;72795;4418.038;-6321.095;1;129;500;508.9;19.8;19.7;4;4.5;29.0;-1.0;
07/04/2021 21:41:19;117;0;129.52;-17;19.12;-0.62;98.2;5.00;72721;4418.036;-6321.090;1;129;500;506.9;19.6;19.2;2;1.8;29.0;-1.0;
07/04/2021 21:41:39;117;0;129.60;-17;19.52;-2.57;94.9;5.00;72670;4418.033;-6321.086;1;129;500;508.9;19.4;19.4;2;1.4;29.0;-1.0;
07/04/2021 21:41:59;117;0;129.81;-17;19.54;-2.59;91.6;5.00;72628;4418.030;-6321.081;1;129;500;506.9;19.2;19.2;2;1.4;29.0;-1.0;
07/04/2021 21:42:19;117;0;129.89;-17;19.34;-2.53;88.4;5.00;72588;4418.027;-6321.077;1;129;500;508.9;19.0;19.1;2;1.4;29.0;-1.0;
07/04/2021 21:42:39;117;0;129.74;-17;19.91;-2.60;85.3;5.00;72580;4418.025;-6321.073;1;129;500;508.9;18.9;18.9;2;1.4;29.0;-1.0;
07/04/2021 21:42:59;117;0;130.41;-17;19.88;-2.70;82.2;5.00;72547;4418.022;-6321.068;1;129;500;508.9;18.9;18.9;2;1.4;29.0;-1.0;
07/04/2021 21:43:19;117;0;130.98;-17;19.07;-2.59;79.2;5.00;72509;4418.020;-6321.064;1;129;500;506.9;18.6;18.3;0;0.0;29.0;-1.0;
07/04/2021 21:43:39;117;0;130.86;-17;19.73;-3.65;76.1;5.00;72473;4418.017;-6321.060;1;129;500;506.9;18.5;18.5;0;-0.5;29.0;-1.0;
07/04/2021 21:43:59;117;0;129.75;-17;19.94;-3.61;73.2;4.90;72448;4418.015;-6321.056;1;129;500;506.9;18.5;18.5;2;1.8;29.0;-1.0;
07/04/2021 21:44:19;117;0;132.91;-17;19.63;-1.88;70.3;4.90;72408;4418.012;-6321.052;1;129;500;508.9;18.4;18.2;-2;-1.8;29.0;-1.0;
07/04/2021 21:44:39;117;0;129.61;-17;20.07;-4.54;67.6;4.90;72376;4418.010;-6321.048;1;129;500;508.9;18.3;18.0;2;1.8;29.0;-1.0;
07/04/2021 21:45:00;117;0;130.19;-17;19.20;-1.87;64.8;4.80;72342;4418.008;-6321.044;1;129;500;508.9;18.1;18.2;2;2.3;29.0;-1.0;
07/04/2021 21:45:20;117;0;129.29;-17;19.17;-1.94;62.1;4.80;72327;4418.005;-6321.041;1;129;500;508.9;18.0;17.9;2;2.7;29.0;-1.0;
07/04/2021 21:45:40;117;0;128.46;-17;19.85;-1.87;59.3;4.80;72297;4418.003;-6321.037;1;129;500;506.9;17.9;17.7;2;2.7;29.0;-1.0;
07/04/2021 21:46:00;117;0;130.60;-17;19.75;-1.84;56.4;4.70;72295;4418.001;-6321.033;1;129;500;508.9;17.8;17.7;2;2.7;29.0;-1.0;
07/04/2021 21:46:20;117;0;131.34;-17;19.60;-1.98;53.6;4.70;72286;4417.998;-6321.029;1;129;500;508.9;17.8;17.7;0;0.0;29.0;-1.0;
07/04/2021 21:46:40;117;0;130.83;-17;19.48;-3.44;50.9;4.70;72272;4417.996;-6321.025;1;129;500;505.0;17.6;17.6;0;-0.5;29.0;-1.0;
07/04/2021 21:47:00;117;0;131.30;-17;19.65;-3.43;48.1;4.60;72276;4417.994;-6321.021;1;129;500;506.9;17.6;17.6;0;-0.5;29.0;-1.0;
07/04/2021 21:47:20;117;0;131.81;-17;19.66;-3.42;45.3;4.60;72266;4417.991;-6321.018;1;129;500;508.9;17.5;17.4;0;-0.5;29.0;-1.0;
07/04/2021 21:47:40;117;0;130.72;-17;19.74;-3.38;42.6;4.60;72259;4417.989;-6321.014;1;129;500;508.9;17.5;17.4;0;-0.5;29.0;-1.0;
07/04/2021 21:48:00;117;0;130.18;-17;19.74;-3.39;40.0;4.50;72252;4417.987;-6321.010;1;129;500;508.9;17.4;17.4;0;-0.5;29.0;-1.0;
07/04/2021 21:48:20;117;0;129.96;-17;19.78;-3.34;37.3;4.50;72250;4417.985;-6321.007;1;129;500;506.9;17.4;17.6;0;-0.5;29.0;-1.0;
07/04/2021 21:48:40;117;0;129.96;-17;19.52;-3.38;34.7;4.50;72231;4417.982;-6321.003;1;129;500;508.9;17.3;17.3;0;-0.5;29.0;-1.0;
07/04/2021 21:49:00;117;0;127.61;-17;20.10;-3.67;32.0;4.50;72240;4417.980;-6320.999;1;129;500;508.9;17.4;17.6;4;4.5;29.0;-1.0;
07/04/2021 21:49:20;117;0;129.92;-17;19.56;-0.51;29.3;4.50;72230;4417.978;-6320.996;1;129;500;506.9;17.3;17.3;1;0.9;29.0;-1.0;
07/04/2021 21:49:40;117;0;127.83;-17;19.29;-3.13;26.7;4.40;72215;4417.976;-6320.992;1;129;500;506.9;17.2;17.3;4;4.1;29.0;-1.0;
07/04/2021 21:50:00;117;0;127.93;-17;19.26;-0.84;24.2;4.40;72205;4417.974;-6320.988;1;129;500;506.9;17.1;17.1;4;4.1;29.0;-1.0;
07/04/2021 21:50:20;117;0;127.27;-17;19.28;-0.80;21.6;4.40;72206;4417.972;-6320.984;1;129;500;508.9;17.0;17.0;4;4.5;29.0;-1.0;
07/04/2021 21:50:40;117;0;126.64;-17;19.85;-0.84;18.9;4.40;72198;4417.970;-6320.980;1;129;500;508.9;17.0;16.8;4;4.5;29.0;-1.0;
07/04/2021 21:51:00;117;0;126.29;-17;19.87;-0.53;16.2;4.30;72200;4417.968;-6320.976;1;129;500;508.9;17.1;16.8;6;5.9;29.0;-1.0;
07/04/2021 21:51:20;117;0;127.28;-17;19.67;-0.03;13.4;4.30;72193;4417.966;-6320.972;1;129;500;508.9;17.1;16.8;6;6.3;29.0;-1.0;
07/04/2021 21:51:40;117;0;126.97;-17;19.49;-0.01;10.6;4.30;72190;4417.963;-6320.968;1;129;500;506.9;17.0;16.8;6;6.3;29.0;-1.0;
