Timestamp;NavState;SecurityLevel;Heading;Declination;Pitch;Roll;Depth;Temperature;Pa;Lat;Lon;DeadReckoning;DesiredH;BallastCmd;BallastPos;LinCmd;LinPos;AngCmd;AngPos;Voltage;Altitude;
07/04/2021 19:40:15;117;0;137.64;-17;17.13;-0.93;8.3;3.30;72142;4419.850;-6319.248;1;136;500;508.9;18.2;18.0;1;0.9;29.0;-1.0;
07/04/2021 19:40:35;110;0;137.52;-17;16.63;-3.26;5.9;3.30;72146;4419.847;-6319.244;1;136;-225;481.2;32.8;31.4;1;0.5;29.0;-1.0;
07/04/2021 19:40:45;110;0;139.43;-17;-1.07;-2.85;5.0;3.30;72524;4419.847;-6319.244;1;136;-225;259.4;32.8;33.2;1;0.5;28.9;-1.0;
07/04/2021 19:40:55;110;0;140.85;-17;-14.01;-3.17;5.3;3.30;72886;4419.846;-6319.244;1;136;-225;35.6;32.8;33.8;1;0.5;28.9;-1.0;
07/04/2021 19:41:05;110;0;139.81;-17;-15.85;-3.23;6.3;3.30;73287;4419.845;-6319.242;1;136;-225;-196.0;32.8;33.7;1;0.5;28.9;-1.0;
07/04/2021 19:41:15;110;0;139.26;-17;-18.50;-2.99;7.7;3.30;73406;4419.844;-6319.241;1;136;-225;-229.7;32.8;33.8;1;0.5;28.9;-1.0;
07/04/2021 19:41:35;100;0;142.73;-17;-20.46;-3.36;11.3;3.30;73397;4419.840;-6319.237;1;136;-225;-229.7;32.4;32.3;1;0.5;29.0;-1.0;
07/04/2021 19:41:55;100;0;145.14;-17;-17.92;-3.18;15.2;3.30;73397;4419.836;-6319.232;1;136;-225;-229.7;32.4;32.2;17;17.1;29.0;0.0;
07/04/2021 19:42:15;100;0;145.08;-17;-17.04;5.87;18.6;3.30;73388;4419.832;-6319.228;1;136;-225;-229.7;32.4;32.2;17;17.6;29.0;0.0;
07/04/2021 19:42:35;100;0;141.01;-17;-16.78;5.87;22.1;3.30;73391;4419.828;-6319.224;1;136;-225;-229.7;32.8;33.1;12;11.7;29.0;0.0;
07/04/2021 19:42:55;100;0;139.31;-17;-18.08;2.51;25.6;3.30;73379;4419.824;-6319.220;1;136;-225;-229.7;32.8;32.9;10;9.9;29.0;0.0;
07/04/2021 19:43:15;100;0;137.25;-17;-18.39;1.56;29.4;3.30;73386;4419.820;-6319.215;1;136;-225;-231.7;32.8;32.9;8;8.1;29.0;0.0;
07/04/2021 19:43:35;100;0;135.82;-17;-18.43;0.60;33.1;3.30;73397;4419.817;-6319.210;1;136;-225;-229.7;32.8;33.1;6;5.9;29.0;0.0;
07/04/2021 19:43:55;100;0;136.38;-17;-18.40;-0.78;36.9;3.30;73406;4419.813;-6319.205;1;136;-225;-229.7;32.8;33.1;6;5.4;29.0;0.0;
07/04/2021 19:44:15;100;0;133.74;-17;-17.64;-0.58;40.6;3.30;73411;4419.810;-6319.200;1;136;-225;-231.7;32.8;32.9;3;3.2;29.0;0.0;
07/04/2021 19:44:35;100;0;134.01;-17;-17.73;-1.96;44.2;3.30;73439;4419.806;-6319.195;1;136;-225;-229.7;32.8;33.1;3;2.7;29.0;0.0;
07/04/2021 19:44:55;100;0;136.66;-17;-17.63;-1.92;47.6;3.30;73438;4419.803;-6319.190;1;136;-225;-229.7;32.8;33.1;7;7.2;29.0;0.0;
07/04/2021 19:45:15;100;0;137.53;-17;-17.52;0.62;51.2;3.30;73448;4419.799;-6319.185;1;136;-225;-229.7;32.8;32.9;7;7.7;29.0;0.0;
07/04/2021 19:45:35;100;0;133.98;-17;-17.17;0.65;54.7;3.30;73447;4419.796;-6319.180;1;136;-225;-229.7;32.8;33.1;4;4.1;29.0;0.0;
07/04/2021 19:45:55;100;0;135.49;-17;-17.04;-1.45;58.1;3.30;73437;4419.792;-6319.176;1;136;-225;-229.7;32.8;33.1;6;5.9;29.0;0.0;
07/04/2021 19:46:15;100;0;135.83;-17;-16.88;0.07;61.5;3.30;73422;4419.789;-6319.171;1;136;-225;-229.7;33.2;33.2;6;6.8;29.0;42.9;
07/04/2021 19:46:35;100;0;136.53;-17;-17.87;0.05;64.8;3.30;73414;4419.785;-6319.167;1;136;-225;-229.7;33.2;33.5;6;6.8;29.0;39.8;
07/04/2021 19:46:55;100;0;139.20;-17;-18.28;-0.13;68.3;3.30;73403;4419.782;-6319.162;1;136;-225;-229.7;33.2;33.4;10;9.9;29.0;36.5;
07/04/2021 19:47:15;100;0;141.16;-17;-17.56;1.90;71.8;3.30;73387;4419.778;-6319.158;1;136;-225;-229.7;33.2;33.5;12;12.2;29.0;33.0;
07/04/2021 19:47:35;100;0;138.61;-17;-16.76;3.36;75.2;3.30;73404;4419.774;-6319.154;1;136;-225;-229.7;33.7;34.1;9;9.0;29.0;29.9;
07/04/2021 19:47:55;100;0;134.35;-17;-17.37;1.09;78.4;3.30;73419;4419.771;-6319.149;1;136;-225;-229.7;33.7;34.0;4;4.1;29.0;26.9;
07/04/2021 19:48:15;100;0;132.79;-17;-17.21;-1.35;81.6;3.30;73458;4419.768;-6319.144;1;136;-225;-229.7;33.7;34.0;2;1.8;29.0;23.7;
07/04/2021 19:48:35;100;0;134.26;-17;-16.92;-2.55;84.8;3.30;73481;4419.765;-6319.140;1;136;-225;-229.7;34.1;34.1;4;4.1;29.0;20.6;
07/04/2021 19:48:55;100;0;133.05;-17;-17.01;-0.74;88.0;3.30;73509;4419.762;-6319.135;1;136;-225;-231.7;34.1;34.1;4;5.0;29.0;17.4;
07/04/2021 19:49:15;100;0;132.70;-17;-16.61;-0.74;91.1;3.30;73539;4419.759;-6319.131;1;136;-225;-231.7;34.6;34.7;2;1.8;29.0;14.2;
07/04/2021 19:49:35;118;0;134.29;-17;-17.52;-2.71;94.2;3.30;73563;4419.756;-6319.126;1;136;500;-231.7;18.9;21.6;-2;-2.3;29.0;11.0;
07/04/2021 19:49:45;118;0;134.29;-17;-0.59;-4.29;95.3;3.30;73501;4419.755;-6319.126;1;136;500;-164.4;18.9;18.6;-2;-2.3;29.0;-1.0;
07/04/2021 19:49:55;118;0;134.29;-17;15.41;-4.31;95.3;3.30;73244;4419.755;-6319.126;1;136;500;-13.9;18.9;18.9;-2;-2.3;28.6;-1.0;
07/04/2021 19:50:05;118;0;134.29;-17;21.00;-4.38;95.0;3.40;73000;4419.755;-6319.125;1;136;500;138.6;18.9;19.1;-2;-1.8;28.6;-1.0;
07/04/2021 19:50:15;118;0;134.29;-17;18.66;-4.37;94.7;3.40;72754;4419.755;-6319.125;1;136;500;291.1;18.9;18.9;-2;-2.3;28.6;-1.0;
07/04/2021 19:50:25;118;0;134.29;-17;17.52;-4.36;94.1;3.40;72513;4419.754;-6319.124;1;136;500;437.6;18.9;19.1;-2;-2.3;28.6;-1.0;
07/04/2021 19:50:35;118;0;134.29;-17;18.71;-4.45;93.2;3.40;72359;4419.753;-6319.123;1;136;500;505.0;18.9;18.9;-2;-2.3;28.6;-1.0;
07/04/2021 19:50:55;117;0;131.98;-17;20.72;-4.70;90.4;3.40;72374;4419.751;-6319.119;1;136;500;505.0;19.6;19.7;-2;-2.3;29.0;-1.0;
07/04/2021 19:51:15;117;0;132.94;-17;18.42;-4.42;87.5;3.50;72369;4419.749;-6319.115;1;136;500;505.0;19.6;19.8;7;7.2;29.0;-1.0;
07/04/2021 19:51:35;117;0;139.57;-17;17.95;1.05;84.7;3.50;72355;4419.746;-6319.112;1;136;500;505.0;19.6;19.8;-1;-0.9;29.0;-1.0;
07/04/2021 19:51:55;117;0;136.31;-17;17.42;-3.95;82.2;3.50;72345;4419.743;-6319.108;1;136;500;505.0;19.6;19.8;3;3.6;29.0;-1.0;
07/04/2021 19:52:15;117;0;140.20;-17;17.36;-0.91;79.6;3.50;72333;4419.740;-6319.105;1;136;500;505.0;19.6;19.7;-2;-1.8;29.0;-1.0;
07/04/2021 19:52:35;117;0;138.07;-17;17.15;-4.49;77.0;3.50;72301;4419.737;-6319.102;1;136;500;506.9;19.6;19.8;0;0.0;29.0;-1.0;
07/04/2021 19:52:55;117;0;140.34;-17;17.06;-2.81;74.6;3.50;72281;4419.735;-6319.099;1;136;500;506.9;19.6;19.8;-2;-1.8;29.0;-1.0;
07/04/2021 19:53:15;117;0;138.75;-17;16.59;-4.27;72.2;3.50;72265;4419.732;-6319.095;1;136;500;503.0;18.8;18.6;-2;-2.3;29.0;-1.0;
07/04/2021 19:53:35;117;0;135.86;-17;18.49;-4.50;69.5;3.50;72228;4419.730;-6319.092;1;136;500;506.9;18.8;18.3;3;3.2;29.0;-1.0;
07/04/2021 19:53:55;117;0;135.49;-17;18.77;-1.27;67.2;3.50;72203;4419.727;-6319.089;1;136;500;506.9;18.8;18.5;3;4.1;29.0;-1.0;
07/04/2021 19:54:15;117;0;132.85;-17;18.38;-1.15;64.8;3.50;72193;4419.725;-6319.086;1;136;500;505.0;18.8;18.5;7;7.2;29.0;-1.0;
07/04/2021 19:54:35;117;0;134.81;-17;17.76;0.97;62.3;3.50;72196;4419.723;-6319.082;1;136;500;505.0;18.8;18.3;4;4.1;29.0;-1.0;
07/04/2021 19:54:55;117;0;135.31;-17;17.83;-1.20;59.8;3.40;72190;4419.720;-6319.079;1;136;500;505.0;18.8;18.3;4;4.1;29.0;-1.0;
07/04/2021 19:55:15;117;0;135.90;-17;17.90;-1.21;57.4;3.40;72190;4419.718;-6319.076;1;136;500;506.9;18.8;18.3;4;3.6;29.0;-1.0;
07/04/2021 19:55:35;117;0;135.38;-17;18.10;-1.33;54.9;3.40;72186;4419.715;-6319.072;1;136;500;505.0;18.8;18.5;4;3.6;29.0;-1.0;
07/04/2021 19:55:55;117;0;135.82;-17;17.63;-1.28;52.4;3.40;72194;4419.713;-6319.069;1;136;500;506.9;18.8;18.3;4;3.6;29.0;-1.0;
07/04/2021 19:56:15;117;0;138.60;-17;17.97;-1.23;50.1;3.40;72190;4419.711;-6319.066;1;136;500;506.9;18.8;18.3;0;0.0;29.0;-1.0;
07/04/2021 19:56:36;117;0;134.93;-17;17.87;-3.57;47.7;3.40;72206;4419.708;-6319.063;1;136;500;506.9;18.8;18.5;4;4.5;29.0;-1.0;
07/04/2021 19:56:56;117;0;136.90;-17;17.76;-0.50;45.2;3.40;72215;4419.706;-6319.059;1;136;500;506.9;18.8;18.3;2;1.8;29.0;-1.0;
07/04/2021 19:57:16;117;0;137.03;-17;17.48;-2.42;42.7;3.40;72206;4419.703;-6319.056;1;136;500;505.0;18.8;18.3;2;1.4;29.0;-1.0;
07/04/2021 19:57:36;117;0;135.99;-17;17.55;-2.53;40.3;3.40;72204;4419.701;-6319.053;1;136;500;506.9;18.8;18.3;2;1.4;29.0;-1.0;
07/04/2021 19:57:56;117;0;136.38;-17;17.73;-2.48;37.8;3.40;72211;4419.698;-6319.049;1;136;500;506.9;18.8;18.3;2;1.4;29.0;-1.0;
07/04/2021 19:58:16;117;0;138.07;-17;17.04;-2.52;35.3;3.40;72204;4419.696;-6319.046;1;136;500;506.9;18.8;18.3;0;0.0;29.0;-1.0;
07/04/2021 19:58:36;117;0;136.05;-17;17.13;-3.47;32.9;3.40;72204;4419.693;-6319.043;1;136;500;505.0;18.8;18.3;3;3.2;29.0;-1.0;
07/04/2021 19:58:56;117;0;136.76;-17;17.26;-1.14;30.6;3.40;72190;4419.691;-6319.040;1;136;500;505.0;18.8;18.3;3;4.1;29.0;-1.0;
07/04/2021 19:59:16;117;0;138.08;-17;17.09;-1.08;28.3;3.40;72187;4419.688;-6319.037;1;136;500;506.9;18.8;18.3;0;0.0;29.0;-1.0;
07/04/2021 19:59:36;117;0;136.32;-17;17.00;-3.61;26.0;3.40;72185;4419.686;-6319.033;1;136;500;505.0;18.1;18.0;2;2.3;29.0;-1.0;
07/04/2021 19:59:56;117;0;137.36;-17;17.85;-1.60;23.7;3.40;72177;4419.684;-6319.031;1;136;500;506.9;18.1;18.0;2;2.7;29.0;-1.0;
07/04/2021 20:00:16;117;0;136.76;-17;17.58;-1.79;21.3;3.40;72164;4419.681;-6319.027;1;136;500;506.9;18.1;18.0;2;2.7;29.0;-1.0;
07/04/2021 20:00:36;117;0;134.17;-17;17.52;-1.65;18.8;3.40;72161;4419.679;-6319.024;1;136;500;506.9;18.1;18.0;5;5.0;29.0;-1.0;
07/04/2021 20:00:56;117;0;135.60;-17;17.46;-0.08;16.4;3.30;72142;4419.676;-6319.021;1;136;500;505.0;18.1;17.9;3;3.2;29.0;-1.0;
07/04/2021 20:01:16;117;0;133.82;-17;17.31;-2.03;13.9;3.30;72142;4419.674;-6319.017;1;136;500;506.9;18.1;17.9;5;5.4;29.0;-1.0;
07/04/2021 20:01:36;117;0;136.08;-17;17.44;-0.10;11.5;3.30;72135;4419.672;-6319.014;1;136;500;505.0;18.1;18.0;3;3.2;29.0;-1.0;
