Timestamp;NavState;SecurityLevel;Heading;Declination;Pitch;Roll;Depth;Temperature;Pa;Lat;Lon;DeadReckoning;DesiredH;BallastCmd;BallastPos;LinCmd;LinPos;AngCmd;AngPos;Voltage;Altitude;
07/04/2021 19:18:04;117;0;137.29;-17;17.43;-0.66;9.2;3.30;72163;4420.036;-6319.494;1;136;500;506.9;18.0;17.7;1;0.9;29.0;-1.0;
07/04/2021 19:18:24;110;0;135.22;-17;18.65;-2.70;6.7;3.30;72161;4420.033;-6319.491;1;136;-225;477.2;32.7;31.3;1;0.5;29.0;-1.0;
07/04/2021 19:18:34;110;0;138.40;-17;-0.13;-3.03;5.7;3.30;72570;4420.033;-6319.490;1;136;-225;192.1;32.7;33.2;1;0.5;28.9;-1.0;
07/04/2021 19:18:44;110;0;139.71;-17;-13.47;-2.94;6.2;3.30;72969;4420.032;-6319.490;1;136;-225;-0.0;32.7;33.7;1;0.5;29.0;-1.0;
07/04/2021 19:18:54;110;0;137.92;-17;-16.26;-2.99;7.2;3.30;73389;4420.031;-6319.488;1;136;-225;-225.7;32.7;33.7;1;0.5;29.0;-1.0;
07/04/2021 19:19:04;110;0;138.35;-17;-19.23;-2.90;8.7;3.30;73414;4420.030;-6319.487;1;136;-225;-229.7;32.7;33.8;1;0.9;29.0;-1.0;
07/04/2021 19:19:24;100;0;139.98;-17;-20.42;-2.99;12.4;3.30;73416;4420.026;-6319.482;1;136;-225;-229.7;32.7;33.8;1;0.9;29.0;-1.0;
07/04/2021 19:19:44;100;0;143.10;-17;-20.35;-3.12;16.4;3.30;73411;4420.022;-6319.478;1;136;-225;-229.7;32.4;32.0;14;14.0;29.0;0.0;
07/04/2021 19:20:04;100;0;143.31;-17;-17.52;4.12;20.2;3.20;73396;4420.018;-6319.474;1;136;-225;-229.7;32.4;32.0;14;14.4;29.0;0.0;
07/04/2021 19:20:24;100;0;142.28;-17;-17.18;4.12;23.7;3.30;73400;4420.014;-6319.469;1;136;-225;-231.7;32.4;32.0;14;14.4;29.0;0.0;
07/04/2021 19:20:44;100;0;140.27;-17;-16.80;4.22;27.2;3.20;73394;4420.010;-6319.465;1;136;-225;-229.7;32.8;32.9;11;10.8;29.0;0.0;
07/04/2021 19:21:04;100;0;137.24;-17;-17.85;2.04;30.6;3.30;73411;4420.007;-6319.460;1;136;-225;-231.7;32.8;32.9;7;7.2;29.0;0.0;
07/04/2021 19:21:24;100;0;136.18;-17;-18.14;0.01;34.4;3.30;73420;4420.003;-6319.455;1;136;-225;-233.7;32.8;32.9;7;6.8;29.0;0.0;
07/04/2021 19:21:44;100;0;135.36;-17;-18.02;0.19;38.1;3.20;73418;4419.999;-6319.450;1;136;-225;-229.7;32.8;32.9;5;4.5;29.0;0.0;
07/04/2021 19:22:04;100;0;133.05;-17;-17.96;-1.27;41.5;3.20;73421;4419.996;-6319.446;1;136;-225;-231.7;32.8;32.9;2;1.8;29.0;0.0;
07/04/2021 19:22:24;100;0;135.26;-17;-17.68;-2.92;45.2;3.30;73443;4419.992;-6319.441;1;136;-225;-229.7;32.8;32.9;5;5.4;29.0;0.0;
07/04/2021 19:22:44;100;0;136.77;-17;-17.35;-0.30;48.7;3.30;73461;4419.989;-6319.436;1;136;-225;-231.7;32.8;32.9;7;7.2;29.0;0.0;
07/04/2021 19:23:04;100;0;137.50;-17;-17.28;0.54;52.3;3.30;73465;4419.985;-6319.431;1;136;-225;-229.7;32.8;33.1;7;7.7;29.0;0.0;
07/04/2021 19:23:25;100;0;136.63;-17;-16.96;0.66;55.9;3.30;73459;4419.981;-6319.426;1;136;-225;-231.7;33.1;33.1;7;7.7;29.0;0.0;
07/04/2021 19:23:45;100;0;136.59;-17;-16.94;0.55;59.3;3.30;73456;4419.978;-6319.421;1;136;-225;-229.7;33.5;33.7;7;7.7;29.0;0.0;
07/04/2021 19:24:05;100;0;137.74;-17;-18.44;0.57;62.8;3.30;73448;4419.974;-6319.417;1;136;-225;-229.7;33.5;34.0;7;7.7;29.0;44.2;
07/04/2021 19:24:25;100;0;138.91;-17;-18.73;0.37;66.5;3.30;73440;4419.971;-6319.412;1;136;-225;-231.7;33.5;33.8;10;10.4;29.0;39.9;
07/04/2021 19:24:45;100;0;139.97;-17;-18.37;2.17;70.2;3.30;73419;4419.967;-6319.408;1;136;-225;-231.7;33.5;33.8;10;10.8;29.0;36.2;
07/04/2021 19:25:05;100;0;136.78;-17;-17.99;2.19;73.6;3.30;73417;4419.963;-6319.403;1;136;-225;-229.7;33.5;33.8;7;7.2;29.0;32.5;
07/04/2021 19:25:25;100;0;135.44;-17;-17.21;0.27;77.2;3.30;73443;4419.960;-6319.398;1;136;-225;-229.7;33.5;33.8;5;5.0;29.0;29.0;
07/04/2021 19:25:45;100;0;134.67;-17;-16.93;-1.06;80.5;3.20;73468;4419.956;-6319.394;1;136;-225;-229.7;33.9;34.1;5;4.1;29.0;25.9;
07/04/2021 19:26:05;100;0;135.51;-17;-17.59;-1.21;83.8;3.30;73498;4419.953;-6319.389;1;136;-225;-229.7;33.9;34.3;5;4.1;29.0;22.6;
07/04/2021 19:26:25;100;0;135.58;-17;-17.67;-1.16;87.2;3.30;73509;4419.950;-6319.385;1;136;-225;-229.7;33.9;34.3;5;4.1;29.0;18.9;
07/04/2021 19:26:45;100;0;133.84;-17;-17.14;-1.01;90.7;3.30;73544;4419.946;-6319.380;1;136;-225;-231.7;33.9;34.3;3;3.2;29.0;15.3;
07/04/2021 19:27:05;100;0;133.49;-17;-16.83;-1.96;93.8;3.30;73571;4419.943;-6319.375;1;136;-225;-229.7;34.4;34.3;3;2.7;29.0;11.8;
07/04/2021 19:27:25;118;0;134.51;-17;-16.28;-2.10;97.1;3.30;73607;4419.940;-6319.370;1;136;500;-229.7;18.8;21.0;-2;-2.3;29.0;8.4;
07/04/2021 19:27:35;118;0;134.51;-17;1.19;-4.42;98.2;3.30;73545;4419.939;-6319.370;1;136;500;-168.3;18.8;18.5;-2;-2.7;29.0;-1.0;
07/04/2021 19:27:45;118;0;134.51;-17;17.92;-4.48;98.1;3.30;73302;4419.939;-6319.370;1;136;500;-17.8;18.8;18.8;-2;-2.7;28.6;-1.0;
07/04/2021 19:27:55;118;0;134.51;-17;22.42;-4.67;97.8;3.30;73065;4419.939;-6319.369;1;136;500;138.6;18.8;18.8;-2;-2.3;28.6;-1.0;
07/04/2021 19:28:05;118;0;134.51;-17;19.75;-4.55;97.6;3.40;72836;4419.939;-6319.369;1;136;500;287.1;18.8;18.8;-2;-2.3;28.6;-1.0;
07/04/2021 19:28:15;118;0;134.51;-17;18.49;-4.81;97.0;3.40;72590;4419.938;-6319.368;1;136;500;435.6;18.8;18.8;-2;-2.7;28.6;-1.0;
07/04/2021 19:28:25;118;0;134.51;-17;19.82;-4.77;96.0;3.40;72421;4419.937;-6319.367;1;136;500;503.0;18.8;18.8;-2;-2.3;28.6;-1.0;
07/04/2021 19:28:35;118;0;129.26;-17;21.48;-4.71;94.7;3.40;72431;4419.936;-6319.365;1;136;500;505.0;18.8;18.8;-2;-2.3;29.0;-1.0;
07/04/2021 19:28:55;117;0;129.32;-17;20.95;-4.72;91.6;3.50;72428;4419.934;-6319.361;1;136;500;506.9;19.6;19.7;-2;-2.3;29.0;-1.0;
07/04/2021 19:29:15;117;0;130.98;-17;18.03;-4.50;88.6;3.50;72413;4419.931;-6319.357;1;136;500;506.9;19.6;19.8;9;9.0;29.0;-1.0;
07/04/2021 19:29:35;117;0;136.78;-17;17.45;2.07;85.9;3.50;72384;4419.928;-6319.353;1;136;500;506.9;19.6;19.8;2;1.8;29.0;-1.0;
07/04/2021 19:29:55;117;0;135.20;-17;17.34;-2.41;83.2;3.50;72380;4419.926;-6319.349;1;136;500;506.9;19.6;19.8;4;4.5;29.0;-1.0;
07/04/2021 19:30:15;117;0;136.82;-17;17.25;-0.40;80.6;3.50;72358;4419.923;-6319.346;1;136;500;506.9;19.6;19.8;2;1.4;29.0;-1.0;
07/04/2021 19:30:35;117;0;136.41;-17;17.42;-2.65;78.1;3.50;72356;4419.921;-6319.342;1;136;500;506.9;19.6;19.8;2;0.9;29.0;-1.0;
07/04/2021 19:30:55;117;0;137.93;-17;17.01;-2.68;75.5;3.60;72339;4419.918;-6319.339;1;136;500;506.9;19.6;19.8;2;0.9;29.0;-1.0;
07/04/2021 19:31:15;117;0;139.21;-17;16.88;-2.61;73.0;3.50;72302;4419.915;-6319.336;1;136;500;506.9;18.9;18.9;-1;-1.4;29.0;-1.0;
07/04/2021 19:31:35;117;0;136.07;-17;18.38;-4.15;70.5;3.50;72276;4419.913;-6319.332;1;136;500;506.9;18.9;18.6;3;3.6;29.0;-1.0;
07/04/2021 19:31:55;117;0;135.46;-17;17.91;-1.08;67.9;3.50;72232;4419.910;-6319.329;1;136;500;508.9;18.9;18.8;3;4.1;29.0;-1.0;
07/04/2021 19:32:15;117;0;134.16;-17;17.62;-1.20;65.3;3.50;72216;4419.908;-6319.325;1;136;500;505.0;18.9;18.8;5;5.4;29.0;-1.0;
07/04/2021 19:32:35;117;0;133.42;-17;17.28;-0.18;62.9;3.50;72213;4419.905;-6319.322;1;136;500;506.9;18.9;18.6;5;5.9;29.0;-1.0;
07/04/2021 19:32:55;117;0;133.57;-17;17.36;-0.22;60.5;3.50;72206;4419.903;-6319.318;1;136;500;506.9;18.9;18.6;5;5.9;29.0;-1.0;
07/04/2021 19:33:15;117;0;134.23;-17;17.33;-0.15;57.9;3.50;72196;4419.900;-6319.315;1;136;500;506.9;18.9;18.6;5;5.9;29.0;-1.0;
07/04/2021 19:33:35;117;0;134.66;-17;17.20;-0.11;55.5;3.50;72202;4419.898;-6319.311;1;136;500;506.9;18.9;18.6;5;5.9;29.0;-1.0;
07/04/2021 19:33:55;117;0;135.11;-17;17.23;-0.11;53.1;3.40;72191;4419.896;-6319.308;1;136;500;506.9;18.9;18.6;5;5.9;29.0;-1.0;
07/04/2021 19:34:15;117;0;138.06;-17;17.47;0.07;50.9;3.40;72196;4419.893;-6319.305;1;136;500;506.9;18.9;18.6;1;0.9;29.0;-1.0;
07/04/2021 19:34:35;117;0;137.58;-17;17.08;-3.04;48.5;3.40;72212;4419.891;-6319.302;1;136;500;506.9;18.9;18.6;1;0.5;29.0;-1.0;
07/04/2021 19:34:55;117;0;134.58;-17;17.08;-3.12;46.3;3.40;72215;4419.888;-6319.299;1;136;500;506.9;18.9;18.6;5;5.4;29.0;-1.0;
07/04/2021 19:35:15;117;0;136.01;-17;17.02;-0.10;44.0;3.40;72229;4419.886;-6319.295;1;136;500;506.9;18.9;18.6;3;2.7;29.0;-1.0;
07/04/2021 19:35:35;117;0;135.29;-17;17.00;-2.06;41.8;3.40;72221;4419.884;-6319.292;1;136;500;506.9;18.2;18.2;3;2.3;29.0;-1.0;
07/04/2021 19:35:55;117;0;137.61;-17;18.40;-1.88;39.4;3.40;72221;4419.881;-6319.289;1;136;500;506.9;18.2;18.0;1;0.9;29.0;-1.0;
07/04/2021 19:36:15;117;0;139.77;-17;18.01;-2.91;36.9;3.40;72217;4419.879;-6319.286;1;136;500;506.9;18.2;18.0;-2;-1.8;29.0;-1.0;
07/04/2021 19:36:35;117;0;136.76;-17;17.87;-4.65;34.5;3.40;72200;4419.876;-6319.283;1;136;500;506.9;18.2;18.0;2;1.8;29.0;-1.0;
07/04/2021 19:36:55;117;0;137.94;-17;17.85;-1.86;32.2;3.40;72201;4419.874;-6319.280;1;136;500;506.9;18.2;18.0;2;2.3;29.0;-1.0;
07/04/2021 19:37:15;117;0;137.99;-17;17.80;-1.89;29.7;3.40;72196;4419.872;-6319.277;1;136;500;506.9;18.2;18.0;2;2.7;29.1;-1.0;
07/04/2021 19:37:35;117;0;138.94;-17;17.67;-1.90;27.3;3.40;72189;4419.869;-6319.274;1;136;500;506.9;18.2;18.0;-1;-0.9;29.0;-1.0;
07/04/2021 19:37:55;117;0;136.56;-17;17.53;-4.20;25.0;3.40;72175;4419.867;-6319.271;1;136;500;506.9;18.2;18.0;2;2.3;29.0;-1.0;
07/04/2021 19:38:15;117;0;135.39;-17;17.49;-1.93;22.6;3.40;72165;4419.864;-6319.267;1;136;500;508.9;18.2;18.0;4;4.1;29.0;-1.0;
07/04/2021 19:38:35;117;0;135.51;-17;17.44;-0.82;20.3;3.40;72166;4419.862;-6319.264;1;136;500;506.9;18.2;17.9;4;4.5;29.0;-1.0;
07/04/2021 19:38:55;117;0;136.07;-17;17.24;-0.94;17.9;3.40;72144;4419.860;-6319.261;1;136;500;506.9;18.2;18.0;4;4.5;29.0;-1.0;
07/04/2021 19:39:15;117;0;135.77;-17;17.33;-0.92;15.6;3.30;72142;4419.857;-6319.258;1;136;500;508.9;18.2;18.0;4;4.5;29.0;-1.0;
07/04/2021 19:39:35;117;0;136.17;-17;17.22;-0.95;13.2;3.30;72142;4419.855;-6319.254;1;136;500;506.9;18.2;18.0;4;4.5;29.0;-1.0;
07/04/2021 19:39:55;117;0;135.09;-17;17.46;-1.00;10.7;3.30;72142;4419.852;-6319.251;1;136;500;506.9;18.2;17.9;4;4.5;29.0;-1.0;
