Timestamp;NavState;SecurityLevel;Heading;Declination;Pitch;Roll;Depth;Temperature;Pa;Lat;Lon;DeadReckoning;DesiredH;BallastCmd;BallastPos;LinCmd;LinPos;AngCmd;AngPos;Voltage;Altitude;
07/04/2021 18:57:34;117;0;137.08;-17;18.45;-5.44;8.7;3.30;72170;4420.207;-6319.720;1;136;500;505.0;17.2;17.1;1;1.4;29.0;-1.0;
07/04/2021 18:57:54;110;0;138.36;-17;19.14;-2.32;6.1;3.30;72173;4420.204;-6319.716;1;136;-225;479.2;32.5;30.7;1;1.8;29.0;-1.0;
07/04/2021 18:58:04;110;0;142.09;-17;0.30;-2.61;5.2;3.30;72567;4420.204;-6319.716;1;136;-225;253.5;32.5;32.9;1;1.8;29.0;-1.0;
07/04/2021 18:58:14;110;0;141.25;-17;-13.20;-2.51;5.5;3.20;72945;4420.203;-6319.716;1;136;-225;27.7;32.5;33.4;1;1.8;28.9;-1.0;
07/04/2021 18:58:24;110;0;142.43;-17;-16.34;-2.29;6.4;3.20;73347;4420.202;-6319.715;1;136;-225;-205.9;32.5;33.7;1;1.8;29.0;-1.0;
07/04/2021 18:58:34;110;0;142.17;-17;-18.89;-2.13;8.0;3.30;73454;4420.201;-6319.713;1;136;-225;-229.7;32.5;33.7;1;1.8;28.9;-1.0;
07/04/2021 18:58:54;100;0;142.79;-17;-20.45;-2.36;11.6;3.20;73436;4420.197;-6319.709;1;136;-225;-229.7;32.2;32.0;1;1.8;29.0;-1.0;
07/04/2021 18:59:14;100;0;143.95;-17;-18.03;-2.34;15.5;3.20;73424;4420.193;-6319.704;1;136;-225;-231.7;32.2;31.9;15;15.3;29.0;0.0;
07/04/2021 18:59:34;100;0;142.42;-17;-16.55;4.94;19.0;3.30;73433;4420.189;-6319.700;1;136;-225;-229.7;32.7;32.8;13;13.1;29.0;0.0;
07/04/2021 18:59:54;100;0;140.46;-17;-17.96;3.11;22.4;3.20;73418;4420.185;-6319.696;1;136;-225;-229.7;32.7;32.8;11;10.8;29.0;0.0;
07/04/2021 19:00:14;100;0;139.92;-17;-18.22;2.16;26.1;3.20;73423;4420.181;-6319.691;1;136;-225;-229.7;32.7;32.8;11;10.8;29.0;0.0;
07/04/2021 19:00:34;100;0;137.14;-17;-17.99;2.19;29.9;3.20;73424;4420.178;-6319.687;1;136;-225;-229.7;32.7;32.8;7;6.8;29.0;0.0;
07/04/2021 19:00:54;100;0;136.34;-17;-17.90;-0.10;33.5;3.20;73421;4420.174;-6319.682;1;136;-225;-229.7;32.7;32.8;7;6.3;29.0;0.0;
07/04/2021 19:01:14;100;0;136.16;-17;-17.85;-0.09;37.1;3.20;73434;4420.170;-6319.677;1;136;-225;-229.7;32.7;32.8;7;6.3;29.0;0.0;
07/04/2021 19:01:34;100;0;133.93;-17;-17.57;-0.02;40.7;3.20;73442;4420.167;-6319.672;1;136;-225;-231.7;32.7;32.8;3;3.2;29.0;0.0;
07/04/2021 19:01:54;100;0;133.00;-17;-17.31;-2.11;44.2;3.20;73447;4420.164;-6319.667;1;136;-225;-231.7;32.7;32.8;3;2.7;29.0;0.0;
07/04/2021 19:02:14;100;0;135.08;-17;-17.19;-2.12;47.8;3.20;73466;4420.160;-6319.662;1;136;-225;-229.7;32.7;32.8;3;2.3;29.0;0.0;
07/04/2021 19:02:34;100;0;137.51;-17;-16.91;-2.20;51.4;3.20;73479;4420.156;-6319.657;1;136;-225;-229.7;33.0;33.4;7;7.2;29.0;0.0;
07/04/2021 19:02:54;100;0;138.65;-17;-17.95;0.76;54.9;3.20;73477;4420.153;-6319.653;1;136;-225;-229.7;33.0;33.5;9;9.5;29.0;42.4;
07/04/2021 19:03:14;100;0;138.80;-17;-18.35;1.39;58.4;3.30;73473;4420.149;-6319.648;1;136;-225;-229.7;33.0;33.5;9;9.5;29.0;38.8;
07/04/2021 19:03:34;100;0;137.59;-17;-18.10;1.57;62.3;3.30;73479;4420.145;-6319.643;1;136;-225;-229.7;33.0;33.4;9;9.9;29.0;37.0;
07/04/2021 19:03:54;100;0;139.20;-17;-17.96;1.64;65.8;3.30;73459;4420.141;-6319.639;1;136;-225;-229.7;33.0;33.5;9;9.5;29.0;33.7;
07/04/2021 19:04:14;100;0;139.33;-17;-17.61;1.62;69.4;3.30;73443;4420.138;-6319.634;1;136;-225;-229.7;33.0;33.5;9;9.5;29.0;30.1;
07/04/2021 19:04:34;100;0;136.62;-17;-17.25;1.72;72.7;3.20;73434;4420.134;-6319.630;1;136;-225;-229.7;33.0;33.4;6;5.4;29.0;26.6;
07/04/2021 19:04:54;100;0;136.04;-17;-16.58;-0.80;76.0;3.20;73461;4420.131;-6319.625;1;136;-225;-229.7;33.5;33.5;6;5.0;29.0;22.4;
07/04/2021 19:05:14;100;0;136.02;-17;-16.33;-0.69;79.2;3.20;73491;4420.127;-6319.620;1;136;-225;-231.7;34.0;34.1;6;5.0;29.0;19.9;
07/04/2021 19:05:34;100;0;136.59;-17;-17.41;-0.85;82.6;3.20;73518;4420.124;-6319.616;1;136;-225;-229.7;34.0;34.3;6;5.0;29.0;16.5;
07/04/2021 19:05:54;100;0;136.77;-17;-17.51;-0.83;86.0;3.30;73542;4420.121;-6319.611;1;136;-225;-229.7;34.0;34.3;6;5.0;29.0;13.0;
07/04/2021 19:06:14;118;0;136.31;-17;-17.41;-0.76;89.4;3.30;73555;4420.117;-6319.607;1;136;500;-229.7;18.9;21.2;-1;-1.4;29.0;9.3;
07/04/2021 19:06:24;118;0;136.31;-17;-1.06;-4.08;90.7;3.30;73484;4420.116;-6319.606;1;136;500;-168.3;18.9;18.6;-1;-1.4;29.0;-1.0;
07/04/2021 19:06:34;118;0;136.31;-17;14.69;-4.11;90.8;3.30;73229;4420.116;-6319.606;1;136;500;-19.8;18.9;19.1;-1;-1.4;28.6;-1.0;
07/04/2021 19:06:44;118;0;136.31;-17;19.79;-4.10;90.6;3.30;72992;4420.116;-6319.606;1;136;500;134.7;18.9;19.2;-1;-1.8;28.6;-1.0;
07/04/2021 19:06:54;118;0;136.31;-17;18.27;-4.10;90.3;3.30;72744;4420.116;-6319.605;1;136;500;287.1;18.9;19.1;-1;-1.8;28.6;-1.0;
07/04/2021 19:07:04;118;0;136.31;-17;16.59;-4.10;89.9;3.30;72500;4420.116;-6319.605;1;136;500;435.6;18.9;19.2;-1;-1.8;28.6;-1.0;
07/04/2021 19:07:14;118;0;136.31;-17;17.70;-4.14;89.0;3.30;72335;4420.115;-6319.604;1;136;500;503.0;18.9;19.2;-1;-1.8;28.6;-1.0;
07/04/2021 19:07:24;118;0;132.11;-17;19.43;-4.16;87.9;3.30;72339;4420.114;-6319.602;1;136;500;503.0;18.9;19.1;-1;-1.8;29.0;-1.0;
07/04/2021 19:07:44;117;0;130.46;-17;19.44;-4.28;85.5;3.30;72344;4420.112;-6319.599;1;136;500;506.9;19.6;19.7;-1;-1.8;29.0;-1.0;
07/04/2021 19:08:04;117;0;130.11;-17;17.94;-4.19;82.7;3.40;72337;4420.109;-6319.595;1;136;500;506.9;19.6;19.8;10;9.9;29.0;-1.0;
07/04/2021 19:08:24;117;0;134.69;-17;17.61;2.58;80.2;3.40;72343;4420.107;-6319.591;1;136;500;506.9;19.6;19.7;4;4.1;29.0;-1.0;
07/04/2021 19:08:44;117;0;134.54;-17;17.19;-1.30;77.6;3.40;72341;4420.104;-6319.587;1;136;500;506.9;19.6;19.8;4;3.6;29.0;-1.0;
07/04/2021 19:09:04;117;0;135.24;-17;17.13;-1.34;74.9;3.40;72321;4420.101;-6319.584;1;136;500;506.9;19.6;19.8;4;3.6;29.0;-1.0;
07/04/2021 19:09:24;117;0;135.37;-17;17.02;-1.33;72.4;3.40;72316;4420.099;-6319.580;1;136;500;508.9;19.6;19.8;4;3.6;29.0;-1.0;
07/04/2021 19:09:44;117;0;137.41;-17;16.32;-1.17;69.8;3.40;72269;4420.096;-6319.577;1;136;500;506.9;18.8;18.8;1;0.5;29.0;-1.0;
07/04/2021 19:10:04;117;0;134.63;-17;17.74;-3.11;67.2;3.40;72252;4420.094;-6319.573;1;136;500;506.9;18.8;18.6;5;5.0;29.0;-1.0;
07/04/2021 19:10:24;117;0;135.47;-17;17.38;-0.35;64.6;3.40;72218;4420.091;-6319.570;1;136;500;506.9;18.8;18.6;5;5.4;29.0;-1.0;
07/04/2021 19:10:44;117;0;133.89;-17;17.45;-0.55;62.1;3.40;72208;4420.088;-6319.566;1;136;500;506.9;18.8;18.6;5;5.4;29.0;-1.0;
07/04/2021 19:11:04;117;0;132.13;-17;17.35;-0.41;59.7;3.40;72213;4420.086;-6319.562;1;136;500;506.9;18.8;18.6;8;8.6;29.0;-1.0;
07/04/2021 19:11:24;117;0;135.13;-17;17.24;1.75;57.3;3.40;72230;4420.084;-6319.559;1;136;500;506.9;18.8;18.6;4;4.1;29.0;-1.0;
07/04/2021 19:11:44;117;0;133.41;-17;17.24;-1.41;55.0;3.30;72231;4420.082;-6319.556;1;136;500;506.9;18.8;18.6;6;5.9;29.0;-1.0;
07/04/2021 19:12:04;117;0;134.39;-17;17.52;0.26;52.5;3.30;72240;4420.079;-6319.552;1;136;500;505.0;18.8;18.6;6;6.8;29.0;-1.0;
07/04/2021 19:12:24;117;0;135.31;-17;17.32;0.34;50.3;3.30;72242;4420.077;-6319.549;1;136;500;506.9;18.8;18.6;4;4.1;29.0;-1.0;
07/04/2021 19:12:44;117;0;134.52;-17;17.17;-1.26;47.9;3.30;72254;4420.074;-6319.546;1;136;500;508.9;18.8;18.6;4;4.1;29.0;-1.0;
07/04/2021 19:13:04;117;0;133.83;-17;17.45;-1.31;45.6;3.30;72248;4420.072;-6319.542;1;136;500;506.9;18.8;18.6;6;6.3;29.0;-1.0;
07/04/2021 19:13:24;117;0;134.95;-17;17.25;0.39;43.1;3.30;72242;4420.070;-6319.539;1;136;500;506.9;18.8;18.6;4;4.1;29.0;-1.0;
07/04/2021 19:13:44;117;0;137.11;-17;17.27;-1.03;40.8;3.30;72248;4420.067;-6319.536;1;136;500;508.9;18.8;18.6;2;1.8;29.0;-1.0;
07/04/2021 19:14:04;117;0;138.96;-17;16.94;-2.36;38.4;3.30;72234;4420.065;-6319.533;1;136;500;506.9;18.0;17.7;-1;-0.9;29.0;-1.0;
07/04/2021 19:14:24;117;0;137.00;-17;18.25;-4.20;36.0;3.30;72231;4420.062;-6319.530;1;136;500;506.9;18.0;17.7;2;1.8;29.0;-1.0;
07/04/2021 19:14:44;117;0;137.15;-17;18.46;-1.98;33.6;3.30;72215;4420.060;-6319.526;1;136;500;506.9;18.0;17.7;2;2.3;29.0;-1.0;
07/04/2021 19:15:04;117;0;137.09;-17;18.45;-1.98;31.1;3.30;72209;4420.057;-6319.523;1;136;500;506.9;18.0;17.7;2;2.3;29.0;-1.0;
07/04/2021 19:15:24;117;0;137.23;-17;18.24;-2.04;28.6;3.30;72209;4420.055;-6319.520;1;136;500;506.9;18.0;17.7;2;2.3;29.0;-1.0;
07/04/2021 19:15:44;117;0;137.67;-17;18.21;-1.97;26.1;3.30;72205;4420.052;-6319.517;1;136;500;506.9;18.0;17.7;2;2.3;29.0;-1.0;
07/04/2021 19:16:04;117;0;137.36;-17;17.90;-2.03;23.7;3.30;72194;4420.050;-6319.513;1;136;500;506.9;18.0;17.7;2;2.3;29.0;-1.0;
07/04/2021 19:16:24;117;0;135.63;-17;18.18;-1.85;21.3;3.30;72183;4420.048;-6319.510;1;136;500;506.9;18.0;17.7;2;2.3;29.0;-1.0;
07/04/2021 19:16:44;117;0;134.79;-17;17.77;-2.19;18.8;3.30;72178;4420.045;-6319.507;1;136;500;506.9;18.0;17.7;4;4.1;29.0;-1.0;
07/04/2021 19:17:04;117;0;136.09;-17;17.54;-0.59;16.5;3.30;72171;4420.043;-6319.504;1;136;500;506.9;18.0;17.7;4;5.0;29.0;-1.0;
07/04/2021 19:17:24;117;0;137.10;-17;17.62;-0.65;14.1;3.30;72163;4420.040;-6319.501;1;136;500;506.9;18.0;17.7;2;1.4;29.0;-1.0;
07/04/2021 19:17:44;117;0;134.96;-17;17.94;-2.83;11.6;3.30;72163;4420.038;-6319.497;1;136;500;505.0;18.0;17.7;4;4.1;29.0;-1.0;
