Timestamp;NavState;SecurityLevel;Heading;Declination;Pitch;Roll;Depth;Temperature;Pa;Lat;Lon;DeadReckoning;DesiredH;BallastCmd;BallastPos;LinCmd;LinPos;AngCmd;AngPos;Voltage;Altitude;
07/04/2021 22:15:50;117;0;127.24;-17;18.70;-0.73;9.1;3.80;72133;4417.781;-6320.659;1;129;500;508.9;18.0;17.9;4;4.5;29.0;-1.0;
07/04/2021 22:16:10;110;0;129.32;-17;17.59;-0.54;6.4;3.80;72127;4417.778;-6320.655;1;129;-225;481.2;32.8;31.4;2;0.9;29.0;-1.0;
07/04/2021 22:16:20;110;0;132.02;-17;-0.31;-2.75;5.5;3.80;72533;4417.778;-6320.655;1;129;-225;241.6;32.8;33.2;2;0.9;28.9;-1.0;
07/04/2021 22:16:30;110;0;131.04;-17;-13.47;-2.43;5.9;3.80;72930;4417.778;-6320.654;1;129;-225;2.0;32.8;33.7;2;0.9;28.9;-1.0;
07/04/2021 22:16:40;110;0;134.03;-17;-16.45;-2.68;7.0;3.80;73357;4417.777;-6320.653;1;129;-225;-223.8;32.8;34.0;2;0.9;28.9;-1.0;
07/04/2021 22:16:51;110;0;130.00;-17;-18.70;-2.63;8.4;3.80;73385;4417.775;-6320.651;1;129;-225;-229.7;32.8;34.1;2;0.9;29.0;-1.0;
07/04/2021 22:17:11;100;0;133.76;-17;-20.83;-3.14;12.0;3.80;73385;4417.772;-6320.646;1;129;-225;-229.7;32.8;34.1;2;0.9;29.0;-1.0;
07/04/2021 22:17:31;100;0;134.46;-17;-20.73;-2.87;16.0;3.80;73378;4417.769;-6320.641;1;129;-225;-227.7;32.6;32.5;13;13.1;29.0;0.0;
07/04/2021 22:17:51;100;0;135.63;-17;-18.03;3.74;20.0;3.80;73376;4417.765;-6320.636;1;129;-225;-229.7;32.6;32.5;13;14.0;29.0;0.0;
07/04/2021 22:18:11;100;0;134.15;-17;-17.39;3.83;23.7;3.80;73376;4417.761;-6320.631;1;129;-225;-229.7;32.6;32.3;13;14.0;29.0;0.0;
07/04/2021 22:18:31;100;0;133.56;-17;-17.49;3.71;27.3;3.80;73370;4417.758;-6320.626;1;129;-225;-229.7;32.6;32.3;13;14.0;29.0;0.0;
07/04/2021 22:18:51;100;0;130.97;-17;-16.73;3.86;30.8;3.70;73371;4417.754;-6320.620;1;129;-225;-229.7;33.2;33.5;9;9.0;29.0;0.0;
07/04/2021 22:19:11;100;0;130.60;-17;-18.04;1.13;34.5;3.70;73380;4417.751;-6320.615;1;129;-225;-229.7;33.2;33.5;9;8.6;29.0;0.0;
07/04/2021 22:19:31;100;0;129.62;-17;-18.30;1.13;38.2;3.70;73374;4417.748;-6320.609;1;129;-225;-229.7;33.2;33.5;7;7.2;29.0;0.0;
07/04/2021 22:19:51;100;0;128.46;-17;-18.12;0.12;41.9;3.70;73382;4417.745;-6320.604;1;129;-225;-229.7;33.2;33.4;7;6.8;29.0;0.0;
07/04/2021 22:20:11;100;0;126.55;-17;-18.05;0.22;45.6;3.70;73393;4417.742;-6320.598;1;129;-225;-229.7;33.2;33.5;3;3.2;29.0;0.0;
07/04/2021 22:20:31;100;0;126.35;-17;-17.65;-2.05;49.2;3.70;73391;4417.739;-6320.593;1;129;-225;-229.7;33.2;33.5;3;2.7;29.0;0.0;
07/04/2021 22:20:51;100;0;127.58;-17;-17.79;-2.03;52.7;3.70;73393;4417.736;-6320.587;1;129;-225;-229.7;33.2;33.5;5;5.0;29.0;0.0;
07/04/2021 22:21:11;100;0;126.66;-17;-17.65;-0.40;56.2;3.70;73389;4417.733;-6320.582;1;129;-225;-229.7;33.2;33.5;5;5.9;29.0;0.0;
07/04/2021 22:21:31;100;0;126.51;-17;-17.24;-0.47;59.7;3.70;73389;4417.730;-6320.576;1;129;-225;-229.7;33.2;33.5;3;3.2;29.0;0.0;
07/04/2021 22:21:51;100;0;128.61;-17;-17.38;-2.14;63.1;3.70;73394;4417.727;-6320.571;1;129;-225;-229.7;33.2;33.4;6;5.9;29.0;0.0;
07/04/2021 22:22:11;100;0;131.35;-17;-17.41;-0.17;66.5;3.60;73380;4417.724;-6320.566;1;129;-225;-229.7;33.2;33.5;9;9.5;29.0;0.0;
07/04/2021 22:22:31;100;0;129.35;-17;-16.87;1.86;70.0;3.60;73371;4417.721;-6320.561;1;129;-225;-229.7;33.9;34.1;7;6.8;29.0;0.0;
07/04/2021 22:22:51;100;0;126.54;-17;-17.18;-0.06;73.6;3.60;73405;4417.718;-6320.555;1;129;-225;-229.7;33.9;34.1;3;3.2;29.0;42.4;
07/04/2021 22:23:11;100;0;125.26;-17;-16.80;-1.75;76.9;3.60;73440;4417.715;-6320.550;1;129;-225;-229.7;34.5;34.6;3;2.7;29.0;38.7;
07/04/2021 22:23:31;100;0;124.16;-17;-17.58;-1.92;80.2;3.60;73473;4417.712;-6320.544;1;129;-225;-229.7;34.5;34.9;0;-0.5;29.0;34.9;
07/04/2021 22:23:51;100;0;126.16;-17;-17.70;-3.62;83.5;3.60;73500;4417.710;-6320.539;1;129;-225;-229.7;34.5;34.7;3;3.6;29.0;30.9;
07/04/2021 22:24:11;100;0;127.28;-17;-17.48;-1.29;86.9;3.60;73522;4417.707;-6320.534;1;129;-225;-229.7;34.5;34.7;3;4.1;29.0;27.1;
07/04/2021 22:24:31;100;0;127.86;-17;-17.58;-1.29;90.1;3.70;73539;4417.704;-6320.529;1;129;-225;-229.7;34.5;34.7;5;5.0;29.0;23.2;
07/04/2021 22:24:51;100;0;127.79;-17;-17.10;-0.42;93.3;3.70;73560;4417.701;-6320.524;1;129;-225;-229.7;34.5;34.9;5;5.4;29.0;19.7;
07/04/2021 22:25:11;100;0;129.66;-17;-16.83;-0.40;96.5;3.70;73594;4417.698;-6320.519;1;129;-225;-229.7;35.1;35.3;7;7.2;29.0;16.4;
07/04/2021 22:25:31;100;0;129.31;-17;-17.66;0.79;99.6;3.70;73618;4417.696;-6320.514;1;129;-225;-231.7;35.1;35.5;7;8.1;29.0;12.9;
07/04/2021 22:25:51;118;0;131.29;-17;-17.63;0.75;102.8;3.80;73663;4417.693;-6320.510;1;129;500;-229.7;19.8;22.4;-2;-2.3;29.0;9.3;
07/04/2021 22:26:01;118;0;131.29;-17;-0.70;-4.22;104.1;3.80;73608;4417.692;-6320.509;1;129;500;-166.3;19.8;19.4;-2;-2.3;28.9;-1.0;
07/04/2021 22:26:11;118;0;131.29;-17;14.90;-4.39;104.0;3.80;73367;4417.692;-6320.509;1;129;500;-13.9;19.8;19.8;-2;-2.3;28.5;-1.0;
07/04/2021 22:26:21;118;0;131.29;-17;19.58;-4.34;103.7;3.80;73133;4417.692;-6320.508;1;129;500;138.6;19.8;20.1;-2;-2.3;28.5;-1.0;
07/04/2021 22:26:31;118;0;131.29;-17;18.09;-4.33;103.2;3.80;72900;4417.692;-6320.508;1;129;500;287.1;19.8;20.1;-2;-2.3;28.5;-1.0;
07/04/2021 22:26:41;118;0;131.29;-17;17.63;-4.56;102.6;3.80;72668;4417.691;-6320.507;1;129;500;437.6;19.8;20.0;-2;-2.3;28.5;-1.0;
07/04/2021 22:26:51;118;0;131.29;-17;18.58;-4.77;101.7;3.90;72486;4417.690;-6320.506;1;129;500;505.0;19.8;20.0;-2;-1.8;28.5;-1.0;
07/04/2021 22:27:01;118;0;125.95;-17;20.01;-4.53;100.3;3.90;72504;4417.689;-6320.504;1;129;500;508.9;19.8;20.0;-2;-2.3;28.9;-1.0;
07/04/2021 22:27:21;117;0;124.82;-17;19.27;-4.49;97.4;3.90;72499;4417.687;-6320.499;1;129;500;508.9;19.8;20.1;-2;-2.3;28.9;-1.0;
07/04/2021 22:27:41;117;0;122.53;-17;18.45;-4.67;94.4;3.90;72478;4417.685;-6320.494;1;129;500;508.9;19.8;20.1;10;9.9;28.9;-1.0;
07/04/2021 22:28:01;117;0;126.44;-17;18.32;2.56;91.4;4.00;72457;4417.682;-6320.490;1;129;500;508.9;19.8;20.0;6;5.9;28.9;-1.0;
07/04/2021 22:28:21;117;0;126.56;-17;17.75;-0.38;88.6;4.00;72431;4417.680;-6320.485;1;129;500;506.9;19.8;20.1;6;5.4;28.9;-1.0;
07/04/2021 22:28:41;117;0;128.40;-17;17.82;-0.25;85.6;4.00;72416;4417.677;-6320.481;1;129;500;508.9;19.8;20.1;3;3.2;29.0;-1.0;
07/04/2021 22:29:01;117;0;127.45;-17;17.79;-1.76;82.7;4.00;72409;4417.675;-6320.477;1;129;500;506.9;19.8;20.0;3;2.7;29.0;-1.0;
07/04/2021 22:29:21;117;0;128.12;-17;17.69;-1.59;79.9;4.00;72396;4417.673;-6320.472;1;129;500;506.9;19.8;20.1;3;2.7;29.0;-1.0;
07/04/2021 22:29:41;117;0;131.84;-17;17.50;-1.52;77.0;4.00;72371;4417.670;-6320.468;1;129;500;506.9;19.8;20.1;-1;-0.9;29.0;-1.0;
07/04/2021 22:30:01;117;0;132.73;-17;17.29;-3.83;74.1;4.00;72361;4417.667;-6320.464;1;129;500;508.9;19.8;20.0;-1;-1.4;29.0;-1.0;
07/04/2021 22:30:21;117;0;132.97;-17;16.89;-3.85;71.5;4.00;72344;4417.665;-6320.460;1;129;500;508.9;19.2;19.1;-1;-0.9;29.0;-1.0;
07/04/2021 22:30:41;117;0;135.23;-17;18.28;-3.68;68.7;4.00;72304;4417.662;-6320.456;1;129;500;508.9;19.2;18.9;-5;-5.0;29.0;-1.0;
07/04/2021 22:31:01;117;0;130.43;-17;18.30;-6.33;66.0;4.00;72260;4417.660;-6320.452;1;129;500;506.9;19.2;18.8;1;0.9;28.9;-1.0;
07/04/2021 22:31:21;117;0;130.15;-17;17.86;-2.57;63.4;4.00;72247;4417.657;-6320.449;1;129;500;506.9;19.2;18.9;1;1.4;29.0;-1.0;
07/04/2021 22:31:41;117;0;128.39;-17;17.47;-2.47;60.8;3.90;72222;4417.655;-6320.445;1;129;500;506.9;19.2;18.9;3;3.6;29.0;-1.0;
07/04/2021 22:32:01;117;0;127.95;-17;17.69;-0.98;58.2;3.90;72206;4417.653;-6320.440;1;129;500;508.9;19.2;18.9;3;4.1;29.0;-1.0;
07/04/2021 22:32:21;117;0;128.55;-17;17.36;-0.93;55.5;3.90;72218;4417.650;-6320.436;1;129;500;506.9;19.2;18.8;3;4.1;29.0;-1.0;
07/04/2021 22:32:41;117;0;130.79;-17;17.65;-0.84;53.0;3.90;72196;4417.648;-6320.433;1;129;500;508.9;19.2;18.9;0;0.0;29.0;-1.0;
07/04/2021 22:33:01;117;0;128.78;-17;17.55;-3.56;50.5;3.90;72188;4417.646;-6320.429;1;129;500;508.9;19.2;18.9;3;3.2;29.0;-1.0;
07/04/2021 22:33:21;117;0;130.93;-17;17.32;-1.25;47.9;3.90;72204;4417.643;-6320.425;1;129;500;508.9;19.2;18.9;0;0.0;29.0;-1.0;
07/04/2021 22:33:41;117;0;130.21;-17;16.93;-3.47;45.4;3.80;72200;4417.641;-6320.421;1;129;500;508.9;18.6;18.3;0;-0.5;29.0;-1.0;
07/04/2021 22:34:01;117;0;130.09;-17;18.34;-3.33;42.9;3.80;72198;4417.639;-6320.418;1;129;500;506.9;18.6;18.2;0;-0.5;29.0;-1.0;
07/04/2021 22:34:21;117;0;131.62;-17;18.25;-3.43;40.2;3.80;72206;4417.637;-6320.414;1;129;500;508.9;18.6;18.3;0;-0.5;29.0;-1.0;
07/04/2021 22:34:41;117;0;130.35;-17;18.10;-3.57;37.6;3.80;72188;4417.634;-6320.410;1;129;500;506.9;18.6;18.2;0;-0.5;28.9;-1.0;
07/04/2021 22:35:01;117;0;131.05;-17;18.16;-3.39;35.2;3.80;72178;4417.632;-6320.406;1;129;500;506.9;18.6;18.2;0;-0.5;29.0;-1.0;
07/04/2021 22:35:21;117;0;130.69;-17;18.06;-3.36;32.7;3.80;72170;4417.630;-6320.403;1;129;500;506.9;18.6;18.2;0;-0.5;28.9;-1.0;
07/04/2021 22:35:41;117;0;130.51;-17;17.87;-3.47;30.2;3.80;72173;4417.628;-6320.399;1;129;500;506.9;18.6;18.2;0;-0.5;29.0;-1.0;
07/04/2021 22:36:01;117;0;127.22;-17;17.73;-3.60;27.9;3.80;72165;4417.626;-6320.396;1;129;500;508.9;18.6;18.2;4;4.1;29.0;-1.0;
07/04/2021 22:36:21;117;0;129.24;-17;17.47;-0.89;25.7;3.80;72158;4417.624;-6320.392;1;129;500;508.9;18.6;18.2;2;1.8;29.0;-1.0;
07/04/2021 22:36:41;117;0;127.18;-17;17.35;-2.50;23.4;3.70;72144;4417.622;-6320.389;1;129;500;508.9;18.6;18.2;4;4.1;29.0;-1.0;
07/04/2021 22:37:01;117;0;127.38;-17;17.20;-0.78;21.0;3.70;72140;4417.620;-6320.385;1;129;500;506.9;18.6;18.2;4;4.5;29.0;-1.0;
07/04/2021 22:37:21;117;0;127.29;-17;17.03;-0.81;18.8;3.70;72135;4417.618;-6320.381;1;129;500;506.9;18.6;18.2;4;4.5;29.0;-1.0;
07/04/2021 22:37:41;117;0;126.35;-17;17.02;-1.04;16.4;3.70;72127;4417.616;-6320.377;1;129;500;508.9;18.6;18.2;4;4.5;28.9;-1.0;
07/04/2021 22:38:01;117;0;127.26;-17;17.25;-0.64;14.1;3.70;72133;4417.614;-6320.374;1;129;500;508.9;18.6;18.2;4;4.5;29.0;-1.0;
07/04/2021 22:38:21;117;0;127.57;-17;17.17;-0.79;11.7;3.70;72132;4417.612;-6320.370;1;129;500;508.9;18.6;18.2;4;4.5;29.0;-1.0;
