Timestamp;NavState;SecurityLevel;Heading;Declination;Pitch;Roll;Depth;Temperature;Pa;Lat;Lon;DeadReckoning;DesiredH;BallastCmd;BallastPos;LinCmd;LinPos;AngCmd;AngPos;Voltage;Altitude;
07/04/2021 17:53:12;117;0;137.57;-17;17.87;-1.24;9.5;3.80;72291;4420.751;-6320.422;1;136;500;508.9;17.9;17.4;1;0.5;29.1;-1.0;
07/04/2021 17:53:32;110;0;134.90;-17;18.11;-3.42;6.8;3.80;72285;4420.748;-6320.418;1;136;-225;475.2;33.5;31.0;1;0.0;29.1;-1.0;
07/04/2021 17:53:42;110;0;139.09;-17;-1.04;-3.29;6.0;3.80;72698;4420.748;-6320.418;1;136;-225;233.7;33.5;33.8;1;0.0;29.0;-1.0;
07/04/2021 17:53:52;110;0;139.67;-17;-15.24;-3.37;6.4;3.80;73116;4420.748;-6320.417;1;136;-225;-15.8;33.5;34.6;1;0.0;29.0;-1.0;
07/04/2021 17:54:02;110;0;140.42;-17;-19.34;-3.24;7.6;3.70;73541;4420.746;-6320.416;1;136;-225;-225.7;33.5;34.7;1;0.0;29.0;-1.0;
07/04/2021 17:54:12;110;0;143.19;-17;-21.44;-3.62;9.4;3.70;73538;4420.745;-6320.414;1;136;-225;-229.7;33.5;34.7;1;0.0;29.1;-1.0;
07/04/2021 17:54:32;100;0;142.38;-17;-22.98;-3.37;13.5;3.70;73533;4420.741;-6320.410;1;136;-225;-231.7;33.4;33.4;1;0.0;29.1;-1.0;
07/04/2021 17:54:52;100;0;144.98;-17;-20.63;-3.34;17.9;3.70;73534;4420.736;-6320.405;1;136;-225;-229.7;33.0;32.8;15;14.9;29.0;0.0;
07/04/2021 17:55:12;100;0;143.78;-17;-19.16;4.48;22.0;3.70;73534;4420.732;-6320.401;1;136;-225;-229.7;32.8;32.8;13;12.6;29.1;0.0;
07/04/2021 17:55:32;100;0;141.10;-17;-18.87;2.97;25.9;3.70;73527;4420.728;-6320.396;1;136;-225;-231.7;32.8;32.8;10;9.5;29.0;0.0;
07/04/2021 17:55:52;100;0;140.16;-17;-18.60;1.29;29.9;3.70;73527;4420.724;-6320.392;1;136;-225;-231.7;32.8;32.8;10;9.0;29.1;0.0;
07/04/2021 17:56:12;100;0;139.55;-17;-18.47;1.30;33.7;3.70;73520;4420.720;-6320.387;1;136;-225;-231.7;32.8;32.8;8;8.1;29.0;0.0;
07/04/2021 17:56:32;100;0;138.96;-17;-18.43;0.51;37.5;3.70;73542;4420.716;-6320.382;1;136;-225;-229.7;32.8;32.8;8;7.7;29.1;0.0;
07/04/2021 17:56:52;100;0;138.58;-17;-18.18;0.39;41.1;3.70;73545;4420.712;-6320.377;1;136;-225;-231.7;32.8;32.8;8;7.2;29.1;0.0;
07/04/2021 17:57:12;100;0;138.99;-17;-18.14;0.30;44.9;3.60;73536;4420.708;-6320.373;1;136;-225;-231.7;32.8;32.8;8;7.7;29.1;0.0;
07/04/2021 17:57:32;100;0;137.20;-17;-17.82;0.48;48.3;3.60;73547;4420.705;-6320.368;1;136;-225;-231.7;32.8;32.8;6;5.4;29.1;0.0;
07/04/2021 17:57:52;100;0;139.30;-17;-17.74;-1.09;51.9;3.60;73544;4420.701;-6320.364;1;136;-225;-231.7;32.8;32.8;8;8.1;29.0;0.0;
07/04/2021 17:58:12;100;0;140.88;-17;-17.53;1.06;55.5;3.60;73540;4420.697;-6320.359;1;136;-225;-229.7;32.8;32.8;10;9.9;29.1;0.0;
07/04/2021 17:58:32;100;0;142.78;-17;-17.19;1.77;58.9;3.60;73529;4420.693;-6320.355;1;136;-225;-229.7;32.8;32.8;13;13.1;29.1;0.0;
07/04/2021 17:58:52;100;0;140.15;-17;-16.78;4.09;62.3;3.60;73514;4420.690;-6320.351;1;136;-225;-231.7;33.1;33.2;9;9.0;29.1;42.7;
07/04/2021 17:59:12;100;0;137.77;-17;-16.87;1.08;65.8;3.60;73523;4420.686;-6320.346;1;136;-225;-229.7;33.4;33.7;7;7.2;29.1;38.3;
07/04/2021 17:59:32;100;0;136.92;-17;-17.79;0.33;69.2;3.60;73525;4420.683;-6320.342;1;136;-225;-229.7;33.4;33.7;7;6.8;29.1;31.9;
07/04/2021 17:59:52;100;0;136.09;-17;-18.22;0.33;72.6;3.60;73541;4420.679;-6320.337;1;136;-225;-231.7;33.4;33.7;5;5.0;29.1;25.9;
07/04/2021 18:00:12;100;0;137.42;-17;-17.32;-0.93;76.1;3.60;73568;4420.676;-6320.333;1;136;-225;-231.7;33.4;33.7;5;4.5;29.1;22.9;
07/04/2021 18:00:32;100;0;138.29;-17;-17.11;-0.93;79.3;3.60;73583;4420.672;-6320.328;1;136;-225;-231.7;33.4;33.7;7;7.7;29.1;22.0;
07/04/2021 18:00:52;100;0;138.25;-17;-16.79;0.85;82.6;3.60;73593;4420.669;-6320.324;1;136;-225;-231.7;33.8;34.0;7;8.1;29.1;18.8;
07/04/2021 18:01:12;100;0;138.00;-17;-17.60;0.83;85.9;3.60;73616;4420.665;-6320.320;1;136;-225;-231.7;33.8;34.3;7;8.1;29.0;15.2;
07/04/2021 18:01:32;100;0;136.61;-17;-17.49;0.96;89.3;3.60;73617;4420.662;-6320.315;1;136;-225;-229.7;33.8;34.1;5;5.0;29.1;11.4;
07/04/2021 18:01:52;118;0;135.89;-17;-17.43;-0.99;92.5;3.60;73636;4420.659;-6320.311;1;136;500;-231.7;19.0;21.0;-1;-1.8;29.1;7.5;
07/04/2021 18:02:02;118;0;135.89;-17;-1.42;-4.02;93.7;3.60;73559;4420.658;-6320.310;1;136;500;-166.3;19.0;18.8;-1;-1.4;29.0;-1.0;
07/04/2021 18:02:12;118;0;135.89;-17;13.42;-4.06;93.7;3.60;73299;4420.658;-6320.310;1;136;500;-13.9;19.0;19.1;-1;-1.4;28.6;-1.0;
07/04/2021 18:02:22;118;0;135.89;-17;18.73;-4.05;93.5;3.60;73039;4420.658;-6320.310;1;136;500;140.6;19.0;19.2;-1;-1.8;28.6;-1.0;
07/04/2021 18:02:32;118;0;135.89;-17;17.31;-4.01;93.2;3.60;72801;4420.658;-6320.309;1;136;500;291.1;19.0;19.4;-1;-1.4;28.6;-1.0;
07/04/2021 18:02:42;118;0;135.89;-17;15.76;-4.09;92.8;3.60;72560;4420.657;-6320.309;1;136;500;439.6;19.0;19.2;-1;-1.4;28.6;-1.0;
07/04/2021 18:02:52;118;0;135.89;-17;16.61;-4.22;91.9;3.60;72385;4420.656;-6320.308;1;136;500;505.0;19.0;19.2;-1;-1.8;28.7;-1.0;
07/04/2021 18:03:12;117;0;135.68;-17;18.99;-4.14;89.8;3.60;72402;4420.654;-6320.305;1;136;500;506.9;19.6;19.5;-1;-1.4;29.0;-1.0;
07/04/2021 18:03:32;117;0;136.20;-17;17.99;-4.06;87.3;3.60;72410;4420.652;-6320.301;1;136;500;506.9;19.6;19.7;3;3.2;29.0;-1.0;
07/04/2021 18:03:52;117;0;138.18;-17;17.55;-1.16;84.8;3.60;72398;4420.649;-6320.298;1;136;500;506.9;19.6;19.5;0;-0.5;29.1;-1.0;
07/04/2021 18:04:12;117;0;135.75;-17;17.51;-3.76;82.3;3.60;72397;4420.647;-6320.295;1;136;500;506.9;19.6;19.7;3;3.2;29.1;-1.0;
07/04/2021 18:04:32;117;0;137.02;-17;17.50;-1.01;79.7;3.60;72395;4420.644;-6320.291;1;136;500;506.9;19.6;19.5;3;4.1;29.0;-1.0;
07/04/2021 18:04:52;117;0;137.73;-17;17.12;-1.06;77.2;3.60;72389;4420.641;-6320.288;1;136;500;506.9;19.6;19.7;1;0.9;29.1;-1.0;
07/04/2021 18:05:12;117;0;135.88;-17;17.20;-2.99;74.8;3.60;72391;4420.639;-6320.285;1;136;500;506.9;19.6;19.7;3;3.6;29.1;-1.0;
07/04/2021 18:05:32;117;0;137.26;-17;17.01;-0.65;72.4;3.60;72383;4420.636;-6320.282;1;136;500;506.9;19.6;19.7;1;0.9;29.1;-1.0;
07/04/2021 18:05:52;117;0;135.17;-17;16.73;-2.90;70.2;3.60;72351;4420.634;-6320.278;1;136;500;506.9;19.0;18.8;4;4.1;29.1;-1.0;
07/04/2021 18:06:12;117;0;137.32;-17;18.02;-0.47;67.9;3.60;72334;4420.632;-6320.275;1;136;500;508.9;19.0;18.6;1;0.9;29.1;-1.0;
07/04/2021 18:06:32;117;0;135.60;-17;17.82;-3.03;65.4;3.60;72321;4420.629;-6320.272;1;136;500;506.9;19.0;18.8;3;3.2;29.1;-1.0;
07/04/2021 18:06:52;117;0;137.61;-17;17.27;-1.12;62.9;3.60;72308;4420.627;-6320.269;1;136;500;506.9;19.0;18.8;1;0.9;29.1;-1.0;
07/04/2021 18:07:12;117;0;136.54;-17;17.30;-3.08;60.5;3.60;72295;4420.624;-6320.266;1;136;500;508.9;19.0;18.8;1;0.5;29.0;-1.0;
07/04/2021 18:07:32;117;0;136.53;-17;17.32;-3.06;58.2;3.60;72270;4420.622;-6320.262;1;136;500;506.9;19.0;18.6;1;0.5;29.0;-1.0;
07/04/2021 18:07:52;117;0;133.08;-17;17.19;-3.25;55.9;3.60;72267;4420.620;-6320.259;1;136;500;506.9;19.0;18.6;6;5.9;29.1;-1.0;
07/04/2021 18:08:12;117;0;133.85;-17;17.13;0.17;53.6;3.50;72261;4420.618;-6320.256;1;136;500;506.9;19.0;18.6;6;6.3;29.0;-1.0;
07/04/2021 18:08:32;117;0;134.42;-17;17.08;0.32;51.4;3.50;72259;4420.615;-6320.253;1;136;500;508.9;19.0;18.8;6;6.3;29.1;-1.0;
07/04/2021 18:08:52;117;0;133.32;-17;16.73;0.20;49.2;3.50;72259;4420.613;-6320.249;1;136;500;508.9;18.3;18.2;6;6.3;29.1;-1.0;
07/04/2021 18:09:12;117;0;132.82;-17;18.12;0.21;46.8;3.50;72259;4420.611;-6320.246;1;136;500;505.0;18.3;17.9;6;6.8;29.0;-1.0;
07/04/2021 18:09:32;117;0;134.52;-17;17.54;0.25;44.2;3.50;72271;4420.608;-6320.243;1;136;500;506.9;18.3;17.9;6;6.3;29.1;-1.0;
07/04/2021 18:09:52;117;0;135.84;-17;17.82;0.22;41.8;3.50;72277;4420.606;-6320.239;1;136;500;506.9;18.3;17.9;3;3.2;29.1;-1.0;
07/04/2021 18:10:12;117;0;134.95;-17;18.16;-1.89;39.3;3.50;72268;4420.604;-6320.236;1;136;500;506.9;18.3;17.9;3;2.7;29.1;-1.0;
07/04/2021 18:10:32;117;0;134.40;-17;17.45;-1.79;36.9;3.50;72260;4420.601;-6320.232;1;136;500;508.9;18.3;17.9;5;5.0;29.1;-1.0;
07/04/2021 18:10:52;117;0;135.67;-17;17.78;-0.28;34.6;3.50;72262;4420.599;-6320.229;1;136;500;508.9;18.3;17.9;3;3.2;29.1;-1.0;
07/04/2021 18:11:12;117;0;134.86;-17;17.78;-1.73;32.2;3.50;72260;4420.597;-6320.226;1;136;500;506.9;18.3;17.9;3;2.7;29.1;-1.0;
07/04/2021 18:11:32;117;0;135.19;-17;17.72;-1.85;29.8;3.40;72253;4420.594;-6320.223;1;136;500;506.9;18.3;17.9;3;2.7;29.1;-1.0;
07/04/2021 18:11:52;117;0;134.65;-17;17.95;-1.90;27.4;3.40;72247;4420.592;-6320.220;1;136;500;508.9;18.3;17.9;5;5.0;29.1;-1.0;
07/04/2021 18:12:12;117;0;136.02;-17;17.62;-0.26;25.0;3.40;72240;4420.590;-6320.216;1;136;500;508.9;18.3;17.9;3;3.2;29.1;-1.0;
07/04/2021 18:12:32;117;0;134.27;-17;17.69;-1.93;22.6;3.40;72234;4420.587;-6320.213;1;136;500;508.9;18.3;17.9;5;5.0;29.1;-1.0;
07/04/2021 18:12:52;117;0;136.38;-17;17.87;0.02;20.3;3.40;72225;4420.585;-6320.210;1;136;500;506.9;18.3;17.9;2;1.8;29.1;-1.0;
07/04/2021 18:13:12;117;0;136.95;-17;17.15;-2.39;17.8;3.40;72219;4420.582;-6320.207;1;136;500;506.9;18.3;17.9;2;1.4;29.0;-1.0;
07/04/2021 18:13:32;117;0;136.23;-17;16.93;-2.55;15.4;3.40;72218;4420.580;-6320.203;1;136;500;506.9;17.7;17.7;2;1.4;29.0;-1.0;
07/04/2021 18:13:52;117;0;137.11;-17;18.49;-2.40;13.0;3.40;72218;4420.578;-6320.200;1;136;500;506.9;17.7;17.4;2;1.4;29.0;-1.0;
07/04/2021 18:14:12;117;0;136.62;-17;18.71;-2.50;10.6;3.40;72211;4420.575;-6320.197;1;136;500;505.0;17.7;17.4;2;1.4;29.1;-1.0;
