Timestamp;NavState;SecurityLevel;Heading;Declination;Pitch;Roll;Depth;Temperature;Pa;Lat;Lon;DeadReckoning;DesiredH;BallastCmd;BallastPos;LinCmd;LinPos;AngCmd;AngPos;Voltage;Altitude;
07/04/2021 21:52:00;117;0;126.76;-17;19.66;0.04;7.6;4.30;72193;4417.961;-6320.964;1;129;500;506.9;17.0;16.8;6;6.3;29.0;-1.0;
07/04/2021 21:52:20;110;0;129.39;-17;19.93;0.26;4.8;4.20;72184;4417.959;-6320.960;1;129;-225;481.2;34.2;30.3;2;1.4;29.0;-1.0;
07/04/2021 21:52:30;110;0;132.60;-17;0.61;-2.44;3.6;4.20;72527;4417.958;-6320.960;1;129;-225;283.2;34.2;34.4;2;0.9;28.9;-1.0;
07/04/2021 21:52:40;110;0;134.67;-17;-16.11;-2.57;4.1;4.20;72867;4417.958;-6320.959;1;129;-225;79.2;34.2;35.2;2;1.4;28.9;-1.0;
07/04/2021 21:52:50;110;0;135.97;-17;-19.50;-2.63;5.2;4.20;73229;4417.957;-6320.957;1;129;-225;-132.7;34.2;35.5;2;1.4;28.9;-1.0;
07/04/2021 21:53:00;110;0;131.64;-17;-21.41;-2.67;6.5;4.20;73453;4417.956;-6320.956;1;129;-225;-225.7;34.2;35.5;2;1.4;28.9;-1.0;
07/04/2021 21:53:20;100;0;133.95;-17;-23.49;-2.98;10.6;4.20;73432;4417.952;-6320.951;1;129;-225;-229.7;32.7;32.6;2;0.9;29.0;-1.0;
07/04/2021 21:53:40;100;0;136.97;-17;-19.22;-2.94;14.7;4.20;73426;4417.948;-6320.946;1;129;-225;-231.7;32.8;33.1;16;16.2;29.0;0.0;
07/04/2021 21:54:00;100;0;136.12;-17;-18.30;5.26;18.5;4.10;73412;4417.945;-6320.941;1;129;-225;-229.7;32.8;33.2;16;16.7;29.0;0.0;
07/04/2021 21:54:20;100;0;134.01;-17;-18.57;5.45;22.0;4.10;73426;4417.941;-6320.936;1;129;-225;-231.7;32.8;33.1;12;12.2;29.0;0.0;
07/04/2021 21:54:40;100;0;132.27;-17;-18.56;2.51;25.8;4.10;73413;4417.938;-6320.931;1;129;-225;-229.7;32.8;33.1;10;9.9;29.0;0.0;
07/04/2021 21:55:00;100;0;131.75;-17;-18.77;1.23;29.7;4.10;73408;4417.935;-6320.926;1;129;-225;-231.7;32.8;33.1;10;9.0;28.9;0.0;
07/04/2021 21:55:20;100;0;131.53;-17;-18.19;1.20;33.4;4.10;73412;4417.931;-6320.920;1;129;-225;-233.7;32.8;33.1;10;9.0;29.0;0.0;
07/04/2021 21:55:40;100;0;129.55;-17;-17.65;1.32;37.1;4.10;73420;4417.928;-6320.915;1;129;-225;-229.7;32.8;33.1;7;7.2;29.0;0.0;
07/04/2021 21:56:00;100;0;129.12;-17;-17.51;0.03;40.6;4.10;73422;4417.925;-6320.910;1;129;-225;-229.7;32.8;33.1;7;6.8;29.0;0.0;
07/04/2021 21:56:20;100;0;129.27;-17;-17.35;0.00;44.1;4.00;73420;4417.922;-6320.904;1;129;-225;-229.7;32.8;33.1;7;6.8;29.0;0.0;
07/04/2021 21:56:40;100;0;128.57;-17;-17.19;0.07;47.5;4.00;73425;4417.919;-6320.899;1;129;-225;-229.7;32.8;33.1;7;6.3;29.0;0.0;
07/04/2021 21:57:00;100;0;127.67;-17;-17.08;0.02;50.9;4.00;73425;4417.916;-6320.894;1;129;-225;-229.7;32.8;33.1;5;4.5;29.0;0.0;
07/04/2021 21:57:20;100;0;127.83;-17;-16.95;-1.33;54.1;4.00;73428;4417.913;-6320.888;1;129;-225;-229.7;33.3;33.5;5;4.1;29.0;0.0;
07/04/2021 21:57:40;100;0;128.19;-17;-18.11;-1.17;57.6;4.00;73420;4417.910;-6320.883;1;129;-225;-229.7;33.3;33.7;5;4.1;29.0;0.0;
07/04/2021 21:58:00;100;0;128.15;-17;-17.89;-1.35;61.1;4.00;73417;4417.907;-6320.878;1;129;-225;-229.7;33.3;33.7;5;4.1;29.0;0.0;
07/04/2021 21:58:20;100;0;130.37;-17;-17.88;-1.28;64.6;4.00;73413;4417.904;-6320.873;1;129;-225;-229.7;33.3;33.7;8;8.6;29.0;0.0;
07/04/2021 21:58:40;100;0;131.99;-17;-17.96;1.19;68.1;3.90;73403;4417.901;-6320.868;1;129;-225;-229.7;33.3;33.7;10;10.4;29.0;0.0;
07/04/2021 21:59:00;100;0;127.34;-17;-17.10;2.15;71.5;3.90;73408;4417.898;-6320.862;1;129;-225;-229.7;33.3;33.8;4;4.1;29.0;0.0;
07/04/2021 21:59:20;100;0;127.26;-17;-16.58;-1.51;74.7;3.90;73432;4417.895;-6320.857;1;129;-225;-229.7;34.0;34.1;4;3.6;29.0;0.0;
07/04/2021 21:59:40;100;0;127.45;-17;-17.22;-1.47;77.9;3.90;73467;4417.892;-6320.852;1;129;-225;-231.7;34.0;34.3;4;3.2;29.0;42.8;
07/04/2021 22:00:00;100;0;127.54;-17;-17.17;-1.44;81.2;3.90;73479;4417.890;-6320.847;1;129;-225;-229.7;34.0;34.3;4;3.6;29.0;39.3;
07/04/2021 22:00:20;100;0;128.28;-17;-16.82;-1.53;84.3;3.90;73519;4417.887;-6320.842;1;129;-225;-229.7;34.6;34.6;4;3.6;29.0;35.3;
07/04/2021 22:00:40;100;0;128.55;-17;-17.24;-1.62;87.7;3.90;73542;4417.884;-6320.837;1;129;-225;-229.7;34.6;34.7;6;5.9;29.0;31.4;
07/04/2021 22:01:00;100;0;128.46;-17;-17.17;0.01;90.9;3.90;73566;4417.881;-6320.832;1;129;-225;-231.7;34.6;34.7;6;6.3;29.0;27.3;
07/04/2021 22:01:20;100;0;128.12;-17;-16.91;0.15;94.2;3.90;73598;4417.878;-6320.827;1;129;-225;-229.7;35.2;35.3;6;6.3;29.0;23.5;
07/04/2021 22:01:40;100;0;128.03;-17;-17.65;0.23;97.3;3.90;73635;4417.875;-6320.822;1;129;-225;-229.7;35.2;35.5;6;6.3;29.0;20.2;
07/04/2021 22:02:00;100;0;129.08;-17;-17.81;-0.09;100.7;4.00;73656;4417.873;-6320.817;1;129;-225;-229.7;35.2;35.5;6;6.8;29.0;15.6;
07/04/2021 22:02:20;100;0;131.26;-17;-17.33;0.02;103.9;4.00;73706;4417.869;-6320.812;1;129;-225;-229.7;35.2;35.5;9;9.0;29.0;12.0;
07/04/2021 22:02:40;118;0;128.67;-17;-17.17;1.68;107.1;4.00;73762;4417.867;-6320.807;1;129;500;-229.7;18.9;22.5;-2;-2.3;29.0;10.1;
07/04/2021 22:02:50;118;0;128.67;-17;1.91;-4.38;108.2;4.00;73711;4417.866;-6320.807;1;129;500;-166.3;18.9;18.5;-2;-2.7;29.0;-1.0;
07/04/2021 22:03:00;118;0;128.67;-17;19.76;-4.30;108.1;4.10;73477;4417.866;-6320.807;1;129;500;-13.9;18.9;19.1;-2;-2.3;28.5;-1.0;
07/04/2021 22:03:10;118;0;128.67;-17;23.17;-4.55;107.6;4.10;73236;4417.866;-6320.806;1;129;500;138.6;18.9;19.2;-2;-2.3;28.5;-1.0;
07/04/2021 22:03:20;118;0;128.67;-17;19.96;-4.52;107.2;4.10;73000;4417.866;-6320.805;1;129;500;289.1;18.9;19.1;-2;-2.3;28.5;-1.0;
07/04/2021 22:03:30;118;0;128.67;-17;20.61;-4.28;106.4;4.10;72763;4417.865;-6320.804;1;129;500;435.6;18.9;19.2;-2;-2.3;28.5;-1.0;
07/04/2021 22:03:40;118;0;128.67;-17;21.41;-4.43;105.3;4.10;72600;4417.864;-6320.803;1;129;500;506.9;18.9;19.1;-2;-2.3;28.5;-1.0;
07/04/2021 22:03:50;118;0;127.94;-17;22.81;-4.67;103.9;4.20;72604;4417.863;-6320.801;1;129;500;505.0;18.9;19.2;-2;-2.3;29.0;-1.0;
07/04/2021 22:04:10;117;0;123.93;-17;21.70;-4.92;100.6;4.20;72596;4417.861;-6320.796;1;129;500;506.9;19.8;19.8;-2;-2.3;29.0;-1.0;
07/04/2021 22:04:30;117;0;122.71;-17;19.37;-4.58;97.3;4.20;72575;4417.858;-6320.791;1;129;500;508.9;19.8;20.0;10;9.9;29.0;-1.0;
07/04/2021 22:04:50;117;0;127.14;-17;18.66;2.33;94.2;4.30;72540;4417.856;-6320.787;1;129;500;508.9;19.8;20.0;5;5.0;29.0;-1.0;
07/04/2021 22:05:10;117;0;127.15;-17;18.22;-0.89;91.1;4.30;72519;4417.853;-6320.782;1;129;500;508.9;19.8;20.0;5;4.5;29.0;-1.0;
07/04/2021 22:05:30;117;0;128.66;-17;17.78;-0.95;88.1;4.30;72492;4417.851;-6320.777;1;129;500;506.9;19.8;20.0;3;3.2;29.0;-1.0;
07/04/2021 22:05:50;117;0;128.71;-17;17.94;-1.88;85.1;4.30;72464;4417.848;-6320.773;1;129;500;508.9;19.8;20.0;3;2.3;29.0;-1.0;
07/04/2021 22:06:10;117;0;129.85;-17;17.84;-1.88;82.2;4.30;72440;4417.846;-6320.769;1;129;500;508.9;19.8;20.1;3;2.7;29.0;-1.0;
07/04/2021 22:06:30;117;0;131.87;-17;17.65;-1.78;79.3;4.30;72424;4417.843;-6320.765;1;129;500;506.9;19.8;20.0;-1;-0.9;29.0;-1.0;
07/04/2021 22:06:50;117;0;133.49;-17;17.44;-3.98;76.6;4.30;72402;4417.840;-6320.761;1;129;500;506.9;19.8;20.0;-3;-3.6;29.0;-1.0;
07/04/2021 22:07:10;117;0;130.61;-17;17.17;-5.20;73.9;4.30;72378;4417.838;-6320.757;1;129;500;508.9;19.8;20.0;1;0.9;28.9;-1.0;
07/04/2021 22:07:30;117;0;132.46;-17;17.10;-2.19;71.2;4.30;72349;4417.835;-6320.753;1;129;500;508.9;19.8;20.0;-2;-2.3;29.0;-1.0;
07/04/2021 22:07:50;117;0;132.07;-17;16.59;-4.59;68.8;4.30;72311;4417.833;-6320.749;1;129;500;508.9;19.1;19.1;-2;-2.3;29.0;-1.0;
07/04/2021 22:08:10;117;0;128.93;-17;18.04;-4.72;66.3;4.20;72275;4417.831;-6320.745;1;129;500;508.9;19.1;18.9;3;3.6;29.0;-1.0;
07/04/2021 22:08:30;117;0;129.10;-17;17.88;-1.01;63.6;4.20;72254;4417.829;-6320.741;1;129;500;508.9;19.1;18.9;3;4.1;29.0;-1.0;
07/04/2021 22:08:50;117;0;128.17;-17;17.54;-0.98;61.1;4.20;72250;4417.826;-6320.738;1;129;500;508.9;19.1;18.9;3;4.5;29.0;-1.0;
07/04/2021 22:09:10;117;0;128.21;-17;17.56;-1.01;58.5;4.20;72235;4417.824;-6320.734;1;129;500;508.9;19.1;18.8;3;4.5;29.0;-1.0;
07/04/2021 22:09:30;117;0;131.04;-17;17.38;-0.76;56.0;4.10;72226;4417.822;-6320.730;1;129;500;506.9;19.1;18.9;0;0.0;29.0;-1.0;
07/04/2021 22:09:50;117;0;129.24;-17;17.48;-3.55;53.6;4.10;72218;4417.820;-6320.726;1;129;500;508.9;19.1;18.8;2;1.8;29.0;-1.0;
07/04/2021 22:10:10;117;0;130.15;-17;17.23;-1.87;51.1;4.10;72218;4417.817;-6320.722;1;129;500;508.9;19.1;18.9;2;2.7;29.0;-1.0;
07/04/2021 22:10:30;117;0;130.47;-17;16.98;-1.79;48.7;4.10;72210;4417.815;-6320.719;1;129;500;506.9;18.6;18.5;2;2.7;29.0;-1.0;
07/04/2021 22:10:50;117;0;132.77;-17;18.19;-1.70;46.1;4.10;72209;4417.813;-6320.715;1;129;500;506.9;18.6;18.2;-2;-1.8;29.0;-1.0;
07/04/2021 22:11:10;117;0;131.16;-17;18.23;-4.46;43.5;4.00;72202;4417.811;-6320.711;1;129;500;508.9;18.6;18.2;0;0.0;29.0;-1.0;
07/04/2021 22:11:30;117;0;131.64;-17;18.30;-2.89;41.0;4.00;72202;4417.808;-6320.708;1;129;500;508.9;18.6;18.2;0;0.5;29.0;-1.0;
07/04/2021 22:11:50;117;0;131.33;-17;18.19;-2.89;38.4;4.00;72195;4417.806;-6320.704;1;129;500;508.9;18.6;18.2;0;0.5;29.0;-1.0;
07/04/2021 22:12:10;117;0;131.17;-17;18.23;-2.86;35.8;4.00;72184;4417.804;-6320.700;1;129;500;508.9;18.6;18.2;0;0.5;29.0;-1.0;
07/04/2021 22:12:30;117;0;131.27;-17;17.99;-2.82;33.3;4.00;72174;4417.801;-6320.697;1;129;500;508.9;18.6;18.2;0;0.9;29.0;-1.0;
07/04/2021 22:12:50;117;0;128.20;-17;18.04;-3.06;30.8;4.00;72183;4417.799;-6320.693;1;129;500;508.9;18.6;18.2;3;3.2;29.0;-1.0;
07/04/2021 22:13:10;117;0;129.97;-17;17.96;-1.10;28.4;4.00;72176;4417.797;-6320.689;1;129;500;510.9;18.6;18.2;1;0.5;29.0;-1.0;
07/04/2021 22:13:30;117;0;127.53;-17;17.44;-3.23;26.0;3.90;72163;4417.795;-6320.686;1;129;500;508.9;18.6;18.2;4;4.1;29.0;-1.0;
07/04/2021 22:13:50;117;0;127.53;-17;17.18;-0.92;23.7;3.90;72153;4417.793;-6320.682;1;129;500;508.9;18.6;18.2;4;4.5;29.0;-1.0;
07/04/2021 22:14:10;117;0;127.15;-17;17.08;-0.82;21.4;3.90;72150;4417.791;-6320.678;1;129;500;506.9;18.6;18.2;4;4.5;29.0;-1.0;
07/04/2021 22:14:30;117;0;127.34;-17;17.26;-0.73;18.9;3.90;72153;4417.789;-6320.674;1;129;500;508.9;18.6;18.2;4;4.5;29.0;-1.0;
07/04/2021 22:14:50;117;0;126.94;-17;17.01;-1.06;16.5;3.90;72148;4417.787;-6320.671;1;129;500;508.9;18.6;18.2;4;4.5;29.0;-1.0;
07/04/2021 22:15:10;117;0;126.75;-17;16.84;-0.94;14.1;3.80;72130;4417.785;-6320.667;1;129;500;508.9;18.0;18.0;4;4.5;29.0;-1.0;
07/04/2021 22:15:30;117;0;126.89;-17;17.96;-0.92;11.6;3.90;72137;4417.783;-6320.663;1;129;500;506.9;18.0;17.7;4;4.5;29.0;-1.0;
