Timestamp;NavState;SecurityLevel;Heading;Declination;Pitch;Roll;Depth;Temperature;Pa;Lat;Lon;DesiredH;BallastCmd;BallastPos;LinCmd;LinPos;AngCmd;AngPos;Voltage;Altitude;
14/06/2019 05:40:44;117;0;226.20;17;22.40;10.94;9.8;11.70;69489;5138.102;-12820.267;208;200;205.9;54;53.9;-3;-3.2;29.2;-1.0;
14/06/2019 05:40:54;115;0;223.38;17;22.46;2.03;8.6;11.70;69489;5138.102;-12820.267;208;500;217.8;100;99.1;0;0.9;29.2;-1.0;
14/06/2019 05:41:04;115;0;194.92;17;-12.91;4.96;7.7;11.70;69412;5138.102;-12820.267;208;500;370.3;100;100.4;0;0.9;28.9;-1.0;
14/06/2019 05:41:14;115;0;195.26;17;-60.07;0.87;8.5;11.80;69204;5138.102;-12820.267;208;500;505.0;100;100.4;0;1.4;28.9;-1.0;
14/06/2019 05:41:24;115;0;248.74;17;-61.01;1.75;7.9;11.80;68989;5138.102;-12820.267;208;500;505.0;100;100.6;0;0.9;29.2;-1.0;
14/06/2019 05:41:34;115;0;248.59;17;-35.03;3.59;5.0;11.80;69010;5138.102;-12820.267;208;500;506.9;100;100.4;0;0.9;29.2;-1.0;
14/06/2019 05:41:44;116;0;321.04;17;-71.55;-16.72;1.8;11.80;69009;5138.102;-12820.267;208;500;508.9;100;100.4;0;0.9;29.2;-1.0;
14/06/2019 05:42:04;116;0;286.90;17;-5.72;-1.42;1.1;11.90;69044;5137.902;-12820.249;208;500;508.9;100;100.3;0;1.4;29.2;-1.0;
14/06/2019 05:42:24;116;0;309.56;17;-8.09;6.82;1.1;11.90;69041;5137.900;-12820.245;208;500;508.9;100;100.3;0;0.9;29.2;-1.0;
14/06/2019 05:42:47;116;0;326.16;17;-16.41;-1.15;1.2;12.00;69067;5137.900;-12820.245;208;500;508.9;100;100.3;0;0.9;29.2;-1.0;
14/06/2019 05:43:07;116;0;323.70;17;-26.41;3.43;1.3;12.10;69078;5137.901;-12820.243;208;500;508.9;100;100.4;0;0.9;29.2;-1.0;
14/06/2019 05:43:27;116;0;269.02;17;-4.28;5.95;1.2;12.20;69074;5137.898;-12820.238;208;500;508.9;100;100.3;0;0.9;29.2;-1.0;
14/06/2019 05:45:23;116;0;292.61;17;-21.05;5.19;1.1;12.80;69130;5137.897;-12820.238;208;500;510.9;100;100.3;0;0.9;29.2;-1.0;
14/06/2019 05:45:43;116;0;298.10;17;-13.82;-1.56;1.1;12.90;69118;5137.896;-12820.238;208;500;508.9;100;100.3;0;0.9;29.2;-1.0;
14/06/2019 05:46:03;116;0;300.97;17;-21.17;1.86;1.2;13.00;69129;5137.888;-12820.232;208;500;506.9;100;100.4;0;0.9;29.2;-1.0;
14/06/2019 05:46:23;116;0;287.75;17;-33.51;3.28;1.3;13.10;69136;5137.886;-12820.231;208;500;508.9;100;100.4;0;0.9;29.2;-1.0;
14/06/2019 05:46:43;116;0;292.85;17;-14.20;-0.31;1.1;13.20;69141;5137.865;-12820.217;208;500;508.9;100;100.4;0;0.9;29.2;-1.0;
14/06/2019 05:47:03;116;0;286.96;17;-8.10;0.65;1.1;13.30;69148;5137.887;-12820.196;208;500;508.9;100;100.3;0;0.9;29.2;-1.0;
14/06/2019 05:48:15;116;0;287.09;17;-10.58;4.56;1.1;13.80;69165;5137.887;-12820.195;208;500;506.9;100;100.3;0;0.9;29.2;-1.0;
14/06/2019 05:48:35;116;0;299.67;17;-8.79;-2.69;1.1;13.90;69157;5137.892;-12820.199;208;500;508.9;100;100.3;0;0.9;29.2;-1.0;
14/06/2019 05:48:55;116;0;288.07;17;-4.89;1.82;1.1;13.90;69168;5137.895;-12820.202;208;500;510.9;100;100.4;0;1.4;29.2;-1.0;
14/06/2019 05:49:15;116;0;301.40;17;-28.25;3.86;1.3;14.00;69179;5137.894;-12820.200;208;500;508.9;100;100.3;0;1.4;29.2;-1.0;
14/06/2019 05:49:35;116;0;291.10;17;-8.20;5.91;1.1;14.10;69174;5137.897;-12820.201;208;500;508.9;100;100.3;0;0.9;29.2;-1.0;
14/06/2019 05:49:55;116;0;293.39;17;-24.82;1.16;1.2;14.20;69183;5137.892;-12820.214;208;500;508.9;100;100.3;0;1.4;29.2;-1.0;
14/06/2019 05:50:15;116;0;296.79;17;-8.02;3.54;1.1;14.30;69184;5137.888;-12820.217;208;500;510.9;100;100.3;0;1.4;29.2;-1.0;
14/06/2019 05:50:35;110;0;297.24;17;-17.70;3.29;1.1;14.30;69176;5137.888;-12820.217;208;-250;405.9;100;100.4;0;0.9;29.2;-1.0;
14/06/2019 05:50:45;110;0;289.33;17;-23.21;6.65;1.2;14.30;69433;5137.888;-12820.217;208;-250;259.4;100;100.3;0;0.9;29.2;-1.0;
14/06/2019 05:50:55;110;0;303.64;17;-27.10;5.50;1.4;14.30;69617;5137.888;-12820.217;208;-250;101.0;100;100.4;0;0.9;29.1;-1.0;
14/06/2019 05:51:05;110;0;311.67;17;-57.84;-0.50;1.9;14.40;69886;5137.888;-12820.217;208;-250;-75.2;100;100.6;0;1.4;29.1;-1.0;
14/06/2019 05:51:15;110;0;326.16;17;-61.08;5.75;2.7;14.40;70171;5137.888;-12820.217;208;-250;-247.5;91;90.9;0;0.9;29.2;-1.0;
14/06/2019 05:51:25;110;0;305.29;17;-54.02;4.04;4.4;14.40;70462;5137.888;-12820.217;208;-250;-247.5;72;71.8;0;0.9;29.2;-1.0;
14/06/2019 05:51:35;100;0;292.32;17;-40.02;4.57;7.0;14.40;70434;5137.888;-12820.217;208;-250;-249.5;71;70.9;0;1.4;29.2;-1.0;
14/06/2019 05:51:55;100;0;267.73;17;-27.58;5.05;11.8;14.40;70438;5137.888;-12820.217;208;-250;-245.5;71;70.8;38;37.9;29.2;0.0;
14/06/2019 05:52:15;100;0;250.06;17;-19.82;21.60;15.9;14.40;70437;5137.888;-12820.217;208;-250;-243.6;71;70.8;21;21.2;29.2;0.0;
14/06/2019 05:52:35;100;0;234.39;17;-20.60;13.07;18.9;14.30;70422;5137.888;-12820.217;208;-250;-241.6;71;70.8;11;10.8;29.2;0.0;
14/06/2019 05:52:55;100;0;226.35;17;-21.69;7.71;21.8;14.30;70401;5137.888;-12820.217;208;-250;-241.6;71;70.8;8;8.1;29.2;0.0;
14/06/2019 05:53:15;100;0;225.69;17;-21.14;6.53;24.7;14.30;70369;5137.888;-12820.217;208;-250;-243.6;71;70.8;11;10.8;29.2;0.0;
14/06/2019 05:53:35;100;0;224.93;17;-20.89;8.84;27.4;14.20;70322;5137.888;-12820.217;208;-250;-243.6;71;70.6;12;12.2;29.2;0.0;
14/06/2019 05:53:55;100;0;218.37;17;-20.05;9.27;29.9;14.20;70286;5137.888;-12820.217;208;-250;-241.6;71;70.8;10;9.9;29.2;0.0;
14/06/2019 05:54:15;100;0;215.73;17;-19.63;7.53;32.5;14.10;70230;5137.888;-12820.217;208;-250;-241.6;71;70.8;11;10.8;29.2;0.0;
14/06/2019 05:54:35;100;0;211.03;17;-20.26;8.71;34.9;14.00;70197;5137.888;-12820.217;208;-250;-241.6;71;70.8;11;11.7;29.1;0.0;
14/06/2019 05:54:55;100;0;203.43;17;-19.57;8.66;37.4;13.90;70165;5137.888;-12820.217;208;-250;-241.6;71;70.6;8;8.1;29.2;0.0;
14/06/2019 05:55:15;100;0;195.32;17;-19.76;6.67;40.0;13.90;70140;5137.888;-12820.217;208;-250;-239.6;71;70.6;6;5.9;29.2;0.0;
14/06/2019 05:55:35;100;0;190.87;17;-19.83;5.39;42.7;13.80;70120;5137.888;-12820.217;208;-250;-241.6;71;70.6;6;5.0;29.2;0.0;
14/06/2019 05:55:55;100;0;189.69;17;-19.69;5.51;45.2;13.70;70093;5137.888;-12820.217;208;-250;-241.6;71;70.8;6;5.0;29.1;0.0;
14/06/2019 05:56:15;100;0;177.96;17;-19.63;5.92;47.7;13.60;70068;5137.888;-12820.217;208;-250;-241.6;71;70.6;1;0.9;29.2;0.0;
14/06/2019 05:56:35;100;0;172.22;17;-19.63;3.16;50.2;13.60;70062;5137.888;-12820.217;208;-250;-241.6;71;70.6;1;0.5;29.2;0.0;
14/06/2019 05:56:55;100;0;169.79;17;-19.95;3.38;52.6;13.50;70046;5137.888;-12820.217;208;-250;-239.6;71;70.8;1;0.5;29.2;0.0;
14/06/2019 05:57:15;100;0;166.93;17;-19.63;3.43;55.1;13.40;70032;5137.888;-12820.217;208;-250;-241.6;71;70.6;0;0.0;29.2;0.0;
14/06/2019 05:57:35;100;0;160.42;17;-19.60;2.84;57.6;13.40;70015;5137.888;-12820.217;208;-250;-241.6;71;70.6;-2;-2.3;29.2;0.0;
14/06/2019 05:57:55;100;0;154.52;17;-19.27;2.18;60.1;13.30;70006;5137.888;-12820.217;208;-250;-241.6;71;70.6;-4;-4.1;29.2;0.0;
14/06/2019 05:58:15;100;0;152.39;17;-19.64;1.07;62.6;13.30;69977;5137.888;-12820.217;208;-250;-241.6;71;70.6;-4;-5.0;29.2;0.0;
14/06/2019 05:58:35;100;0;148.89;17;-19.16;1.08;65.1;13.20;69977;5137.888;-12820.217;208;-250;-241.6;71;70.8;-5;-5.0;29.2;0.0;
14/06/2019 05:58:55;100;0;145.46;17;-18.77;0.72;67.7;13.10;69976;5137.888;-12820.217;208;-250;-241.6;71;70.6;-7;-7.2;29.2;0.0;
14/06/2019 05:59:15;100;0;141.58;17;-18.86;-0.43;70.1;13.10;69953;5137.888;-12820.217;208;-250;-241.6;71;70.6;-10;-9.9;29.2;0.0;
14/06/2019 05:59:35;100;0;139.11;17;-18.71;-1.57;72.4;13.00;69937;5137.888;-12820.217;208;-250;-241.6;71;70.6;-12;-12.2;29.2;0.0;
14/06/2019 05:59:55;100;0;134.43;17;-18.51;-2.57;74.7;13.00;69929;5137.888;-12820.217;208;-250;-241.6;71;70.6;-16;-15.8;29.2;0.0;
14/06/2019 06:00:15;100;0;130.25;17;-18.06;-4.14;76.9;12.90;69919;5137.888;-12820.217;208;-250;-239.6;71;70.6;-19;-19.0;29.2;0.0;
14/06/2019 06:00:35;100;0;128.58;17;-18.13;-5.50;79.1;12.80;69917;5137.888;-12820.217;208;-250;-241.6;71;70.6;-21;-21.2;29.2;0.0;
14/06/2019 06:00:55;100;0;126.19;17;-18.46;-6.74;81.1;12.80;69907;5137.888;-12820.217;208;-250;-239.6;71;70.6;-24;-23.9;29.2;0.0;
14/06/2019 06:01:15;100;0;131.76;17;-17.25;-8.13;83.1;12.70;69889;5137.888;-12820.217;208;-250;-239.6;71;70.6;-22;-22.1;29.2;0.0;
14/06/2019 06:01:35;100;0;137.92;17;-16.91;-6.56;85.0;12.70;69886;5137.888;-12820.217;208;-250;-239.6;71;70.6;-22;-21.2;29.2;0.0;
14/06/2019 06:01:55;100;0;139.86;17;-17.00;-6.60;86.9;12.60;69870;5137.888;-12820.217;208;-250;-239.6;71;70.6;-23;-23.0;29.2;0.0;
14/06/2019 06:02:15;100;0;139.50;17;-16.83;-7.71;88.8;12.60;69865;5137.888;-12820.217;208;-250;-239.6;71;70.6;-24;-24.4;29.2;0.0;
14/06/2019 06:02:35;100;0;140.28;17;-16.59;-8.15;90.5;12.50;69852;5137.888;-12820.217;208;-250;-241.6;71;70.6;-24;-24.8;29.2;0.0;
14/06/2019 06:02:55;100;0;139.97;17;-16.43;-8.25;92.3;12.50;69843;5137.888;-12820.217;208;-250;-239.6;71;70.6;-25;-24.8;29.2;0.0;
14/06/2019 06:03:15;100;0;141.66;17;-16.37;-8.34;94.1;12.40;69835;5137.888;-12820.217;208;-250;-239.6;71;70.6;-24;-23.5;29.2;0.0;
14/06/2019 06:03:35;100;0;143.11;17;-15.94;-7.27;95.8;12.40;69821;5137.888;-12820.217;208;-250;-239.6;71;70.6;-23;-23.0;29.2;0.0;
14/06/2019 06:03:55;100;0;144.51;17;-16.04;-7.37;97.3;12.30;69818;5137.888;-12820.217;208;-250;-239.6;71;70.6;-23;-23.0;29.2;0.0;
14/06/2019 06:04:15;100;0;145.29;17;-16.06;-7.39;98.9;12.20;69806;5137.888;-12820.217;208;-250;-239.6;71;70.6;-23;-23.0;29.2;0.0;
14/06/2019 06:04:35;100;0;146.11;17;-15.80;-7.35;100.4;12.20;69802;5137.888;-12820.217;208;-250;-239.6;71;70.6;-23;-23.0;29.2;0.0;
14/06/2019 06:04:55;100;0;145.05;17;-15.83;-7.36;102.0;12.20;69797;5137.888;-12820.217;208;-250;-239.6;71;70.6;-23;-22.6;29.2;0.0;
14/06/2019 06:05:15;100;0;145.61;17;-15.48;-7.37;103.5;12.10;69781;5137.888;-12820.217;208;-250;-239.6;71;70.6;-23;-23.0;29.2;0.0;
14/06/2019 06:05:35;100;0;147.36;17;-15.41;-7.37;105.2;12.10;69776;5137.888;-12820.217;208;-250;-239.6;71;70.6;-22;-21.7;29.2;0.0;
14/06/2019 06:05:55;100;0;146.79;17;-15.60;-6.48;106.7;12.00;69764;5137.888;-12820.217;208;-250;-241.6;71;70.6;-23;-23.0;29.2;0.0;
14/06/2019 06:06:15;100;0;148.82;17;-15.56;-7.66;108.3;11.90;69772;5137.888;-12820.217;208;-250;-239.6;71;70.6;-22;-22.1;29.2;0.0;
14/06/2019 06:06:35;100;0;151.82;17;-15.46;-6.80;109.9;11.90;69769;5137.888;-12820.217;208;-250;-239.6;71;70.6;-21;-21.2;29.2;0.0;
14/06/2019 06:06:55;100;0;149.89;17;-15.39;-6.11;111.4;11.80;69744;5137.888;-12820.217;208;-250;-239.6;71;70.6;-23;-23.5;29.2;43.8;
14/06/2019 06:07:15;100;0;151.86;17;-15.23;-7.88;112.9;11.80;69746;5137.888;-12820.217;208;-250;-239.6;71;70.6;-22;-22.1;29.2;42.2;
14/06/2019 06:07:35;100;0;153.70;17;-15.34;-6.96;114.5;11.70;69737;5137.888;-12820.217;208;-250;-239.6;71;70.6;-21;-21.2;29.2;40.6;
14/06/2019 06:07:55;100;0;156.89;17;-15.24;-6.38;116.0;11.70;69727;5137.888;-12820.217;208;-250;-239.6;71;70.6;-20;-19.4;29.2;39.1;
14/06/2019 06:08:15;100;0;160.16;17;-14.94;-5.46;117.3;11.70;69721;5137.888;-12820.217;208;-250;-239.6;71;70.6;-18;-18.1;29.2;37.6;
14/06/2019 06:08:35;100;0;164.36;17;-15.02;-4.79;118.9;11.60;69720;5137.888;-12820.217;208;-250;-239.6;71;70.6;-17;-17.1;29.2;36.1;
14/06/2019 06:08:55;100;0;165.37;17;-14.27;-4.78;120.4;11.60;69708;5137.888;-12820.217;208;-250;-239.6;71;70.6;-18;-18.1;29.2;34.8;
14/06/2019 06:09:15;100;0;163.13;17;-14.46;-5.21;121.8;11.50;69705;5137.888;-12820.217;208;-250;-237.6;71;70.6;-20;-19.9;29.2;33.3;
14/06/2019 06:09:35;100;0;163.45;17;-14.46;-6.17;123.1;11.50;69694;5137.888;-12820.217;208;-250;-239.6;71;70.6;-20;-20.3;29.2;31.9;
14/06/2019 06:09:55;100;0;164.03;17;-14.51;-6.23;124.4;11.40;69692;5137.888;-12820.217;208;-250;-239.6;71;70.6;-19;-19.0;29.2;30.4;
14/06/2019 06:10:15;100;0;163.45;17;-14.32;-5.26;125.8;11.40;69689;5137.888;-12820.217;208;-250;-237.6;71;70.5;-20;-19.9;29.2;29.0;
14/06/2019 06:10:35;100;0;165.01;17;-14.33;-6.26;127.0;11.30;69672;5137.888;-12820.217;208;-250;-239.6;71;70.6;-19;-19.0;29.2;27.8;
14/06/2019 06:10:56;100;0;168.75;17;-14.19;-5.40;128.3;11.30;69663;5137.888;-12820.217;208;-250;-235.6;71;70.6;-17;-17.1;29.2;26.5;
14/06/2019 06:11:16;100;0;170.78;17;-13.88;-4.36;129.5;11.30;69659;5137.888;-12820.217;208;-250;-237.6;71;70.6;-17;-16.2;29.2;25.2;
14/06/2019 06:11:36;100;0;171.38;17;-13.97;-4.31;130.8;11.20;69647;5137.888;-12820.217;208;-250;-237.6;71;70.6;-17;-16.2;29.2;23.9;
14/06/2019 06:11:56;100;0;172.68;17;-14.06;-4.34;132.0;11.20;69646;5137.888;-12820.217;208;-250;-239.6;71;70.6;-17;-16.2;29.2;22.7;
14/06/2019 06:12:16;100;0;175.03;17;-13.80;-4.37;133.2;11.10;69644;5137.888;-12820.217;208;-250;-239.6;71;70.6;-16;-15.8;29.2;21.5;
14/06/2019 06:12:36;100;0;174.68;17;-13.95;-3.64;134.4;11.10;69625;5137.888;-12820.217;208;-250;-237.6;71;70.6;-17;-17.6;29.2;20.2;
14/06/2019 06:12:56;100;0;174.56;17;-13.88;-5.12;135.6;11.00;69616;5137.888;-12820.217;208;-250;-237.6;71;70.6;-17;-18.1;29.2;19.0;
14/06/2019 06:13:16;118;0;174.40;17;-13.83;-5.13;136.8;11.00;69611;5137.888;-12820.217;208;200;-221.8;54;53.7;0;0.9;29.2;17.7;
14/06/2019 06:13:26;118;0;141.57;17;12.50;4.02;137.3;11.00;69537;5137.888;-12820.217;208;200;-65.3;54;54.1;0;0.5;28.7;17.7;
14/06/2019 06:13:36;118;0;142.87;17;30.19;3.41;136.8;11.00;69320;5137.888;-12820.217;208;200;89.1;54;54.1;0;0.5;28.7;-1.0;
14/06/2019 06:13:46;118;0;143.69;17;30.44;3.72;135.7;10.90;69060;5137.888;-12820.217;208;200;204.0;54;54.1;0;0.9;28.7;-1.0;
14/06/2019 06:13:56;118;0;179.75;17;31.52;3.49;134.0;10.90;68893;5137.888;-12820.217;208;200;207.9;54;54.1;0;0.9;29.2;-1.0;
14/06/2019 06:14:06;118;0;177.27;17;33.84;3.62;131.9;10.90;68897;5137.888;-12820.217;208;200;205.9;54;54.1;0;0.5;29.2;-1.0;
14/06/2019 06:14:16;117;0;173.98;17;34.19;3.63;129.1;10.90;68894;5137.888;-12820.217;208;200;205.9;54;54.1;0;0.9;29.2;-1.0;
14/06/2019 06:14:36;117;0;170.12;17;34.31;3.97;123.1;10.90;68904;5137.888;-12820.217;208;200;205.9;54;54.1;20;19.9;29.2;-1.0;
14/06/2019 06:14:56;117;0;172.42;17;33.95;13.73;116.7;10.80;68894;5137.888;-12820.217;208;200;205.9;54;54.1;18;18.1;29.2;-1.0;
14/06/2019 06:15:16;117;0;174.64;17;33.47;12.34;110.7;10.80;68916;5137.888;-12820.217;208;200;205.9;54;54.1;17;17.1;29.2;-1.0;
14/06/2019 06:15:36;117;0;177.00;17;33.43;11.42;104.8;10.80;68926;5137.888;-12820.217;208;200;205.9;54;54.1;16;15.8;29.2;-1.0;
14/06/2019 06:15:56;117;0;181.03;17;32.72;10.70;98.9;10.70;68932;5137.888;-12820.217;208;200;205.9;54;54.1;14;14.0;29.2;-1.0;
14/06/2019 06:16:16;117;0;181.62;17;32.29;9.53;93.3;10.70;68940;5137.888;-12820.217;208;200;205.9;54;54.1;15;15.3;29.2;-1.0;
14/06/2019 06:16:36;117;0;186.01;17;31.13;10.78;88.3;10.70;68941;5137.888;-12820.217;208;200;205.9;54;54.1;13;13.1;29.1;-1.0;
14/06/2019 06:16:56;117;0;182.50;17;31.87;8.98;83.4;10.60;68950;5137.888;-12820.217;208;200;205.9;54;54.1;16;16.2;29.2;-1.0;
14/06/2019 06:17:16;117;0;184.39;17;30.40;11.72;78.6;10.60;68954;5137.888;-12820.217;208;200;205.9;54;54.1;15;14.4;29.2;-1.0;
14/06/2019 06:17:36;117;0;189.51;17;28.97;10.14;74.1;10.60;68977;5137.888;-12820.217;208;200;205.9;54;54.1;13;12.6;29.2;-1.0;
14/06/2019 06:17:56;117;0;189.83;17;29.00;9.16;70.0;10.60;68976;5137.888;-12820.217;208;200;205.9;54;54.1;14;14.0;29.2;-1.0;
14/06/2019 06:18:16;117;0;191.02;17;28.10;10.27;66.0;10.60;68995;5137.888;-12820.217;208;200;205.9;54;54.1;14;14.4;29.2;-1.0;
14/06/2019 06:18:36;117;0;191.59;17;28.35;10.46;62.2;10.60;68994;5137.888;-12820.217;208;200;205.9;54;54.1;14;14.4;29.2;-1.0;
14/06/2019 06:18:56;117;0;196.34;17;27.87;10.33;58.3;10.60;69008;5137.888;-12820.217;208;200;207.9;54;54.1;11;10.8;29.2;-1.0;
14/06/2019 06:19:16;117;0;192.63;17;27.94;8.20;54.3;10.60;69022;5137.888;-12820.217;208;200;205.9;54;54.1;15;14.9;29.2;-1.0;
14/06/2019 06:19:36;117;0;197.46;17;27.77;10.94;50.2;10.50;69028;5137.888;-12820.217;208;200;207.9;54;54.1;11;10.8;29.2;-1.0;
14/06/2019 06:19:56;117;0;201.14;17;27.58;8.12;46.1;10.50;69031;5137.888;-12820.217;208;200;205.9;54;54.1;9;9.0;29.2;-1.0;
14/06/2019 06:20:16;117;0;195.68;17;27.15;7.28;42.3;10.50;69042;5137.888;-12820.217;208;200;207.9;54;54.1;14;14.4;29.2;-1.0;
14/06/2019 06:20:36;117;0;195.41;17;27.16;10.66;38.6;10.50;69067;5137.888;-12820.217;208;200;205.9;54;54.1;13;13.1;29.2;-1.0;
14/06/2019 06:20:56;117;0;196.20;17;26.40;9.22;35.0;10.50;69071;5137.888;-12820.217;208;200;205.9;54;54.1;12;12.2;29.2;-1.0;
14/06/2019 06:21:16;117;0;193.05;17;26.24;8.95;31.6;10.50;69086;5137.888;-12820.217;208;200;205.9;54;54.1;14;14.0;29.2;-1.0;
14/06/2019 06:21:36;117;0;196.39;17;25.51;10.71;28.5;10.60;69112;5137.888;-12820.217;208;200;205.9;54;54.1;11;10.8;29.2;-1.0;
14/06/2019 06:21:56;117;0;194.35;17;24.66;8.13;25.6;10.60;69160;5137.888;-12820.217;208;200;207.9;54;54.1;13;13.1;29.2;-1.0;
14/06/2019 06:22:16;117;0;193.54;17;24.08;9.82;23.0;10.60;69206;5137.888;-12820.217;208;200;205.9;54;54.1;13;13.5;29.2;-1.0;
14/06/2019 06:22:36;117;0;193.88;17;23.84;9.93;20.3;10.60;69262;5137.888;-12820.217;208;200;205.9;54;54.1;12;12.2;29.2;-1.0;
14/06/2019 06:22:56;117;0;192.07;17;24.45;8.54;17.5;10.70;69317;5137.888;-12820.217;208;200;205.9;54;54.1;13;13.1;29.2;-1.0;
14/06/2019 06:23:16;117;0;193.44;17;23.96;10.20;14.6;10.70;69358;5137.888;-12820.217;208;200;205.9;54;54.1;12;12.2;29.2;-1.0;
14/06/2019 06:23:36;117;0;205.56;17;23.71;9.08;11.8;10.70;69388;5137.888;-12820.217;208;200;205.9;54;54.1;5;4.5;29.2;-1.0;
