Timestamp;NavState;SecurityLevel;Heading;Declination;Pitch;Roll;Depth;Temperature;Pa;Lat;Lon;DesiredH;BallastCmd;BallastPos;LinCmd;LinPos;AngCmd;AngPos;Voltage;Altitude;
15/06/2019 09:35:17;117;0;261.30;17;15.50;2.24;9.8;10.70;69481;5125.913;-12830.893;253;150;160.4;57;57.1;-4;-4.1;29.0;-1.0;
15/06/2019 09:35:27;115;0;258.44;17;15.62;0.91;9.1;10.70;69497;5125.913;-12830.893;253;500;172.3;100;100.3;0;0.9;28.9;-1.0;
15/06/2019 09:35:37;115;0;242.52;17;-28.14;4.88;8.6;10.70;69417;5125.913;-12830.893;253;500;320.8;100;99.9;0;0.9;28.6;-1.0;
15/06/2019 09:35:47;115;0;277.97;17;-68.01;1.81;9.2;10.70;69221;5125.913;-12830.893;253;500;473.3;100;99.9;0;0.9;28.6;-1.0;
15/06/2019 09:35:57;115;0;294.96;17;-57.57;1.48;7.9;10.80;68979;5125.913;-12830.893;253;500;505.0;100;99.9;0;0.9;28.6;-1.0;
15/06/2019 09:36:07;115;0;300.94;17;-33.00;2.64;5.1;10.80;68959;5125.913;-12830.893;253;500;506.9;100;99.7;0;0.9;28.9;-1.0;
15/06/2019 09:36:17;116;0;8.40;17;-79.68;-19.15;1.6;10.90;68971;5125.913;-12830.893;253;500;506.9;100;99.9;0;0.9;28.9;-1.0;
15/06/2019 09:36:37;116;0;353.32;17;-29.32;5.51;1.3;10.90;68996;5125.913;-12830.893;253;500;506.9;100;99.7;0;0.9;28.9;-1.0;
15/06/2019 09:36:57;116;0;306.16;17;-9.40;-0.32;1.3;11.00;69002;5125.439;-12831.713;253;500;508.9;100;99.7;0;0.9;28.9;-1.0;
15/06/2019 09:37:18;116;0;293.06;17;-12.17;3.09;1.3;11.10;69009;5125.438;-12831.714;253;500;508.9;100;99.7;0;0.9;28.9;-1.0;
15/06/2019 09:37:38;116;0;279.94;17;-18.71;-2.09;1.2;11.20;69025;5125.437;-12831.719;257;500;508.9;100;99.7;0;1.4;29.0;-1.0;
15/06/2019 09:37:58;116;0;295.22;17;-6.96;-0.62;1.3;11.30;69032;5125.419;-12831.753;257;500;508.9;100;99.7;0;0.9;28.9;-1.0;
15/06/2019 09:39:43;116;0;297.57;17;-5.99;1.34;1.2;12.10;69078;5125.419;-12831.751;257;500;510.9;100;99.7;0;0.9;28.9;-1.0;
15/06/2019 09:40:03;116;0;304.99;17;-9.23;5.01;1.2;12.20;69093;5125.407;-12831.763;257;500;508.9;100;99.7;0;0.9;28.9;-1.0;
15/06/2019 09:40:25;116;0;301.99;17;-7.89;3.28;1.2;12.30;69098;5125.405;-12831.764;257;500;508.9;100;99.7;0;0.9;28.9;-1.0;
15/06/2019 09:40:45;116;0;282.53;17;-10.14;4.98;1.3;12.50;69102;5125.397;-12831.771;257;500;510.9;100;99.7;0;0.9;28.9;-1.0;
15/06/2019 09:41:05;116;0;288.53;17;-32.34;8.61;1.5;12.60;69108;5125.354;-12831.876;257;500;508.9;100;99.6;0;0.9;28.9;-1.0;
15/06/2019 09:46:41;116;0;301.14;17;-5.48;3.78;1.2;13.80;69187;5125.353;-12831.876;257;500;508.9;100;99.7;0;0.9;29.0;-1.0;
15/06/2019 09:47:01;116;0;297.09;17;-11.91;-1.83;1.3;13.80;69190;5125.351;-12831.882;257;500;508.9;100;99.7;0;0.9;28.9;-1.0;
15/06/2019 09:47:21;116;0;291.58;17;-6.74;2.75;1.2;13.90;69190;5125.348;-12831.887;257;500;508.9;100;99.7;0;0.9;29.0;-1.0;
15/06/2019 09:47:41;116;0;302.70;17;-9.69;4.26;1.2;13.90;69200;5125.346;-12831.895;257;500;508.9;100;99.7;0;1.4;28.9;-1.0;
15/06/2019 09:48:01;116;0;304.48;17;-3.98;2.94;1.2;13.90;69196;5125.343;-12831.899;257;500;508.9;100;99.7;0;0.9;28.9;-1.0;
15/06/2019 09:48:21;116;0;286.56;17;-9.26;3.00;1.2;14.00;69206;5125.339;-12831.904;257;500;510.9;100;99.7;0;0.9;28.9;-1.0;
15/06/2019 09:48:41;116;0;280.53;17;-10.12;4.31;1.2;14.00;69201;5125.337;-12831.910;257;500;508.9;100;99.7;0;0.9;28.9;-1.0;
15/06/2019 09:49:01;116;0;279.96;17;-4.09;2.82;1.2;14.10;69207;5125.334;-12831.916;257;500;508.9;100;99.6;0;0.9;28.9;-1.0;
15/06/2019 09:49:21;116;0;283.26;17;-8.76;2.88;1.2;14.10;69204;5125.331;-12831.921;257;500;508.9;100;99.7;0;0.9;28.9;-1.0;
15/06/2019 09:49:41;116;0;297.45;17;-6.37;5.79;1.2;14.20;69218;5125.324;-12831.938;257;500;508.9;100;99.7;0;0.9;29.0;-1.0;
15/06/2019 09:50:19;116;0;292.66;17;-26.34;0.77;1.3;14.20;69215;5125.322;-12831.943;257;500;510.9;100;99.7;0;0.9;28.9;-1.0;
15/06/2019 09:50:39;116;0;303.02;17;-4.91;4.01;1.2;14.20;69230;5125.320;-12831.945;257;500;508.9;100;99.7;0;0.9;29.0;-1.0;
15/06/2019 09:50:59;116;0;280.83;17;-8.84;8.26;1.3;14.30;69215;5125.316;-12831.951;257;500;508.9;100;99.7;0;0.9;28.9;-1.0;
15/06/2019 09:51:19;116;0;289.19;17;-8.52;3.82;1.2;14.40;69227;5125.312;-12831.961;257;500;508.9;100;99.7;0;0.9;28.9;-1.0;
15/06/2019 09:51:39;110;0;265.03;17;-5.38;-2.81;1.2;14.40;69225;5125.312;-12831.961;257;-300;404.0;100;99.7;0;1.4;28.9;-1.0;
15/06/2019 09:51:49;110;0;295.51;17;-20.94;5.95;1.4;14.40;69475;5125.312;-12831.961;257;-300;253.5;100;99.7;0;0.9;28.8;-1.0;
15/06/2019 09:51:59;110;0;295.01;17;-32.84;3.16;1.7;14.40;69673;5125.312;-12831.961;257;-300;87.1;100;100.0;0;1.4;28.9;-1.0;
15/06/2019 09:52:09;110;0;305.34;17;-59.10;2.48;2.2;14.40;69951;5125.312;-12831.961;257;-300;-91.1;100;99.9;0;1.4;28.8;-1.0;
15/06/2019 09:52:19;110;0;303.94;17;-61.33;3.53;2.7;14.50;70238;5125.312;-12831.961;257;-300;-287.1;92;91.7;0;0.9;28.8;-1.0;
15/06/2019 09:52:29;110;0;290.34;17;-53.68;5.80;4.0;14.50;70576;5125.312;-12831.961;257;-300;-303.0;74;74.1;0;0.9;28.9;-1.0;
15/06/2019 09:52:39;110;0;283.44;17;-40.87;3.62;6.6;14.50;70568;5125.312;-12831.961;257;-300;-301.0;73;73.0;0;0.9;28.9;-1.0;
15/06/2019 09:52:49;100;0;271.11;17;-32.68;4.10;9.3;14.50;70565;5125.312;-12831.961;257;-300;-301.0;73;72.9;0;0.9;28.9;-1.0;
15/06/2019 09:53:09;100;0;254.57;17;-27.41;4.36;14.5;14.50;70550;5125.312;-12831.961;257;-300;-297.0;73;72.9;0;0.9;29.0;0.0;
15/06/2019 09:53:29;100;0;239.59;17;-26.66;4.29;19.4;14.50;70526;5125.312;-12831.961;257;-300;-297.0;73;72.9;0;1.4;28.9;0.0;
15/06/2019 09:53:49;100;0;224.80;17;-25.23;4.23;23.7;14.40;70490;5125.312;-12831.961;257;-300;-297.0;73;72.9;-11;-10.8;29.0;0.0;
15/06/2019 09:54:09;100;0;213.98;17;-25.70;-1.74;27.7;14.40;70439;5125.312;-12831.961;257;-300;-297.0;73;72.9;-14;-14.4;28.9;0.0;
15/06/2019 09:54:29;100;0;207.54;17;-25.80;-3.29;31.7;14.30;70376;5125.312;-12831.961;257;-300;-299.0;73;72.9;-14;-14.9;28.9;0.0;
15/06/2019 09:54:49;100;0;199.35;17;-25.39;-3.37;35.5;14.20;70304;5125.312;-12831.961;257;-300;-297.0;73;72.9;-16;-15.8;28.9;0.0;
15/06/2019 09:55:09;100;0;192.62;17;-24.72;-3.82;39.3;14.20;70270;5125.312;-12831.961;257;-300;-295.0;73;72.9;-18;-18.1;28.9;0.0;
15/06/2019 09:55:29;100;0;195.62;17;-25.03;-4.84;42.9;14.10;70222;5125.312;-12831.961;257;-300;-295.0;73;73.0;-14;-14.0;28.9;0.0;
15/06/2019 09:55:49;100;0;198.88;17;-24.82;-2.58;46.7;14.00;70196;5125.312;-12831.961;257;-300;-295.0;73;72.9;-12;-12.2;28.9;0.0;
15/06/2019 09:56:09;100;0;199.48;17;-24.27;-1.74;50.4;13.90;70170;5125.312;-12831.961;257;-300;-295.0;73;72.9;-13;-13.5;29.0;0.0;
15/06/2019 09:56:29;100;0;198.07;17;-24.32;-2.83;54.1;13.80;70146;5125.312;-12831.961;257;-300;-297.0;73;72.9;-14;-14.0;28.9;0.0;
15/06/2019 09:56:49;100;0;194.84;17;-24.03;-2.91;57.8;13.80;70100;5125.312;-12831.961;257;-300;-295.0;73;72.9;-18;-18.1;28.9;0.0;
15/06/2019 09:57:09;100;0;195.04;17;-24.33;-5.08;61.3;13.70;70088;5125.312;-12831.961;257;-300;-295.0;73;72.9;-17;-17.1;29.0;0.0;
15/06/2019 09:57:29;100;0;197.36;17;-23.62;-3.96;64.9;13.60;70070;5125.312;-12831.961;257;-300;-295.0;73;72.9;-16;-15.8;28.9;0.0;
15/06/2019 09:57:49;100;0;201.90;17;-23.27;-3.32;68.3;13.50;70055;5125.312;-12831.961;257;-300;-295.0;73;72.9;-15;-14.9;28.9;0.0;
15/06/2019 09:58:09;100;0;206.84;17;-23.67;-3.39;71.6;13.40;70037;5125.312;-12831.961;257;-300;-295.0;73;72.9;-14;-13.5;29.0;0.0;
15/06/2019 09:58:29;100;0;202.71;17;-23.86;-2.59;74.9;13.40;70021;5125.312;-12831.961;257;-300;-295.0;73;72.9;-18;-18.1;28.9;0.0;
15/06/2019 09:58:49;100;0;196.29;17;-23.44;-5.18;78.2;13.30;70001;5125.312;-12831.961;257;-300;-297.0;73;72.9;-22;-22.1;29.0;0.0;
15/06/2019 09:59:09;100;0;195.51;17;-23.50;-6.88;81.5;13.30;69994;5125.312;-12831.961;257;-300;-297.0;73;72.9;-22;-22.6;29.0;0.0;
15/06/2019 09:59:29;100;0;200.02;17;-23.29;-6.88;84.7;13.20;69980;5125.312;-12831.961;257;-300;-295.0;73;72.9;-19;-19.0;28.9;0.0;
15/06/2019 09:59:49;100;0;204.30;17;-23.20;-4.78;87.9;13.10;69979;5125.312;-12831.961;257;-300;-295.0;73;72.9;-18;-18.1;29.0;0.0;
15/06/2019 10:00:09;100;0;206.78;17;-23.21;-4.66;91.0;13.00;69957;5125.312;-12831.961;257;-300;-295.0;73;72.9;-18;-17.6;28.9;0.0;
15/06/2019 10:00:29;100;0;211.22;17;-23.06;-4.51;94.2;13.00;69956;5125.312;-12831.961;257;-300;-295.0;73;72.9;-17;-17.1;28.9;0.0;
15/06/2019 10:00:49;100;0;205.99;17;-22.38;-3.54;97.5;12.90;69951;5125.312;-12831.961;257;-300;-295.0;73;72.9;-22;-22.1;29.0;0.0;
15/06/2019 10:01:09;100;0;203.11;17;-22.20;-7.03;100.8;12.90;69935;5125.312;-12831.961;257;-300;-295.0;73;72.9;-23;-23.0;29.0;0.0;
15/06/2019 10:01:29;100;0;201.58;17;-22.45;-7.03;103.6;12.80;69926;5125.312;-12831.961;257;-300;-295.0;73;72.7;-23;-23.0;28.9;0.0;
15/06/2019 10:01:49;100;0;201.37;17;-22.70;-6.98;106.6;12.80;69917;5125.312;-12831.961;257;-300;-295.0;73;72.9;-23;-23.0;29.0;0.0;
15/06/2019 10:02:09;100;0;202.44;17;-21.74;-7.12;109.4;12.70;69910;5125.312;-12831.961;257;-300;-295.0;73;72.9;-22;-21.7;28.9;0.0;
15/06/2019 10:02:29;100;0;205.42;17;-22.01;-6.21;112.0;12.60;69896;5125.312;-12831.961;257;-300;-295.0;73;72.9;-20;-19.9;28.9;0.0;
15/06/2019 10:02:49;100;0;206.45;17;-21.74;-5.25;114.5;12.60;69888;5125.312;-12831.961;257;-300;-293.1;73;72.9;-20;-19.4;29.0;0.0;
15/06/2019 10:03:09;100;0;203.44;17;-22.19;-5.40;117.1;12.50;69881;5125.312;-12831.961;257;-300;-295.0;73;72.9;-22;-22.1;28.9;0.0;
15/06/2019 10:03:29;100;0;203.94;17;-20.92;-6.97;119.7;12.50;69870;5125.312;-12831.961;257;-300;-295.0;73;72.9;-22;-22.6;28.9;0.0;
15/06/2019 10:03:49;100;0;207.84;17;-21.38;-7.00;122.1;12.40;69872;5125.312;-12831.961;257;-300;-295.0;73;72.9;-20;-19.9;28.9;0.0;
15/06/2019 10:04:09;100;0;204.92;17;-20.92;-5.26;124.5;12.40;69840;5125.312;-12831.961;257;-300;-295.0;73;72.9;-22;-22.1;28.9;0.0;
15/06/2019 10:04:29;100;0;206.39;17;-20.53;-6.96;126.9;12.30;69840;5125.312;-12831.961;257;-300;-293.1;73;72.9;-21;-21.2;29.0;0.0;
15/06/2019 10:04:49;100;0;210.49;17;-21.21;-6.30;129.1;12.20;69832;5125.312;-12831.961;257;-300;-293.1;73;72.9;-19;-19.0;28.9;0.0;
15/06/2019 10:05:09;100;0;208.44;17;-20.38;-4.95;131.4;12.20;69817;5125.312;-12831.961;257;-300;-295.0;73;72.7;-21;-21.2;29.0;0.0;
15/06/2019 10:05:29;100;0;204.82;17;-20.30;-6.52;133.5;12.10;69812;5125.312;-12831.961;257;-300;-295.0;73;72.9;-23;-23.5;28.9;0.0;
15/06/2019 10:05:49;100;0;212.58;17;-20.40;-7.80;135.8;12.10;69787;5125.312;-12831.961;257;-300;-295.0;73;72.9;-18;-18.1;28.9;0.0;
15/06/2019 10:06:09;100;0;215.75;17;-19.74;-4.44;137.9;12.00;69784;5125.312;-12831.961;257;-300;-293.1;73;72.9;-17;-17.1;28.9;0.0;
15/06/2019 10:06:29;100;0;220.06;17;-19.36;-4.50;140.2;11.90;69766;5125.312;-12831.961;257;-300;-293.1;73;72.7;-15;-14.4;29.0;0.0;
15/06/2019 10:06:49;100;0;220.64;17;-19.76;-3.06;142.3;11.90;69751;5125.312;-12831.961;257;-300;-293.1;73;72.9;-17;-17.6;29.0;0.0;
15/06/2019 10:07:09;100;0;218.25;17;-19.54;-4.97;144.5;11.80;69738;5125.312;-12831.961;257;-300;-293.1;73;72.9;-19;-19.0;29.0;0.0;
15/06/2019 10:07:29;100;0;219.67;17;-19.38;-5.50;146.7;11.80;69733;5125.312;-12831.961;257;-300;-293.1;73;72.9;-18;-18.1;29.0;0.0;
15/06/2019 10:07:49;100;0;214.08;17;-19.37;-4.63;148.8;11.70;69710;5125.312;-12831.961;257;-300;-293.1;73;72.9;-21;-21.7;28.9;0.0;
15/06/2019 10:08:09;100;0;214.36;17;-19.38;-6.85;151.0;11.60;69689;5125.312;-12831.961;257;-300;-293.1;73;72.9;-20;-19.9;28.9;0.0;
15/06/2019 10:08:29;100;0;212.66;17;-19.20;-5.39;153.4;11.60;69695;5125.312;-12831.961;257;-300;-293.1;73;72.7;-21;-21.2;28.9;0.0;
15/06/2019 10:08:49;100;0;211.44;17;-19.20;-6.78;155.6;11.50;69687;5125.312;-12831.961;257;-300;-295.0;73;72.9;-21;-21.7;28.9;0.0;
15/06/2019 10:09:09;100;0;213.07;17;-19.37;-6.77;157.9;11.50;69662;5125.312;-12831.961;257;-300;-293.1;73;72.9;-19;-19.0;29.0;0.0;
15/06/2019 10:09:29;100;0;214.52;17;-19.14;-4.99;160.1;11.40;69664;5125.312;-12831.961;257;-300;-295.0;73;72.9;-19;-18.1;28.9;43.5;
15/06/2019 10:09:49;100;0;213.02;17;-19.23;-5.00;162.3;11.40;69652;5125.312;-12831.961;257;-300;-293.1;73;72.9;-20;-20.3;28.9;41.4;
15/06/2019 10:10:09;100;0;211.60;17;-19.13;-6.12;164.3;11.30;69636;5125.312;-12831.961;257;-300;-293.1;73;72.9;-21;-21.2;28.9;39.2;
15/06/2019 10:10:29;100;0;212.99;17;-19.33;-6.68;166.5;11.30;69634;5125.312;-12831.961;257;-300;-293.1;73;72.9;-20;-19.9;28.9;37.0;
15/06/2019 10:10:49;100;0;214.48;17;-19.13;-5.49;168.5;11.20;69619;5125.312;-12831.961;257;-300;-293.1;73;72.9;-19;-19.0;28.9;34.9;
15/06/2019 10:11:09;100;0;217.22;17;-19.13;-5.46;170.5;11.20;69607;5125.312;-12831.961;257;-300;-295.0;73;72.7;-17;-17.1;29.0;32.9;
15/06/2019 10:11:29;100;0;217.78;17;-19.20;-4.31;172.5;11.10;69598;5125.312;-12831.961;257;-300;-293.1;73;72.9;-18;-18.5;29.0;30.9;
15/06/2019 10:11:49;100;0;220.15;17;-19.30;-5.18;174.4;11.10;69603;5125.312;-12831.961;257;-300;-293.1;73;72.9;-17;-17.1;28.9;28.8;
15/06/2019 10:12:09;100;0;220.05;17;-18.53;-4.34;176.6;11.00;69589;5125.312;-12831.961;257;-300;-293.1;73;72.9;-18;-18.5;28.9;26.7;
15/06/2019 10:12:30;100;0;220.34;17;-18.69;-5.23;178.6;11.00;69580;5125.312;-12831.961;257;-300;-293.1;73;72.9;-18;-18.5;28.9;24.7;
15/06/2019 10:12:50;100;0;220.90;17;-19.28;-5.38;180.6;10.90;69563;5125.312;-12831.961;257;-300;-293.1;73;72.9;-18;-18.5;28.9;22.6;
15/06/2019 10:13:10;100;0;223.13;17;-19.12;-5.19;182.6;10.90;69570;5125.312;-12831.961;257;-300;-295.0;73;72.9;-16;-15.3;28.9;20.5;
15/06/2019 10:13:30;100;0;222.92;17;-18.85;-3.59;184.5;10.80;69566;5125.312;-12831.961;257;-300;-293.1;73;72.9;-18;-18.1;28.9;18.5;
15/06/2019 10:13:50;118;0;222.69;17;-18.91;-5.36;186.7;10.80;69554;5125.312;-12831.961;257;150;-277.2;57;56.6;0;0.9;29.0;16.5;
15/06/2019 10:14:00;118;0;164.24;17;2.89;4.15;187.5;10.70;69471;5125.312;-12831.961;257;150;-120.8;57;57.2;0;0.9;28.4;16.5;
15/06/2019 10:14:10;118;0;165.85;17;19.93;3.62;187.1;10.70;69259;5125.312;-12831.961;257;150;33.7;57;57.2;0;0.9;28.4;-1.0;
15/06/2019 10:14:20;118;0;164.98;17;23.84;3.95;186.2;10.70;69013;5125.312;-12831.961;257;150;156.4;57;57.2;0;0.9;28.4;-1.0;
15/06/2019 10:14:30;118;0;213.18;17;24.83;3.78;185.0;10.70;68829;5125.312;-12831.961;257;150;156.4;57;57.1;0;0.9;28.9;-1.0;
15/06/2019 10:14:40;118;0;213.00;17;26.61;3.89;183.2;10.70;68837;5125.312;-12831.961;257;150;156.4;57;57.1;0;0.9;28.9;-1.0;
15/06/2019 10:14:50;117;0;212.32;17;27.39;3.97;181.3;10.70;68839;5125.312;-12831.961;257;150;156.4;57;57.1;0;0.9;28.9;-1.0;
15/06/2019 10:15:10;117;0;211.22;17;28.28;4.07;177.2;10.60;68828;5125.312;-12831.961;257;150;156.4;57;57.1;24;23.9;28.9;-1.0;
15/06/2019 10:15:30;117;0;219.19;17;27.62;15.62;172.1;10.60;68819;5125.312;-12831.961;257;150;158.4;57;57.1;18;18.1;28.9;-1.0;
15/06/2019 10:15:50;117;0;220.08;17;27.80;11.49;167.5;10.50;68818;5125.312;-12831.961;257;150;158.4;57;57.1;18;17.6;28.9;-1.0;
15/06/2019 10:16:10;117;0;223.60;17;28.11;11.69;163.0;10.50;68816;5125.312;-12831.961;257;150;156.4;57;57.1;16;15.8;28.9;-1.0;
15/06/2019 10:16:30;117;0;229.52;17;27.84;10.46;158.1;10.40;68813;5125.312;-12831.961;257;150;156.4;57;57.1;14;14.0;28.9;-1.0;
15/06/2019 10:16:50;117;0;234.03;17;27.76;9.78;153.4;10.40;68819;5125.312;-12831.961;257;150;156.4;57;57.1;12;12.2;28.9;-1.0;
15/06/2019 10:17:10;117;0;236.38;17;27.60;8.71;148.9;10.30;68813;5125.312;-12831.961;257;150;156.4;57;57.1;13;13.1;28.9;-1.0;
15/06/2019 10:17:30;117;0;240.85;17;27.28;9.97;144.4;10.30;68830;5125.312;-12831.961;257;150;156.4;57;57.1;13;14.0;28.9;-1.0;
15/06/2019 10:17:50;117;0;244.79;17;27.52;10.05;140.2;10.30;68832;5125.312;-12831.961;257;150;158.4;57;57.1;11;10.8;28.9;-1.0;
15/06/2019 10:18:10;117;0;244.89;17;27.02;7.98;135.9;10.30;68842;5125.312;-12831.961;257;150;156.4;57;57.1;12;12.6;28.9;-1.0;
15/06/2019 10:18:30;117;0;238.80;17;26.82;9.69;131.6;10.20;68862;5125.312;-12831.961;257;150;158.4;57;57.1;12;13.1;28.9;-1.0;
15/06/2019 10:18:50;117;0;245.45;17;25.84;9.50;127.6;10.20;68872;5125.312;-12831.961;257;150;156.4;57;57.1;11;10.8;29.0;-1.0;
15/06/2019 10:19:10;117;0;250.21;17;25.41;8.14;123.7;10.20;68888;5125.312;-12831.961;257;150;156.4;57;57.1;9;9.0;29.0;-1.0;
15/06/2019 10:19:30;117;0;251.21;17;24.15;7.16;120.1;10.20;68897;5125.312;-12831.961;257;150;158.4;57;57.1;9;8.1;29.0;-1.0;
15/06/2019 10:19:50;117;0;249.14;17;24.18;7.27;116.8;10.20;68914;5125.312;-12831.961;257;150;156.4;57;57.1;11;10.8;28.9;-1.0;
15/06/2019 10:20:10;117;0;251.14;17;23.93;8.65;113.5;10.20;68925;5125.312;-12831.961;257;150;156.4;57;57.1;9;9.0;28.9;-1.0;
15/06/2019 10:20:30;117;0;250.42;17;23.18;7.38;110.2;10.10;68928;5125.312;-12831.961;257;150;156.4;57;57.1;10;9.9;28.9;-1.0;
15/06/2019 10:20:50;117;0;250.21;17;23.04;8.42;107.1;10.10;68948;5125.312;-12831.961;257;150;158.4;57;57.1;10;10.8;29.0;-1.0;
15/06/2019 10:21:10;117;0;259.19;17;22.02;8.64;104.1;10.10;68957;5125.312;-12831.961;257;150;156.4;57;57.1;4;3.6;28.9;-1.0;
15/06/2019 10:21:30;117;0;261.73;17;22.11;4.58;101.2;10.10;68944;5125.312;-12831.961;257;150;156.4;57;57.1;4;3.2;29.0;-1.0;
15/06/2019 10:21:50;117;0;259.21;17;22.43;4.62;98.4;10.10;68951;5125.312;-12831.961;257;150;156.4;57;57.1;6;5.9;28.9;-1.0;
15/06/2019 10:22:10;117;0;253.49;17;22.39;6.44;95.7;10.10;68959;5125.312;-12831.961;257;150;156.4;57;57.1;9;9.5;28.9;-1.0;
15/06/2019 10:22:30;117;0;256.48;17;22.26;8.11;93.0;10.10;68970;5125.312;-12831.961;257;150;158.4;57;57.1;5;5.0;28.9;-1.0;
15/06/2019 10:22:50;117;0;253.30;17;22.64;5.39;90.2;10.10;68968;5125.312;-12831.961;257;150;158.4;57;57.1;7;7.2;28.9;-1.0;
15/06/2019 10:23:10;117;0;253.46;17;22.42;6.95;87.2;10.10;68969;5125.312;-12831.961;257;150;156.4;57;57.1;6;5.9;28.9;-1.0;
15/06/2019 10:23:30;117;0;252.39;17;21.99;5.70;84.2;10.10;68966;5125.312;-12831.961;257;150;158.4;57;57.2;5;5.0;28.9;-1.0;
15/06/2019 10:23:50;117;0;249.98;17;21.91;5.19;81.3;10.10;68972;5125.312;-12831.961;257;150;158.4;57;57.1;6;5.9;29.0;-1.0;
15/06/2019 10:24:10;117;0;254.07;17;20.95;6.38;78.6;10.10;68981;5125.312;-12831.961;257;150;158.4;57;57.1;2;1.8;28.9;-1.0;
15/06/2019 10:24:30;117;0;250.95;17;21.44;3.79;76.0;10.10;68983;5125.312;-12831.961;257;150;158.4;57;57.2;5;5.0;28.9;-1.0;
15/06/2019 10:24:50;117;0;251.05;17;21.06;6.34;73.3;10.10;68989;5125.312;-12831.961;257;150;158.4;57;57.1;3;2.7;28.9;-1.0;
15/06/2019 10:25:10;117;0;251.34;17;21.37;4.29;70.6;10.10;68990;5125.312;-12831.961;257;150;158.4;57;57.1;3;2.3;28.9;-1.0;
15/06/2019 10:25:30;117;0;244.75;17;21.63;4.44;67.8;10.10;68990;5125.312;-12831.961;257;150;156.4;57;57.1;7;7.2;28.9;-1.0;
15/06/2019 10:25:50;117;0;243.66;17;20.70;7.28;64.9;10.10;68996;5125.312;-12831.961;257;150;156.4;57;57.1;6;5.9;28.9;-1.0;
15/06/2019 10:26:10;117;0;236.35;17;21.17;5.91;62.3;10.10;69007;5125.312;-12831.961;257;150;158.4;57;57.1;6;5.4;28.9;-1.0;
15/06/2019 10:26:30;117;0;237.91;17;20.17;5.82;59.8;10.10;69001;5125.312;-12831.961;257;150;156.4;57;57.1;6;5.4;28.9;-1.0;
15/06/2019 10:26:50;117;0;234.10;17;20.07;5.75;57.5;10.10;69012;5125.312;-12831.961;257;150;156.4;57;57.2;8;8.1;28.9;-1.0;
15/06/2019 10:27:10;117;0;235.42;17;19.67;7.57;55.2;10.10;69018;5125.312;-12831.961;257;150;156.4;57;57.1;6;5.9;28.9;-1.0;
15/06/2019 10:27:30;117;0;234.09;17;19.60;5.83;53.0;10.10;69031;5125.312;-12831.961;257;150;158.4;57;57.1;7;7.7;29.0;-1.0;
15/06/2019 10:27:50;117;0;234.15;17;19.19;7.15;50.7;10.10;69034;5125.312;-12831.961;257;150;158.4;57;57.2;7;8.1;28.9;-1.0;
15/06/2019 10:28:10;117;0;232.17;17;19.21;7.24;48.5;10.10;69050;5125.312;-12831.961;257;150;158.4;57;57.1;8;8.1;28.9;-1.0;
15/06/2019 10:28:30;117;0;229.70;17;18.92;7.24;46.5;10.10;69058;5125.312;-12831.961;257;150;156.4;57;57.1;10;9.9;29.0;-1.0;
15/06/2019 10:28:50;117;0;232.32;17;18.74;8.58;44.4;10.10;69074;5125.312;-12831.961;257;150;158.4;57;57.2;8;8.1;28.9;-1.0;
15/06/2019 10:29:10;117;0;234.22;17;18.59;6.96;42.2;10.10;69086;5125.312;-12831.961;257;150;156.4;57;57.1;7;7.2;28.9;-1.0;
15/06/2019 10:29:30;117;0;236.47;17;18.45;6.34;40.1;10.10;69097;5125.312;-12831.961;257;150;158.4;57;57.1;6;5.9;28.9;-1.0;
15/06/2019 10:29:50;117;0;238.38;17;18.28;5.85;38.1;10.10;69111;5125.312;-12831.961;257;150;158.4;57;57.1;6;5.4;29.0;-1.0;
15/06/2019 10:30:10;117;0;241.54;17;18.26;5.86;36.0;10.20;69124;5125.312;-12831.961;257;150;156.4;57;57.2;6;5.4;28.9;-1.0;
15/06/2019 10:30:30;117;0;247.75;17;17.96;5.80;34.1;10.20;69144;5125.312;-12831.961;257;150;156.4;57;57.1;2;1.8;28.9;-1.0;
15/06/2019 10:30:50;117;0;248.09;17;17.58;3.84;32.3;10.20;69160;5125.312;-12831.961;257;150;158.4;57;57.1;3;3.6;28.9;-1.0;
15/06/2019 10:31:10;117;0;247.21;17;17.05;5.28;30.5;10.20;69177;5125.312;-12831.961;257;150;156.4;57;57.1;4;4.1;28.9;-1.0;
15/06/2019 10:31:30;117;0;250.41;17;16.49;5.44;28.7;10.20;69208;5125.312;-12831.961;257;150;156.4;57;57.2;2;1.8;28.9;-1.0;
15/06/2019 10:31:50;117;0;252.77;17;16.23;3.85;27.2;10.30;69234;5125.312;-12831.961;257;150;158.4;57;57.1;1;0.5;28.9;-1.0;
15/06/2019 10:32:10;117;0;255.41;17;16.46;3.43;25.7;10.30;69261;5125.312;-12831.961;257;150;158.4;57;57.1;0;0.0;28.9;-1.0;
15/06/2019 10:32:30;117;0;261.97;17;16.02;3.34;23.9;10.30;69301;5125.312;-12831.961;257;150;158.4;57;57.1;-2;-2.3;28.9;-1.0;
15/06/2019 10:32:50;117;0;263.31;17;15.92;1.92;22.4;10.40;69324;5125.312;-12831.961;257;150;158.4;57;57.2;-3;-3.6;28.9;-1.0;
15/06/2019 10:33:10;117;0;259.54;17;15.79;1.27;20.9;10.40;69360;5125.312;-12831.961;257;150;158.4;57;57.2;0;0.0;28.9;-1.0;
15/06/2019 10:33:30;117;0;257.82;17;15.73;3.73;19.4;10.50;69378;5125.312;-12831.961;257;150;158.4;57;57.1;0;0.9;28.9;-1.0;
15/06/2019 10:33:50;117;0;259.39;17;15.48;3.75;18.0;10.50;69412;5125.312;-12831.961;257;150;158.4;57;57.2;-2;-2.3;28.9;-1.0;
15/06/2019 10:34:10;117;0;260.75;17;15.86;2.16;16.5;10.50;69433;5125.312;-12831.961;257;150;158.4;57;57.1;-3;-3.2;29.0;-1.0;
15/06/2019 10:34:30;117;0;262.91;17;15.30;1.44;15.1;10.60;69445;5125.312;-12831.961;257;150;160.4;57;57.1;-4;-4.1;28.9;-1.0;
15/06/2019 10:34:50;117;0;261.84;17;15.67;1.52;13.7;10.60;69472;5125.312;-12831.961;257;150;158.4;57;57.1;-4;-3.6;29.0;-1.0;
15/06/2019 10:35:10;117;0;265.96;17;14.63;1.46;12.3;10.70;69488;5125.312;-12831.961;257;150;158.4;57;57.1;-6;-5.9;28.9;-1.0;
15/06/2019 10:35:30;117;0;265.02;17;14.62;0.13;11.0;10.70;69517;5125.312;-12831.961;257;150;158.4;57;57.2;-6;-6.3;28.9;-1.0;
