Timestamp;NavState;SecurityLevel;Heading;Declination;Pitch;Roll;Depth;Temperature;Pa;Lat;Lon;DesiredH;BallastCmd;BallastPos;LinCmd;LinPos;AngCmd;AngPos;Voltage;Altitude;
13/06/2019 19:45:36;117;0;191.63;17;24.76;-1.43;8.4;11.80;69835;5140.429;-12818.299;173;100;106.9;53;53.1;-3;-2.7;29.3;-1.0;
13/06/2019 19:45:46;115;0;185.46;17;22.39;1.32;7.4;11.80;69858;5140.429;-12818.299;173;500;116.8;100;99.1;0;0.9;29.3;-1.0;
13/06/2019 19:45:56;115;0;154.98;17;-21.93;4.98;6.8;11.80;69777;5140.429;-12818.299;173;500;267.3;100;99.9;0;0.9;29.0;-1.0;
13/06/2019 19:46:06;115;0;150.21;17;-70.81;14.23;7.3;11.80;69574;5140.429;-12818.299;173;500;423.8;100;100.0;0;0.9;29.1;-1.0;
13/06/2019 19:46:16;115;0;205.05;17;-57.89;-0.25;6.7;11.80;69327;5140.429;-12818.299;173;500;506.9;100;99.9;0;0.9;29.1;-1.0;
13/06/2019 19:46:26;115;0;316.77;17;-44.88;-1.98;4.1;11.90;69214;5140.429;-12818.299;173;500;506.9;100;99.9;0;0.9;29.3;-1.0;
13/06/2019 19:46:36;116;0;9.36;17;-59.69;10.63;1.1;11.90;69244;5140.429;-12818.299;173;500;506.9;100;99.7;0;0.9;29.3;-1.0;
13/06/2019 19:46:56;116;0;335.10;17;-15.85;8.82;1.1;11.90;69251;5140.429;-12818.299;173;500;506.9;100;99.7;0;0.9;29.3;-1.0;
13/06/2019 19:47:16;116;0;306.68;17;-8.01;-1.25;1.1;12.00;69275;5140.154;-12818.308;173;500;506.9;100;99.6;0;0.9;29.3;-1.0;
13/06/2019 19:47:36;116;0;322.43;17;-15.70;-5.06;1.2;12.10;69281;5140.154;-12818.309;173;500;506.9;100;99.7;0;0.9;29.3;-1.0;
13/06/2019 19:47:56;116;0;331.25;17;-13.17;5.46;1.2;12.10;69308;5140.150;-12818.314;170;500;508.9;100;99.7;0;0.9;29.3;-1.0;
13/06/2019 19:48:16;116;0;310.73;17;-9.41;0.39;1.1;12.20;69312;5140.146;-12818.315;170;500;508.9;100;99.6;0;0.9;29.3;-1.0;
13/06/2019 19:48:36;116;0;335.86;17;-12.40;3.52;1.1;12.30;69326;5140.143;-12818.322;170;500;508.9;100;99.6;0;0.5;29.3;-1.0;
13/06/2019 19:48:56;116;0;313.89;17;-3.20;4.13;1.1;12.40;69342;5140.138;-12818.324;170;500;506.9;100;99.7;0;0.9;29.3;-1.0;
13/06/2019 19:49:16;116;0;323.41;17;-4.80;-0.84;1.1;12.50;69331;5140.128;-12818.331;170;500;508.9;100;99.7;0;0.9;29.3;-1.0;
13/06/2019 19:49:36;116;0;340.54;17;-2.58;1.96;1.1;12.50;69347;5140.123;-12818.338;170;500;508.9;100;99.7;0;0.9;29.3;-1.0;
13/06/2019 19:49:58;116;0;317.67;17;-30.09;6.73;1.3;12.60;69362;5140.117;-12818.338;170;500;508.9;100;99.6;0;0.9;29.3;-1.0;
13/06/2019 19:50:18;116;0;319.47;17;-9.26;3.24;1.1;12.70;69365;5140.118;-12818.346;170;500;508.9;100;99.7;0;0.9;29.3;-1.0;
13/06/2019 19:50:38;116;0;321.01;17;-6.17;-4.16;1.1;12.80;69374;5140.104;-12818.361;170;500;506.9;100;99.7;0;0.9;29.3;-1.0;
13/06/2019 19:51:36;116;0;322.96;17;-9.42;4.48;1.0;13.10;69375;5140.104;-12818.363;170;500;508.9;100;99.7;0;0.9;29.3;-1.0;
13/06/2019 19:51:56;116;0;314.67;17;-15.45;-1.25;1.1;13.20;69388;5140.097;-12818.369;170;500;508.9;100;99.7;0;0.9;29.3;-1.0;
13/06/2019 19:52:16;116;0;314.64;17;-20.77;4.71;1.2;13.20;69390;5140.097;-12818.370;170;500;508.9;100;99.7;0;0.9;29.3;-1.0;
13/06/2019 19:52:36;116;0;300.43;17;-11.50;2.52;1.1;13.30;69392;5140.093;-12818.375;170;500;508.9;100;99.6;0;0.9;29.3;-1.0;
13/06/2019 19:52:56;116;0;294.74;17;-6.54;1.54;1.1;13.40;69396;5140.092;-12818.377;170;500;508.9;100;99.7;0;0.9;29.3;-1.0;
13/06/2019 19:53:16;116;0;295.10;17;-8.26;-4.83;1.1;13.50;69401;5140.072;-12818.394;170;500;508.9;100;99.6;0;0.9;29.3;-1.0;
13/06/2019 19:54:23;116;0;316.13;17;-21.48;5.74;1.2;13.80;69403;5140.072;-12818.394;170;500;508.9;100;99.7;0;0.9;29.3;-1.0;
13/06/2019 19:54:43;116;0;314.47;17;-9.29;7.52;1.1;13.90;69416;5140.057;-12818.391;170;500;508.9;100;99.7;0;0.9;29.3;-1.0;
13/06/2019 19:55:09;116;0;321.93;17;-5.34;3.06;1.1;14.00;69416;5140.056;-12818.391;170;500;508.9;100;99.7;0;0.9;29.3;-1.0;
13/06/2019 19:55:29;116;0;328.27;17;-7.21;8.01;1.1;14.10;69426;5140.052;-12818.398;170;500;508.9;100;99.7;0;0.9;29.3;-1.0;
13/06/2019 19:55:49;116;0;310.73;17;-18.19;7.19;1.2;14.30;69421;5140.049;-12818.412;170;500;508.9;100;99.7;0;0.9;29.3;-1.0;
13/06/2019 19:56:09;116;0;307.89;17;-10.49;3.41;1.1;14.40;69426;5140.045;-12818.414;170;500;508.9;100;99.7;0;0.9;29.3;-1.0;
13/06/2019 19:56:29;110;0;288.62;17;-6.63;6.59;1.1;14.50;69437;5140.045;-12818.414;170;-250;407.9;100;99.7;0;0.9;29.3;-1.0;
13/06/2019 19:56:39;110;0;341.81;17;-16.52;3.48;1.1;14.50;69681;5140.045;-12818.414;170;-250;261.4;100;99.7;0;0.9;29.3;-1.0;
13/06/2019 19:56:49;110;0;345.07;17;-31.41;8.85;1.4;14.50;69864;5140.045;-12818.414;170;-250;103.0;100;99.7;0;0.9;29.2;-1.0;
13/06/2019 19:56:59;110;0;327.54;17;-48.45;11.74;1.8;14.60;70122;5140.045;-12818.414;170;-250;-67.3;100;99.9;0;0.9;29.3;-1.0;
13/06/2019 19:57:09;110;0;320.15;17;-60.66;-9.05;2.5;14.60;70401;5140.045;-12818.414;170;-250;-249.5;92;91.8;0;0.9;29.3;-1.0;
13/06/2019 19:57:19;110;0;314.90;17;-51.54;0.88;3.8;14.60;70704;5140.045;-12818.414;170;-250;-249.5;72;71.8;0;0.9;29.3;-1.0;
13/06/2019 19:57:29;100;0;310.93;17;-38.25;3.63;6.2;14.60;70689;5140.045;-12818.414;170;-250;-249.5;71;70.8;0;0.9;29.3;-1.0;
13/06/2019 19:57:49;100;0;306.97;17;-24.34;4.59;10.1;14.60;70667;5140.045;-12818.414;170;-250;-245.5;71;70.8;45;45.1;29.3;0.0;
13/06/2019 19:58:09;100;0;287.29;17;-19.37;25.54;13.5;14.60;70644;5140.045;-12818.414;170;-250;-245.5;71;70.6;45;45.6;29.3;0.0;
13/06/2019 19:58:29;100;0;272.85;17;-19.06;25.58;16.3;14.50;70629;5140.045;-12818.414;170;-250;-243.6;71;70.6;40;39.7;29.3;0.0;
13/06/2019 19:58:49;100;0;250.88;17;-19.13;21.98;19.1;14.50;70617;5140.045;-12818.414;170;-250;-245.5;71;70.6;27;26.6;29.3;0.0;
13/06/2019 19:59:09;100;0;239.60;17;-20.99;15.30;21.8;14.40;70584;5140.045;-12818.414;170;-250;-243.6;71;70.6;24;23.5;29.3;0.0;
13/06/2019 19:59:29;100;0;223.51;17;-20.28;14.03;24.7;14.40;70567;5140.045;-12818.414;170;-250;-245.5;71;70.6;19;18.5;29.3;0.0;
13/06/2019 19:59:49;100;0;209.31;17;-20.74;11.75;27.6;14.30;70543;5140.045;-12818.414;170;-250;-243.6;71;70.6;15;14.9;29.3;0.0;
13/06/2019 20:00:09;100;0;185.94;17;-19.78;10.18;30.6;14.30;70511;5140.045;-12818.414;170;-250;-243.6;71;70.6;7;6.8;29.3;0.0;
13/06/2019 20:00:29;100;0;167.04;17;-18.95;6.22;33.4;14.20;70464;5140.045;-12818.414;170;-250;-241.6;71;70.6;4;4.1;29.3;0.0;
13/06/2019 20:00:49;100;0;157.84;17;-19.20;4.90;36.0;14.20;70439;5140.045;-12818.414;170;-250;-241.6;71;70.6;5;5.0;29.3;0.0;
13/06/2019 20:01:09;100;0;146.37;17;-19.21;5.97;38.6;14.10;70399;5140.045;-12818.414;170;-250;-241.6;71;70.6;5;5.9;29.3;0.0;
13/06/2019 20:01:29;100;0;134.81;17;-19.56;5.96;41.2;14.00;70381;5140.045;-12818.414;170;-250;-243.6;71;70.6;1;0.5;29.3;0.0;
13/06/2019 20:01:49;100;0;129.05;17;-20.28;3.13;43.7;14.00;70368;5140.045;-12818.414;170;-250;-243.6;71;70.6;2;2.3;29.3;0.0;
13/06/2019 20:02:09;100;0;123.87;17;-19.58;4.51;46.3;13.90;70332;5140.045;-12818.414;170;-250;-241.6;71;70.5;1;0.9;29.3;0.0;
13/06/2019 20:02:29;100;0;117.31;17;-19.51;3.37;48.9;13.80;70311;5140.045;-12818.414;170;-250;-243.6;71;70.6;0;0.0;29.3;0.0;
13/06/2019 20:02:49;100;0;106.60;17;-19.55;2.86;51.5;13.70;70298;5140.045;-12818.414;170;-250;-243.6;71;70.6;-5;-5.0;29.3;0.0;
13/06/2019 20:03:09;100;0;98.22;17;-19.95;0.79;54.2;13.70;70276;5140.045;-12818.414;170;-250;-241.6;71;70.5;-8;-8.1;29.3;0.0;
13/06/2019 20:03:29;100;0;92.28;17;-19.39;-0.56;56.8;13.60;70265;5140.045;-12818.414;170;-250;-245.5;71;70.6;-11;-10.8;29.3;0.0;
13/06/2019 20:03:49;100;0;84.11;17;-19.87;-1.94;59.3;13.60;70239;5140.045;-12818.414;170;-250;-243.6;71;70.6;-16;-15.8;29.3;0.0;
13/06/2019 20:04:09;100;0;81.61;17;-19.72;-3.99;62.0;13.50;70232;5140.045;-12818.414;170;-250;-243.6;71;70.5;-17;-17.1;29.3;0.0;
13/06/2019 20:04:29;100;0;84.32;17;-18.93;-4.57;64.6;13.40;70219;5140.045;-12818.414;170;-250;-243.6;71;70.6;-16;-15.8;29.3;0.0;
13/06/2019 20:04:49;100;0;83.89;17;-19.12;-3.43;67.2;13.40;70206;5140.045;-12818.414;170;-250;-241.6;71;70.5;-19;-19.0;29.3;0.0;
13/06/2019 20:05:09;100;0;83.32;17;-19.17;-5.35;69.6;13.30;70194;5140.045;-12818.414;170;-250;-241.6;71;70.6;-22;-22.1;29.3;0.0;
13/06/2019 20:05:29;100;0;83.68;17;-19.60;-7.19;72.0;13.30;70186;5140.045;-12818.414;170;-250;-241.6;71;70.6;-24;-23.9;29.3;0.0;
13/06/2019 20:05:49;100;0;89.15;17;-19.05;-8.10;74.2;13.20;70173;5140.045;-12818.414;170;-250;-241.6;71;70.6;-23;-23.0;29.3;0.0;
13/06/2019 20:06:09;100;0;88.28;17;-19.23;-7.05;76.5;13.10;70170;5140.045;-12818.414;170;-250;-241.6;71;70.6;-27;-27.5;29.3;0.0;
13/06/2019 20:06:29;100;0;84.73;17;-18.95;-9.49;78.8;13.10;70149;5140.045;-12818.414;170;-250;-241.6;71;70.6;-29;-29.3;29.3;0.0;
13/06/2019 20:06:49;100;0;80.08;17;-18.84;-10.49;81.1;13.00;70137;5140.045;-12818.414;170;-250;-241.6;71;70.6;-31;-31.1;29.3;0.0;
13/06/2019 20:07:09;100;0;88.30;17;-17.56;-11.32;83.3;13.00;70124;5140.045;-12818.414;170;-250;-239.6;71;70.5;-25;-24.8;29.3;0.0;
13/06/2019 20:07:29;100;0;94.39;17;-17.66;-7.93;85.3;12.90;70113;5140.045;-12818.414;170;-250;-241.6;71;70.6;-23;-23.0;29.3;0.0;
13/06/2019 20:07:49;100;0;89.16;17;-17.75;-6.94;87.2;12.90;70102;5140.045;-12818.414;170;-250;-241.6;71;70.5;-27;-27.1;29.3;0.0;
13/06/2019 20:08:09;100;0;86.61;17;-17.36;-9.59;89.0;12.80;70091;5140.045;-12818.414;170;-250;-241.6;71;70.6;-29;-28.9;29.3;0.0;
13/06/2019 20:08:29;100;0;86.27;17;-17.09;-10.37;90.9;12.70;70079;5140.045;-12818.414;170;-250;-241.6;71;70.5;-28;-28.0;29.3;0.0;
13/06/2019 20:08:49;100;0;90.69;17;-16.49;-9.57;92.6;12.70;70073;5140.045;-12818.414;170;-250;-239.6;71;70.5;-26;-26.2;29.3;0.0;
13/06/2019 20:09:09;100;0;95.53;17;-16.56;-8.73;94.4;12.60;70065;5140.045;-12818.414;170;-250;-241.6;71;70.6;-23;-23.0;29.3;0.0;
13/06/2019 20:09:29;100;0;100.53;17;-16.36;-7.25;96.2;12.60;70056;5140.045;-12818.414;170;-250;-239.6;71;70.6;-22;-22.1;29.3;43.4;
13/06/2019 20:09:49;100;0;102.83;17;-16.19;-6.58;97.9;12.50;70048;5140.045;-12818.414;170;-250;-239.6;71;70.6;-22;-21.2;29.3;41.7;
13/06/2019 20:10:09;100;0;101.57;17;-16.00;-6.50;99.7;12.50;70033;5140.045;-12818.414;170;-250;-241.6;71;70.6;-24;-23.9;29.3;39.9;
13/06/2019 20:10:29;118;0;100.35;17;-15.86;-8.06;101.4;12.40;70023;5140.045;-12818.414;170;100;-227.7;53;52.8;0;0.5;29.3;38.2;
13/06/2019 20:10:39;118;0;101.16;17;8.98;3.87;102.0;12.40;69933;5140.045;-12818.414;170;100;-67.3;53;53.2;0;0.5;28.9;38.2;
13/06/2019 20:10:49;118;0;99.99;17;27.77;3.36;101.5;12.40;69729;5140.045;-12818.414;170;100;87.1;53;53.2;0;0.5;28.9;-1.0;
13/06/2019 20:10:59;118;0;100.91;17;30.65;3.85;100.4;12.40;69467;5140.045;-12818.414;170;100;105.0;53;53.2;0;0.5;28.9;-1.0;
13/06/2019 20:11:09;118;0;126.25;17;31.65;3.71;99.0;12.30;69470;5140.045;-12818.414;170;100;105.0;53;53.2;0;0.5;29.3;-1.0;
13/06/2019 20:11:19;117;0;125.14;17;32.81;3.30;97.4;12.30;69462;5140.045;-12818.414;170;100;105.0;53;53.2;0;0.5;29.3;-1.0;
13/06/2019 20:11:39;117;0;110.93;17;32.78;3.60;93.4;12.30;69449;5140.045;-12818.414;170;100;106.9;53;53.2;19;19.0;29.3;-1.0;
13/06/2019 20:11:59;117;0;117.67;17;31.88;13.23;89.0;12.20;69451;5140.045;-12818.414;170;100;106.9;53;53.2;17;17.1;29.3;-1.0;
13/06/2019 20:12:19;117;0;134.56;17;31.60;11.14;85.2;12.20;69447;5140.045;-12818.414;170;100;105.0;53;53.2;10;9.9;29.3;-1.0;
13/06/2019 20:12:39;117;0;123.23;17;31.61;7.77;81.1;12.10;69442;5140.045;-12818.414;170;100;106.9;53;53.2;20;19.9;29.3;-1.0;
13/06/2019 20:12:59;117;0;132.96;17;29.27;13.66;77.6;12.10;69451;5140.045;-12818.414;170;100;106.9;53;53.2;15;14.9;29.2;-1.0;
13/06/2019 20:13:19;117;0;142.58;17;30.06;10.12;74.6;12.00;69455;5140.045;-12818.414;170;100;106.9;53;53.2;11;10.8;29.3;-1.0;
13/06/2019 20:13:40;117;0;141.66;17;29.53;8.31;71.3;12.00;69462;5140.045;-12818.414;170;100;106.9;53;53.2;14;14.0;29.3;-1.0;
13/06/2019 20:14:00;117;0;145.95;17;29.21;10.53;68.0;11.90;69470;5140.045;-12818.414;170;100;105.0;53;53.2;13;13.1;29.3;-1.0;
13/06/2019 20:14:20;117;0;144.73;17;28.85;9.16;64.8;11.90;69465;5140.045;-12818.414;170;100;106.9;53;53.2;15;14.9;29.3;-1.0;
13/06/2019 20:14:40;117;0;138.22;17;28.50;10.59;61.8;11.90;69462;5140.045;-12818.414;170;100;105.0;53;53.2;19;19.0;29.3;-1.0;
13/06/2019 20:15:00;117;0;144.73;17;27.65;13.12;59.2;11.80;69468;5140.045;-12818.414;170;100;105.0;53;53.2;15;14.9;29.3;-1.0;
13/06/2019 20:15:20;117;0;151.27;17;27.99;10.14;56.7;11.80;69479;5140.045;-12818.414;170;100;106.9;53;53.2;11;10.4;29.3;-1.0;
13/06/2019 20:15:40;117;0;155.69;17;27.67;8.00;54.3;11.80;69479;5140.045;-12818.414;170;100;105.0;53;53.4;11;9.9;29.3;-1.0;
13/06/2019 20:16:00;117;0;161.62;17;27.50;8.04;51.8;11.70;69483;5140.045;-12818.414;170;100;106.9;53;53.2;9;9.0;29.3;-1.0;
13/06/2019 20:16:20;117;0;170.31;17;27.47;7.38;49.5;11.70;69506;5140.045;-12818.414;170;100;105.0;53;53.2;5;5.0;29.3;-1.0;
13/06/2019 20:16:40;117;0;168.37;17;27.89;5.29;47.2;11.70;69505;5140.045;-12818.414;170;100;106.9;53;53.2;8;8.6;29.3;-1.0;
13/06/2019 20:17:00;117;0;168.15;17;27.28;7.73;44.8;11.70;69510;5140.045;-12818.414;170;100;106.9;53;53.2;8;9.0;29.3;-1.0;
13/06/2019 20:17:20;117;0;172.57;17;27.46;8.00;42.3;11.70;69524;5140.045;-12818.414;170;100;106.9;53;53.1;6;5.4;29.3;-1.0;
13/06/2019 20:17:40;117;0;181.47;17;27.27;5.72;39.7;11.60;69525;5140.045;-12818.414;170;100;106.9;53;53.2;1;0.9;29.3;-1.0;
13/06/2019 20:18:00;117;0;182.49;17;27.25;3.33;37.4;11.60;69547;5140.045;-12818.414;170;100;105.0;53;53.2;2;1.8;29.3;-1.0;
13/06/2019 20:18:20;117;0;187.68;17;27.26;4.59;34.9;11.60;69547;5140.045;-12818.414;170;100;106.9;53;53.2;0;-0.5;29.3;-1.0;
13/06/2019 20:18:40;117;0;194.23;17;26.54;2.79;32.4;11.60;69561;5140.045;-12818.414;170;100;106.9;53;53.2;-2;-2.3;29.3;-1.0;
13/06/2019 20:19:00;117;0;196.37;17;26.04;1.81;30.3;11.60;69585;5140.045;-12818.414;170;100;106.9;53;53.2;-2;-2.7;29.3;-1.0;
13/06/2019 20:19:20;117;0;197.72;17;25.32;1.93;28.2;11.60;69598;5140.045;-12818.414;170;100;108.9;53;53.2;-2;-2.7;29.3;-1.0;
13/06/2019 20:19:40;117;0;200.42;17;26.35;1.62;26.2;11.60;69615;5140.045;-12818.414;170;100;106.9;53;53.1;-4;-4.1;29.3;-1.0;
13/06/2019 20:20:00;117;0;197.23;17;26.36;1.07;24.0;11.60;69649;5140.045;-12818.414;170;100;106.9;53;53.2;-2;-1.4;29.3;-1.0;
13/06/2019 20:20:20;117;0;193.89;17;25.38;2.70;21.7;11.60;69655;5140.045;-12818.414;170;100;106.9;53;53.2;0;0.5;29.3;-1.0;
13/06/2019 20:20:40;117;0;191.15;17;25.46;3.67;19.6;11.60;69672;5140.045;-12818.414;170;100;105.0;53;53.2;-1;-1.4;29.3;-1.0;
13/06/2019 20:21:00;117;0;190.27;17;26.02;2.40;17.5;11.60;69690;5140.045;-12818.414;170;100;106.9;53;53.2;-1;-1.8;29.3;-1.0;
13/06/2019 20:21:20;117;0;187.42;17;25.49;2.05;15.2;11.60;69700;5140.045;-12818.414;170;100;106.9;53;53.2;-1;-1.8;29.3;-1.0;
13/06/2019 20:21:40;117;0;187.94;17;26.31;2.42;13.1;11.60;69730;5140.045;-12818.414;170;100;106.9;53;53.2;-2;-1.8;29.3;-1.0;
13/06/2019 20:22:00;117;0;195.32;17;25.47;1.83;11.0;11.70;69748;5140.045;-12818.414;170;100;106.9;53;53.2;-8;-8.1;29.3;-1.0;
