Timestamp;NavState;SecurityLevel;Heading;Declination;Pitch;Roll;Depth;Temperature;Pa;Lat;Lon;DesiredH;BallastCmd;BallastPos;LinCmd;LinPos;AngCmd;AngPos;Voltage;Altitude;
14/06/2019 22:41:17;117;0;211.51;17;16.53;3.74;14.7;9.90;69248;5130.310;-12824.790;227;150;156.4;57;56.9;0;0.9;29.0;-1.0;
14/06/2019 22:41:27;110;0;212.05;17;16.61;3.60;13.8;10.00;69256;5130.310;-12824.790;227;-300;27.7;73;73.2;0;0.9;29.0;-1.0;
14/06/2019 22:41:37;110;0;218.27;17;-8.49;4.01;13.3;10.00;69566;5130.310;-12824.790;227;-300;-150.5;73;73.0;0;0.9;29.0;-1.0;
14/06/2019 22:41:47;110;0;220.12;17;-23.01;4.24;13.9;10.00;69821;5130.310;-12824.790;227;-300;-299.0;73;73.0;0;0.9;29.0;-1.0;
14/06/2019 22:41:57;110;0;214.55;17;-26.30;4.03;15.2;10.00;70043;5130.310;-12824.790;227;-300;-299.0;73;73.0;0;0.5;29.1;-1.0;
14/06/2019 22:42:07;100;0;209.48;17;-27.72;4.03;17.0;10.00;70034;5130.310;-12824.790;227;-300;-301.0;73;73.0;0;0.9;29.0;-1.0;
14/06/2019 22:42:27;100;0;200.94;17;-26.10;4.02;21.2;10.10;70032;5130.310;-12824.790;227;-300;-301.0;73;73.0;-5;-5.0;29.1;0.0;
14/06/2019 22:42:47;100;0;190.70;17;-25.94;0.77;25.9;10.10;70015;5130.310;-12824.790;227;-300;-301.0;73;73.0;-9;-9.0;29.0;0.0;
14/06/2019 22:43:07;100;0;191.42;17;-24.61;-1.00;30.3;10.10;69992;5130.310;-12824.790;227;-300;-301.0;73;73.0;-6;-5.9;29.1;0.0;
14/06/2019 22:43:27;100;0;184.52;17;-24.51;1.34;34.2;10.10;69945;5130.310;-12824.790;227;-300;-301.0;73;73.0;-10;-10.4;29.1;0.0;
14/06/2019 22:43:47;100;0;172.40;17;-25.66;-1.58;37.8;10.20;69933;5130.310;-12824.790;227;-300;-299.0;73;73.0;-15;-14.9;29.0;0.0;
14/06/2019 22:44:07;100;0;169.25;17;-25.24;-3.39;41.7;10.20;69922;5130.310;-12824.790;227;-300;-301.0;73;73.0;-15;-14.9;29.1;0.0;
14/06/2019 22:44:27;100;0;165.90;17;-24.81;-3.33;45.5;10.20;69892;5130.310;-12824.790;227;-300;-301.0;73;73.0;-15;-15.3;29.0;0.0;
14/06/2019 22:44:47;100;0;163.90;17;-25.10;-3.40;49.1;10.10;69870;5130.310;-12824.790;227;-300;-301.0;73;73.0;-16;-16.2;29.1;0.0;
14/06/2019 22:45:07;100;0;159.51;17;-24.98;-4.04;53.0;10.10;69860;5130.310;-12824.790;227;-300;-299.0;73;73.0;-19;-19.0;29.0;0.0;
14/06/2019 22:45:27;100;0;158.52;17;-24.21;-5.40;56.9;10.10;69838;5130.310;-12824.790;227;-300;-303.0;73;73.0;-21;-21.2;29.1;0.0;
14/06/2019 22:45:47;100;0;154.04;17;-24.63;-6.34;60.5;10.10;69831;5130.310;-12824.790;227;-300;-301.0;73;73.0;-24;-23.9;29.0;0.0;
14/06/2019 22:46:07;100;0;147.69;17;-24.94;-7.67;64.2;10.10;69823;5130.310;-12824.790;227;-300;-301.0;73;73.0;-30;-29.8;29.0;0.0;
14/06/2019 22:46:27;100;0;150.44;17;-24.31;-10.41;68.0;10.10;69812;5130.310;-12824.790;227;-300;-301.0;73;73.0;-27;-27.1;29.0;0.0;
14/06/2019 22:46:47;100;0;153.37;17;-23.73;-8.62;71.6;10.10;69806;5130.310;-12824.790;227;-300;-301.0;73;73.0;-25;-24.8;29.1;0.0;
14/06/2019 22:47:08;100;0;148.36;17;-24.38;-7.59;75.1;10.10;69804;5130.310;-12824.790;227;-300;-301.0;73;73.0;-28;-28.0;29.0;0.0;
14/06/2019 22:47:28;100;0;154.81;17;-23.90;-9.80;78.5;10.10;69780;5130.310;-12824.790;227;-300;-301.0;73;73.0;-24;-23.9;29.1;0.0;
14/06/2019 22:47:48;100;0;156.51;17;-23.27;-7.01;82.0;10.10;69777;5130.310;-12824.790;227;-300;-301.0;73;73.0;-24;-23.0;29.1;0.0;
14/06/2019 22:48:08;100;0;152.26;17;-23.10;-7.18;85.3;10.10;69770;5130.310;-12824.790;227;-300;-301.0;73;73.0;-27;-27.1;29.1;0.0;
14/06/2019 22:48:28;100;0;148.21;17;-23.48;-9.25;88.6;10.10;69762;5130.310;-12824.790;227;-300;-299.0;73;73.0;-29;-28.9;29.1;0.0;
14/06/2019 22:48:48;100;0;142.06;17;-23.17;-10.21;91.9;10.10;69751;5130.310;-12824.790;227;-300;-301.0;73;73.0;-31;-31.1;29.0;0.0;
14/06/2019 22:49:08;100;0;144.34;17;-21.76;-11.25;95.1;10.00;69725;5130.310;-12824.790;227;-300;-301.0;73;73.0;-28;-28.0;29.1;0.0;
14/06/2019 22:49:28;100;0;150.75;17;-21.52;-9.26;98.2;10.00;69731;5130.310;-12824.790;227;-300;-301.0;73;73.0;-24;-23.5;29.0;0.0;
14/06/2019 22:49:48;100;0;154.35;17;-21.30;-7.21;101.0;10.00;69715;5130.310;-12824.790;227;-300;-301.0;73;73.0;-23;-23.0;29.0;0.0;
14/06/2019 22:50:08;100;0;156.51;17;-21.10;-7.44;103.7;10.00;69703;5130.310;-12824.790;227;-300;-301.0;73;73.0;-23;-23.5;29.0;0.0;
14/06/2019 22:50:28;100;0;157.69;17;-21.49;-7.46;106.4;10.00;69703;5130.310;-12824.790;227;-300;-301.0;73;73.0;-24;-23.9;29.1;0.0;
14/06/2019 22:50:48;100;0;159.02;17;-20.53;-7.84;109.3;10.00;69693;5130.310;-12824.790;227;-300;-301.0;73;73.0;-23;-23.0;29.0;0.0;
14/06/2019 22:51:08;100;0;156.83;17;-20.41;-7.00;111.9;10.00;69686;5130.310;-12824.790;227;-300;-299.0;73;73.0;-26;-26.2;29.0;0.0;
14/06/2019 22:51:28;100;0;155.40;17;-20.33;-8.95;114.6;9.90;69676;5130.310;-12824.790;227;-300;-301.0;73;73.0;-26;-26.6;29.1;0.0;
14/06/2019 22:51:48;100;0;155.88;17;-20.84;-8.98;117.1;9.90;69672;5130.310;-12824.790;227;-300;-301.0;73;73.0;-26;-26.6;29.0;0.0;
14/06/2019 22:52:08;100;0;153.21;17;-20.39;-8.88;119.6;9.90;69662;5130.310;-12824.790;227;-300;-303.0;73;73.0;-27;-27.1;29.0;0.0;
14/06/2019 22:52:28;100;0;151.20;17;-20.35;-9.58;122.1;9.90;69655;5130.310;-12824.790;227;-300;-301.0;73;73.0;-27;-27.5;29.0;0.0;
14/06/2019 22:52:48;100;0;152.95;17;-20.37;-9.50;124.6;9.90;69642;5130.310;-12824.790;227;-300;-301.0;73;73.0;-26;-25.7;29.0;0.0;
14/06/2019 22:53:08;100;0;151.58;17;-20.32;-8.40;126.8;9.90;69643;5130.310;-12824.790;227;-300;-301.0;73;73.0;-27;-27.1;29.0;0.0;
14/06/2019 22:53:28;100;0;151.00;17;-20.28;-9.49;129.2;9.80;69631;5130.310;-12824.790;227;-300;-301.0;73;73.0;-26;-26.2;29.1;0.0;
14/06/2019 22:53:48;100;0;153.01;17;-20.06;-8.62;131.5;9.80;69616;5130.310;-12824.790;227;-300;-301.0;73;73.0;-25;-24.4;29.1;0.0;
14/06/2019 22:54:08;100;0;155.24;17;-19.79;-7.75;133.8;9.80;69621;5130.310;-12824.790;227;-300;-301.0;73;73.0;-24;-23.9;29.0;0.0;
14/06/2019 22:54:28;100;0;157.69;17;-19.56;-7.74;136.0;9.80;69602;5130.310;-12824.790;227;-300;-301.0;73;73.0;-24;-23.5;29.0;0.0;
14/06/2019 22:54:48;100;0;160.35;17;-19.74;-7.77;138.2;9.70;69596;5130.310;-12824.790;227;-300;-301.0;73;73.0;-23;-23.0;29.0;0.0;
14/06/2019 22:55:08;100;0;159.74;17;-19.86;-7.01;140.4;9.70;69573;5130.310;-12824.790;227;-300;-301.0;73;73.0;-24;-24.4;29.1;0.0;
14/06/2019 22:55:28;100;0;158.74;17;-19.16;-8.07;142.7;9.70;69568;5130.310;-12824.790;227;-300;-301.0;73;73.0;-25;-24.8;29.1;44.4;
14/06/2019 22:55:48;100;0;156.88;17;-19.51;-8.09;144.9;9.70;69551;5130.310;-12824.790;227;-300;-299.0;73;73.0;-26;-26.6;29.0;42.0;
14/06/2019 22:56:08;100;0;156.27;17;-19.14;-9.18;147.2;9.60;69545;5130.310;-12824.790;227;-300;-299.0;73;73.0;-26;-26.6;29.0;40.0;
14/06/2019 22:56:28;100;0;155.74;17;-19.41;-9.18;149.3;9.60;69539;5130.310;-12824.790;227;-300;-301.0;73;73.0;-26;-26.6;29.0;37.7;
14/06/2019 22:56:48;100;0;155.38;17;-19.35;-9.24;151.4;9.60;69540;5130.310;-12824.790;227;-300;-301.0;73;73.0;-26;-26.6;29.0;35.7;
14/06/2019 22:57:08;100;0;160.51;17;-19.19;-9.31;153.4;9.60;69526;5130.310;-12824.790;227;-300;-301.0;73;73.0;-23;-23.0;29.0;33.5;
14/06/2019 22:57:28;100;0;162.17;17;-19.36;-6.90;155.4;9.60;69511;5130.310;-12824.790;227;-300;-301.0;73;73.0;-22;-22.1;29.0;31.2;
14/06/2019 22:57:48;100;0;163.81;17;-19.07;-6.84;157.5;9.50;69517;5130.310;-12824.790;227;-300;-299.0;73;73.0;-23;-23.0;29.1;29.1;
14/06/2019 22:58:08;100;0;164.82;17;-18.92;-7.69;159.6;9.50;69508;5130.310;-12824.790;227;-300;-301.0;73;73.0;-23;-23.9;29.0;27.0;
14/06/2019 22:58:28;100;0;165.97;17;-19.04;-7.71;161.7;9.50;69488;5130.310;-12824.790;227;-300;-301.0;73;73.0;-22;-21.7;29.1;25.0;
14/06/2019 22:58:48;100;0;169.24;17;-19.16;-6.62;163.8;9.40;69490;5130.310;-12824.790;227;-300;-301.0;73;73.0;-21;-21.2;29.0;22.7;
14/06/2019 22:59:08;100;0;169.43;17;-18.92;-6.51;165.9;9.40;69477;5130.310;-12824.790;227;-300;-301.0;73;73.0;-22;-22.1;29.1;20.5;
14/06/2019 22:59:28;100;0;171.55;17;-18.96;-7.11;168.0;9.40;69482;5130.310;-12824.790;227;-300;-301.0;73;73.0;-21;-21.2;29.0;18.3;
14/06/2019 22:59:48;118;0;172.79;17;-18.94;-6.16;170.1;9.40;69479;5130.310;-12824.790;227;150;-287.1;57;56.8;0;0.5;29.1;16.1;
14/06/2019 22:59:58;118;0;138.43;17;1.83;3.81;171.0;9.40;69396;5130.310;-12824.790;227;150;-130.7;57;57.1;0;0.5;28.5;16.1;
14/06/2019 23:00:08;118;0;138.11;17;19.29;3.39;170.7;9.40;69192;5130.310;-12824.790;227;150;23.8;57;57.1;0;0.5;28.5;-1.0;
14/06/2019 23:00:18;118;0;138.52;17;23.60;3.73;169.9;9.40;68937;5130.310;-12824.790;227;150;156.4;57;57.1;0;0.5;28.5;-1.0;
14/06/2019 23:00:28;118;0;175.95;17;24.44;3.89;168.7;9.40;68732;5130.310;-12824.790;227;150;154.5;57;57.1;0;0.5;29.0;-1.0;
14/06/2019 23:00:38;118;0;175.26;17;26.65;3.55;167.0;9.40;68753;5130.310;-12824.790;227;150;156.4;57;57.1;0;0.5;29.0;-1.0;
14/06/2019 23:00:48;117;0;175.19;17;27.55;3.58;165.2;9.30;68747;5130.310;-12824.790;227;150;154.5;57;57.1;0;0.5;29.0;-1.0;
14/06/2019 23:01:08;117;0;172.85;17;27.94;3.65;161.1;9.30;68739;5130.310;-12824.790;227;150;156.4;57;56.9;21;21.7;29.1;-1.0;
14/06/2019 23:01:28;117;0;180.27;17;27.42;14.14;156.2;9.30;68735;5130.310;-12824.790;227;150;156.4;57;57.1;17;17.1;29.0;-1.0;
14/06/2019 23:01:48;117;0;183.92;17;27.86;11.36;151.9;9.30;68731;5130.310;-12824.790;227;150;156.4;57;57.1;17;16.7;29.0;-1.0;
14/06/2019 23:02:08;117;0;188.98;17;27.73;11.40;147.5;9.30;68733;5130.310;-12824.790;227;150;156.4;57;57.1;15;14.4;29.0;-1.0;
14/06/2019 23:02:28;117;0;194.75;17;27.10;9.95;143.1;9.30;68744;5130.310;-12824.790;227;150;156.4;57;57.1;14;14.0;29.0;-1.0;
14/06/2019 23:02:48;117;0;200.39;17;26.59;9.86;139.0;9.20;68736;5130.310;-12824.790;227;150;156.4;57;57.1;12;12.2;29.0;-1.0;
14/06/2019 23:03:08;117;0;203.88;17;27.23;8.62;134.9;9.20;68738;5130.310;-12824.790;227;150;156.4;57;57.1;12;11.3;29.1;-1.0;
14/06/2019 23:03:28;117;0;207.73;17;27.02;8.80;130.6;9.20;68746;5130.310;-12824.790;227;150;154.5;57;57.1;12;11.7;29.1;-1.0;
14/06/2019 23:03:48;117;0;212.33;17;26.60;8.57;126.4;9.20;68751;5130.310;-12824.790;227;150;156.4;57;57.1;12;11.3;29.0;-1.0;
14/06/2019 23:04:08;117;0;218.20;17;25.48;8.57;122.6;9.20;68763;5130.310;-12824.790;227;150;156.4;57;57.1;9;9.0;29.0;-1.0;
14/06/2019 23:04:28;117;0;222.12;17;25.61;7.18;118.9;9.10;68775;5130.310;-12824.790;227;150;158.4;57;57.1;8;7.7;29.1;-1.0;
14/06/2019 23:04:48;117;0;223.33;17;25.65;6.45;115.4;9.10;68795;5130.310;-12824.790;227;150;156.4;57;57.1;8;7.2;29.1;-1.0;
14/06/2019 23:05:08;117;0;226.03;17;25.14;6.65;111.8;9.10;68798;5130.310;-12824.790;227;150;156.4;57;57.1;7;7.2;29.0;-1.0;
14/06/2019 23:05:28;117;0;221.44;17;25.35;6.87;108.4;9.10;68802;5130.310;-12824.790;227;150;156.4;57;57.1;11;10.8;29.0;-1.0;
14/06/2019 23:05:48;117;0;221.19;17;25.07;8.70;104.9;9.10;68806;5130.310;-12824.790;227;150;156.4;57;57.1;10;9.9;29.1;-1.0;
14/06/2019 23:06:08;117;0;225.03;17;24.75;7.65;101.4;9.10;68818;5130.310;-12824.790;227;150;158.4;57;57.1;7;7.2;29.0;-1.0;
14/06/2019 23:06:28;117;0;223.65;17;24.87;6.72;97.6;9.10;68833;5130.310;-12824.790;227;150;156.4;57;57.1;8;8.6;29.0;-1.0;
14/06/2019 23:06:48;117;0;225.13;17;23.87;7.83;93.9;9.10;68828;5130.310;-12824.790;227;150;156.4;57;57.1;6;5.4;29.0;-1.0;
14/06/2019 23:07:08;117;0;225.87;17;23.05;5.58;90.4;9.10;68839;5130.310;-12824.790;227;150;156.4;57;57.1;6;5.0;29.0;-1.0;
14/06/2019 23:07:28;117;0;223.04;17;22.76;5.69;87.2;9.10;68857;5130.310;-12824.790;227;150;156.4;57;57.1;7;7.2;29.0;-1.0;
14/06/2019 23:07:48;117;0;223.60;17;22.46;7.02;84.3;9.10;68852;5130.310;-12824.790;227;150;156.4;57;57.1;6;5.4;29.0;-1.0;
14/06/2019 23:08:08;117;0;227.10;17;21.69;5.77;81.4;9.10;68863;5130.310;-12824.790;227;150;156.4;57;57.1;3;2.7;29.0;-1.0;
14/06/2019 23:08:28;117;0;228.18;17;22.39;4.05;78.8;9.10;68869;5130.310;-12824.790;227;150;154.5;57;57.1;2;1.8;29.0;-1.0;
14/06/2019 23:08:48;117;0;223.25;17;21.80;3.60;75.9;9.10;68863;5130.310;-12824.790;227;150;156.4;57;57.1;5;5.0;29.1;-1.0;
14/06/2019 23:09:08;117;0;221.28;17;21.58;6.02;73.1;9.20;68876;5130.310;-12824.790;227;150;156.4;57;57.1;5;5.4;29.1;-1.0;
14/06/2019 23:09:28;117;0;218.66;17;21.45;6.09;70.3;9.20;68886;5130.310;-12824.790;227;150;156.4;57;57.1;6;5.9;29.1;-1.0;
14/06/2019 23:09:48;117;0;218.40;17;20.81;6.42;67.7;9.20;68886;5130.310;-12824.790;227;150;156.4;57;57.1;5;5.0;29.0;-1.0;
14/06/2019 23:10:08;117;0;221.28;17;20.32;5.39;65.1;9.20;68894;5130.310;-12824.790;227;150;156.4;57;57.1;2;1.8;29.0;-1.0;
14/06/2019 23:10:28;117;0;218.86;17;20.82;3.66;62.6;9.20;68908;5130.310;-12824.790;227;150;156.4;57;57.1;4;4.1;29.1;-1.0;
14/06/2019 23:10:48;117;0;214.46;17;20.64;5.47;60.0;9.20;68908;5130.310;-12824.790;227;150;156.4;57;57.1;6;5.9;29.1;-1.0;
14/06/2019 23:11:08;117;0;216.37;17;19.77;6.27;57.7;9.20;68917;5130.310;-12824.790;227;150;156.4;57;57.1;3;2.7;29.0;-1.0;
14/06/2019 23:11:28;117;0;221.06;17;19.72;4.42;55.5;9.20;68921;5130.310;-12824.790;227;150;158.4;57;57.1;0;0.0;29.0;-1.0;
14/06/2019 23:11:48;117;0;225.28;17;19.83;2.87;53.2;9.20;68934;5130.310;-12824.790;227;150;156.4;57;57.1;-1;-0.9;29.0;-1.0;
14/06/2019 23:12:08;117;0;222.20;17;19.70;2.52;51.1;9.20;68926;5130.310;-12824.790;227;150;156.4;57;57.1;0;0.0;29.0;-1.0;
14/06/2019 23:12:28;117;0;215.53;17;19.50;3.42;48.7;9.20;68936;5130.310;-12824.790;227;150;156.4;57;57.1;4;4.1;29.0;-1.0;
14/06/2019 23:12:48;117;0;217.60;17;19.21;5.51;46.6;9.20;68946;5130.310;-12824.790;227;150;156.4;57;57.1;1;0.5;29.0;-1.0;
14/06/2019 23:13:08;117;0;217.41;17;19.29;3.20;44.3;9.30;68957;5130.310;-12824.790;227;150;156.4;57;57.1;1;0.0;29.0;-1.0;
14/06/2019 23:13:28;117;0;216.17;17;19.05;3.20;42.0;9.30;68965;5130.310;-12824.790;227;150;156.4;57;57.1;1;0.0;29.1;-1.0;
14/06/2019 23:13:48;117;0;215.21;17;18.63;3.18;39.9;9.30;68973;5130.310;-12824.790;227;150;156.4;57;57.1;1;0.0;29.0;-1.0;
14/06/2019 23:14:08;117;0;213.29;17;18.54;3.24;37.9;9.30;68985;5130.310;-12824.790;227;150;156.4;57;57.1;2;1.8;29.0;-1.0;
14/06/2019 23:14:28;117;0;213.39;17;18.50;4.52;35.9;9.30;68995;5130.310;-12824.790;227;150;156.4;57;57.1;1;0.5;29.0;-1.0;
14/06/2019 23:14:48;117;0;217.50;17;18.63;3.38;33.9;9.30;68997;5130.310;-12824.790;227;150;156.4;57;57.1;-1;-0.9;29.0;-1.0;
14/06/2019 23:15:08;117;0;221.30;17;18.75;2.34;31.9;9.30;69007;5130.310;-12824.790;227;150;156.4;57;57.1;-3;-3.6;29.0;-1.0;
14/06/2019 23:15:28;117;0;216.50;17;18.27;1.32;29.6;9.40;69019;5130.310;-12824.790;227;150;156.4;57;57.1;0;0.0;29.0;-1.0;
14/06/2019 23:15:48;117;0;215.64;17;18.07;3.56;27.7;9.40;69024;5130.310;-12824.790;227;150;156.4;57;57.1;0;0.5;29.0;-1.0;
14/06/2019 23:16:08;117;0;212.85;17;17.54;3.43;25.8;9.40;69037;5130.310;-12824.790;227;150;156.4;57;57.1;1;0.9;29.0;-1.0;
14/06/2019 23:16:28;117;0;208.90;17;17.35;3.53;23.9;9.40;69046;5130.310;-12824.790;227;150;156.4;57;57.1;1;0.9;29.0;-1.0;
14/06/2019 23:16:48;117;0;212.78;17;16.71;3.54;22.3;9.40;69092;5130.310;-12824.790;227;150;156.4;57;57.1;1;0.9;29.0;-1.0;
14/06/2019 23:17:08;117;0;214.89;17;16.91;3.57;20.7;9.50;69106;5130.310;-12824.790;227;150;156.4;57;57.1;-1;-1.4;29.0;-1.0;
14/06/2019 23:17:28;117;0;209.17;17;16.10;2.43;19.2;9.50;69132;5130.310;-12824.790;227;150;156.4;57;57.1;-1;-1.8;29.0;-1.0;
14/06/2019 23:17:48;117;0;211.45;17;15.92;2.52;17.6;9.50;69159;5130.310;-12824.790;227;150;156.4;57;57.1;-1;-1.8;29.0;-1.0;
14/06/2019 23:18:08;117;0;209.33;17;16.08;2.43;16.1;9.60;69194;5130.310;-12824.790;227;150;156.4;57;57.1;-1;-1.4;29.0;-1.0;
