Timestamp;NavState;SecurityLevel;Heading;Declination;Pitch;Roll;Depth;Temperature;Pa;Lat;Lon;DesiredH;BallastCmd;BallastPos;LinCmd;LinPos;AngCmd;AngPos;Voltage;Altitude;
16/06/2019 09:00:48;117;0;36.01;17;15.93;2.54;9.4;9.80;69292;5125.013;-12838.275;51;150;158.4;57;56.9;-1;-1.8;28.7;-1.0;
16/06/2019 09:00:58;115;0;37.74;17;15.84;2.55;8.6;9.80;69304;5125.013;-12838.275;51;500;170.3;100;100.1;0;0.5;28.8;-1.0;
16/06/2019 09:01:08;115;0;52.74;17;-24.30;4.86;7.9;9.90;69236;5125.013;-12838.275;51;500;320.8;100;99.7;0;0.9;28.3;-1.0;
16/06/2019 09:01:18;115;0;38.91;17;-61.50;1.86;8.7;9.90;69037;5125.013;-12838.275;51;500;469.3;100;99.9;0;0.9;28.4;-1.0;
16/06/2019 09:01:28;115;0;35.11;17;-58.61;2.32;7.7;9.90;68801;5125.013;-12838.275;51;500;505.0;100;99.7;0;0.9;28.4;-1.0;
16/06/2019 09:01:38;115;0;2.24;17;-38.21;6.18;4.4;10.00;68777;5125.013;-12838.275;51;500;506.9;100;99.7;0;0.5;28.7;-1.0;
16/06/2019 09:01:48;116;0;315.87;17;-43.12;-3.93;1.4;10.00;68792;5125.013;-12838.275;51;500;506.9;100;99.6;0;0.5;28.7;-1.0;
16/06/2019 09:02:08;116;0;252.55;17;-8.76;6.49;1.3;10.10;68832;5125.013;-12838.275;51;500;508.9;100;99.7;0;0.9;28.7;-1.0;
16/06/2019 09:02:28;116;0;207.04;17;-6.72;-1.84;1.3;10.20;68842;5125.368;-12837.693;51;500;510.9;100;99.6;0;0.5;28.7;-1.0;
16/06/2019 09:02:48;116;0;203.29;17;-9.55;2.57;1.3;10.30;68865;5125.362;-12837.687;51;500;508.9;100;99.6;0;0.5;28.7;-1.0;
16/06/2019 09:03:08;116;0;193.15;17;-9.60;2.76;1.4;10.40;68880;5125.359;-12837.689;51;500;508.9;100;99.7;0;0.5;28.7;-1.0;
16/06/2019 09:03:28;116;0;200.47;17;-8.72;-2.12;1.4;10.50;68894;5125.356;-12837.688;51;500;508.9;100;99.6;0;0.5;28.8;-1.0;
16/06/2019 09:03:48;116;0;205.30;17;-6.93;0.33;1.4;10.60;68904;5125.354;-12837.691;52;500;508.9;100;99.6;0;0.9;28.7;-1.0;
16/06/2019 09:04:08;116;0;207.43;17;-5.15;1.40;1.4;10.80;68924;5125.343;-12837.697;52;500;508.9;100;99.6;0;0.5;28.7;-1.0;
16/06/2019 09:05:39;116;0;203.57;17;-5.86;4.05;1.4;11.40;68967;5125.342;-12837.698;52;500;508.9;100;99.6;0;0.9;28.7;-1.0;
16/06/2019 09:05:59;116;0;213.52;17;-6.94;1.74;1.3;11.60;68987;5125.342;-12837.698;52;500;508.9;100;99.6;0;0.5;28.7;-1.0;
16/06/2019 09:06:19;116;0;213.56;17;-8.52;4.12;1.3;11.70;68983;5125.341;-12837.699;52;500;510.9;100;99.6;0;0.9;28.7;-1.0;
16/06/2019 09:06:57;116;0;193.67;17;-8.57;5.09;1.4;11.90;68996;5125.341;-12837.699;52;500;508.9;100;99.7;0;0.9;28.7;-1.0;
16/06/2019 09:07:17;116;0;196.97;17;-8.30;-4.70;1.3;12.10;69009;5125.341;-12837.699;52;500;510.9;100;99.6;0;0.5;28.7;-1.0;
16/06/2019 09:07:37;116;0;214.90;17;-6.34;2.86;1.3;12.20;69014;5125.279;-12837.721;52;500;508.9;100;99.6;0;0.5;28.7;-1.0;
16/06/2019 09:12:20;116;0;200.27;17;-7.16;8.92;1.3;13.50;69088;5125.276;-12837.722;52;500;508.9;100;99.7;0;0.5;28.7;-1.0;
16/06/2019 09:12:40;116;0;201.20;17;-13.50;3.78;1.3;13.50;69079;5125.276;-12837.722;52;500;508.9;100;99.6;0;0.9;28.7;-1.0;
16/06/2019 09:13:00;116;0;212.81;17;-8.32;3.03;1.4;13.60;69096;5125.272;-12837.725;52;500;508.9;100;99.7;0;0.9;28.7;-1.0;
16/06/2019 09:13:20;116;0;203.25;17;-20.52;4.06;1.4;13.70;69099;5125.267;-12837.733;52;500;508.9;100;99.7;0;0.5;28.7;-1.0;
16/06/2019 09:13:51;116;0;210.22;17;-12.28;5.01;1.4;13.70;69102;5125.267;-12837.734;52;500;508.9;100;99.7;0;0.5;28.7;-1.0;
16/06/2019 09:14:11;116;0;189.22;17;-7.52;3.59;1.4;13.90;69098;5125.264;-12837.733;52;500;508.9;100;99.7;0;0.5;28.7;-1.0;
16/06/2019 09:14:31;116;0;185.29;17;-6.98;5.66;1.3;14.00;69107;5125.259;-12837.733;52;500;508.9;100;99.7;0;0.9;28.7;-1.0;
16/06/2019 09:14:51;116;0;216.74;17;-6.46;4.42;1.3;14.10;69109;5125.257;-12837.733;52;500;508.9;100;99.6;0;0.9;28.7;-1.0;
16/06/2019 09:15:11;116;0;200.24;17;-10.12;6.72;1.4;14.20;69110;5125.254;-12837.737;52;500;508.9;100;99.7;0;0.9;28.7;-1.0;
16/06/2019 09:15:31;116;0;190.17;17;-5.14;7.11;1.3;14.20;69120;5125.250;-12837.738;52;500;508.9;100;99.6;0;0.5;28.7;-1.0;
16/06/2019 09:15:51;116;0;197.32;17;-11.77;3.33;1.3;14.30;69112;5125.246;-12837.741;52;500;508.9;100;99.6;0;0.5;28.7;-1.0;
16/06/2019 09:16:11;116;0;193.63;17;-6.28;0.04;1.3;14.30;69119;5125.244;-12837.741;52;500;508.9;100;99.7;0;0.5;28.7;-1.0;
16/06/2019 09:16:31;116;0;174.49;17;-6.22;1.02;1.3;14.40;69111;5125.240;-12837.743;52;500;508.9;100;99.7;0;0.9;28.7;-1.0;
16/06/2019 09:16:51;116;0;203.16;17;-17.55;1.68;1.4;14.40;69127;5125.236;-12837.744;52;500;508.9;100;99.7;0;0.5;28.7;-1.0;
16/06/2019 09:17:11;116;0;206.74;17;-7.10;-0.25;1.3;14.40;69132;5125.234;-12837.745;52;500;508.9;100;99.7;0;0.5;28.7;-1.0;
16/06/2019 09:17:31;116;0;187.59;17;-12.22;0.41;1.4;14.50;69131;5125.224;-12837.751;52;500;508.9;100;99.6;0;0.5;28.7;-1.0;
16/06/2019 09:18:18;116;0;190.30;17;-5.87;2.99;1.2;14.60;69135;5125.221;-12837.752;52;500;510.9;100;99.6;0;0.9;28.7;-1.0;
16/06/2019 09:18:38;116;0;188.78;17;-9.77;6.04;1.3;14.60;69134;5125.220;-12837.753;52;500;510.9;100;99.7;0;0.5;28.7;-1.0;
16/06/2019 09:18:58;116;0;209.05;17;-4.93;-1.18;1.3;14.60;69154;5125.217;-12837.755;52;500;506.9;100;99.7;0;0.5;28.7;-1.0;
16/06/2019 09:19:18;116;0;194.67;17;-18.39;1.56;1.4;14.70;69149;5125.212;-12837.759;52;500;506.9;100;99.7;0;0.5;28.7;-1.0;
16/06/2019 09:19:38;116;0;215.57;17;-20.78;3.38;1.4;14.70;69157;5125.211;-12837.758;52;500;508.9;100;99.7;0;0.9;28.7;-1.0;
16/06/2019 09:19:58;116;0;192.39;17;-8.42;1.63;1.3;14.80;69146;5125.208;-12837.760;52;500;508.9;100;99.7;0;0.5;28.7;-1.0;
16/06/2019 09:20:18;116;0;188.30;17;-5.44;6.60;1.3;14.80;69156;5125.205;-12837.763;52;500;508.9;100;99.6;0;0.9;28.7;-1.0;
16/06/2019 09:20:38;116;0;191.73;17;-10.20;-0.08;1.4;14.80;69159;5125.202;-12837.763;52;500;508.9;100;99.7;0;0.9;28.6;-1.0;
16/06/2019 09:20:58;116;0;201.30;17;-7.90;-2.26;1.3;14.80;69154;5125.194;-12837.768;52;500;508.9;100;99.7;0;0.9;28.7;-1.0;
16/06/2019 09:21:18;116;0;178.41;17;-5.56;7.55;1.3;14.90;69155;5125.193;-12837.768;52;500;508.9;100;99.6;0;0.5;28.6;-1.0;
16/06/2019 09:21:38;116;0;188.82;17;-7.87;-1.73;1.3;14.90;69159;5125.191;-12837.769;52;500;508.9;100;99.6;0;0.9;28.7;-1.0;
16/06/2019 09:21:58;116;0;188.38;17;-5.98;5.43;1.3;14.90;69162;5125.187;-12837.770;52;500;508.9;100;99.7;0;0.5;28.7;-1.0;
16/06/2019 09:22:18;116;0;182.66;17;-4.50;3.72;1.3;15.00;69165;5125.184;-12837.772;52;500;508.9;100;99.6;0;0.9;28.7;-1.0;
16/06/2019 09:22:38;116;0;189.74;17;-5.28;2.26;1.3;15.00;69173;5125.179;-12837.774;52;500;508.9;100;99.7;0;0.9;28.7;-1.0;
16/06/2019 09:22:58;110;0;188.11;17;-5.92;4.14;1.3;15.00;69174;5125.179;-12837.774;52;-300;407.9;100;99.7;0;0.5;28.7;-1.0;
16/06/2019 09:23:08;110;0;195.37;17;-8.98;-2.03;1.3;15.00;69420;5125.179;-12837.774;52;-300;265.3;100;99.6;0;0.9;28.6;-1.0;
16/06/2019 09:23:18;110;0;181.50;17;-7.61;1.98;1.3;15.00;69604;5125.179;-12837.774;52;-300;128.7;100;99.7;0;0.5;28.6;-1.0;
16/06/2019 09:23:28;110;0;187.48;17;-5.13;6.43;1.4;15.10;69826;5125.179;-12837.774;52;-300;-11.9;100;99.6;0;0.5;28.6;-1.0;
16/06/2019 09:23:38;110;0;159.61;17;-17.04;5.31;1.4;15.00;70047;5125.179;-12837.774;52;-300;-172.3;99;98.8;0;0.5;28.7;-1.0;
16/06/2019 09:23:48;110;0;161.18;17;-47.50;2.85;2.5;15.00;70318;5125.179;-12837.774;52;-300;-303.0;84;84.1;0;0.9;28.6;-1.0;
16/06/2019 09:23:58;110;0;170.32;17;-50.57;3.87;5.1;15.00;70506;5125.179;-12837.774;52;-300;-303.0;73;73.0;0;0.9;28.7;-1.0;
16/06/2019 09:24:08;100;0;176.94;17;-37.56;4.13;8.2;15.00;70501;5125.179;-12837.774;52;-300;-303.0;73;72.9;0;0.9;28.7;-1.0;
16/06/2019 09:24:28;100;0;168.94;17;-27.96;4.11;13.6;15.00;70480;5125.179;-12837.774;52;-300;-299.0;73;73.0;45;45.1;28.7;0.0;
16/06/2019 09:24:48;100;0;163.34;17;-24.12;25.18;18.5;14.90;70439;5125.179;-12837.774;52;-300;-299.0;73;73.0;45;45.6;28.7;0.0;
16/06/2019 09:25:08;100;0;139.73;17;-22.02;25.47;22.3;14.90;70393;5125.179;-12837.774;52;-300;-299.0;73;73.0;37;37.0;28.7;0.0;
16/06/2019 09:25:28;100;0;114.78;17;-22.91;20.50;25.9;14.80;70340;5125.179;-12837.774;52;-300;-297.0;73;73.0;22;22.1;28.7;0.0;
16/06/2019 09:25:48;100;0;103.27;17;-23.22;13.36;29.4;14.70;70287;5125.179;-12837.774;52;-300;-299.0;73;73.0;20;19.9;28.7;0.0;
16/06/2019 09:26:08;100;0;89.29;17;-23.28;12.19;33.0;14.60;70259;5125.179;-12837.774;52;-300;-299.0;73;72.9;16;15.8;28.7;0.0;
16/06/2019 09:26:28;100;0;75.28;17;-24.04;10.49;36.5;14.50;70220;5125.179;-12837.774;52;-300;-299.0;73;72.9;13;13.1;28.7;0.0;
16/06/2019 09:26:48;100;0;66.55;17;-24.53;8.80;40.1;14.40;70203;5125.179;-12837.774;52;-300;-299.0;73;73.0;12;12.2;28.7;0.0;
16/06/2019 09:27:08;100;0;57.28;17;-23.72;8.70;43.8;14.30;70165;5125.179;-12837.774;52;-300;-297.0;73;72.9;11;10.8;28.8;0.0;
16/06/2019 09:27:28;100;0;50.62;17;-23.79;8.02;47.7;14.30;70145;5125.179;-12837.774;52;-300;-299.0;73;73.0;11;10.8;28.7;0.0;
16/06/2019 09:27:48;100;0;43.11;17;-23.13;8.00;51.7;14.20;70132;5125.179;-12837.774;52;-300;-297.0;73;72.9;10;9.9;28.7;0.0;
16/06/2019 09:28:08;100;0;38.83;17;-23.32;7.45;55.4;14.10;70109;5125.179;-12837.774;52;-300;-297.0;73;72.9;10;9.0;28.7;0.0;
16/06/2019 09:28:28;100;0;30.90;17;-23.78;7.31;58.7;14.00;70075;5125.179;-12837.774;52;-300;-297.0;73;72.9;10;9.0;28.7;0.0;
16/06/2019 09:28:48;100;0;22.97;17;-24.01;7.63;62.0;13.90;70052;5125.179;-12837.774;52;-300;-297.0;73;72.9;6;5.9;28.8;0.0;
16/06/2019 09:29:08;100;0;17.35;17;-24.03;5.73;65.5;13.80;70035;5125.179;-12837.774;52;-300;-297.0;73;72.9;5;5.0;28.7;0.0;
16/06/2019 09:29:28;100;0;10.34;17;-23.66;5.16;69.0;13.80;70012;5125.179;-12837.774;52;-300;-297.0;73;72.9;3;3.2;28.7;0.0;
16/06/2019 09:29:48;100;0;6.35;17;-23.45;4.45;72.7;13.70;69996;5125.179;-12837.774;52;-300;-297.0;73;72.9;2;1.8;28.7;0.0;
16/06/2019 09:30:08;100;0;2.37;17;-23.59;3.86;76.3;13.60;69996;5125.179;-12837.774;52;-300;-297.0;73;72.9;2;1.4;28.7;0.0;
16/06/2019 09:30:28;100;0;359.56;17;-23.82;3.76;79.8;13.60;69974;5125.179;-12837.774;52;-300;-297.0;73;72.9;1;0.5;28.7;0.0;
16/06/2019 09:30:48;100;0;0.08;17;-23.79;3.32;83.3;13.50;69965;5125.179;-12837.774;52;-300;-299.0;73;72.9;2;1.8;28.7;0.0;
16/06/2019 09:31:08;100;0;353.81;17;-23.36;4.61;86.8;13.40;69957;5125.179;-12837.774;52;-300;-297.0;73;72.9;-1;-0.9;28.7;0.0;
16/06/2019 09:31:28;100;0;349.32;17;-23.95;2.65;90.1;13.30;69938;5125.179;-12837.774;52;-300;-297.0;73;72.9;-3;-3.2;28.7;0.0;
16/06/2019 09:31:48;100;0;342.04;17;-22.95;1.46;93.7;13.30;69931;5125.179;-12837.774;52;-300;-297.0;73;72.9;-8;-8.6;28.7;0.0;
16/06/2019 09:32:08;100;0;335.64;17;-22.88;-0.87;96.9;13.20;69919;5125.179;-12837.774;52;-300;-297.0;73;72.9;-12;-12.6;28.7;0.0;
16/06/2019 09:32:28;100;0;333.04;17;-23.27;-2.68;100.0;13.10;69907;5125.179;-12837.774;52;-300;-297.0;73;72.9;-13;-13.1;28.7;0.0;
16/06/2019 09:32:48;100;0;325.62;17;-23.15;-2.94;103.1;13.10;69903;5125.179;-12837.774;52;-300;-297.0;73;72.9;-19;-19.0;28.7;0.0;
16/06/2019 09:33:08;100;0;321.30;17;-23.30;-5.56;106.0;13.00;69893;5125.179;-12837.774;52;-300;-297.0;73;72.9;-22;-22.1;28.7;0.0;
16/06/2019 09:33:28;100;0;318.16;17;-23.28;-6.89;109.0;12.90;69892;5125.179;-12837.774;52;-300;-297.0;73;72.9;-25;-24.8;28.7;0.0;
16/06/2019 09:33:48;100;0;325.28;17;-22.19;-8.42;111.7;12.90;69884;5125.179;-12837.774;52;-300;-297.0;73;72.9;-22;-21.7;28.7;0.0;
16/06/2019 09:34:08;100;0;325.67;17;-21.81;-6.37;114.5;12.80;69850;5125.179;-12837.774;52;-300;-297.0;73;72.9;-26;-26.2;28.7;0.0;
16/06/2019 09:34:28;100;0;326.34;17;-22.19;-8.98;117.0;12.80;69856;5125.179;-12837.774;52;-300;-293.1;73;72.9;-27;-27.1;28.7;0.0;
16/06/2019 09:34:48;100;0;325.71;17;-22.29;-9.59;119.5;12.70;69838;5125.179;-12837.774;52;-300;-297.0;73;72.9;-28;-28.0;28.7;0.0;
16/06/2019 09:35:08;100;0;326.52;17;-22.14;-9.86;122.1;12.60;69831;5125.179;-12837.774;52;-300;-295.0;73;72.9;-28;-28.4;28.7;0.0;
16/06/2019 09:35:28;100;0;324.54;17;-22.03;-9.78;124.8;12.60;69831;5125.179;-12837.774;52;-300;-295.0;73;72.9;-29;-28.9;28.7;0.0;
16/06/2019 09:35:48;100;0;324.60;17;-21.64;-10.19;127.4;12.50;69828;5125.179;-12837.774;52;-300;-295.0;73;72.9;-29;-29.3;28.7;0.0;
16/06/2019 09:36:08;100;0;331.18;17;-21.05;-10.44;130.0;12.50;69810;5125.179;-12837.774;52;-300;-295.0;73;72.9;-25;-24.4;28.7;0.0;
16/06/2019 09:36:28;100;0;333.25;17;-21.08;-7.74;132.3;12.40;69797;5125.179;-12837.774;52;-300;-297.0;73;72.9;-25;-23.9;28.8;0.0;
16/06/2019 09:36:48;100;0;333.09;17;-21.05;-7.70;134.8;12.40;69785;5125.179;-12837.774;52;-300;-295.0;73;72.9;-26;-26.2;28.7;0.0;
16/06/2019 09:37:08;100;0;344.58;17;-20.82;-9.11;137.0;12.30;69772;5125.179;-12837.774;52;-300;-297.0;73;72.9;-20;-19.4;28.7;0.0;
16/06/2019 09:37:28;100;0;349.79;17;-20.52;-5.06;139.3;12.20;69764;5125.179;-12837.774;52;-300;-295.0;73;72.9;-19;-19.0;28.7;0.0;
16/06/2019 09:37:49;100;0;352.02;17;-20.28;-5.42;141.4;12.20;69749;5125.179;-12837.774;52;-300;-295.0;73;72.9;-20;-19.9;28.7;0.0;
16/06/2019 09:38:09;100;0;355.74;17;-19.57;-5.85;143.8;12.10;69736;5125.179;-12837.774;52;-300;-295.0;73;72.9;-20;-20.3;28.7;0.0;
16/06/2019 09:38:29;100;0;355.00;17;-19.59;-6.03;145.8;12.10;69731;5125.179;-12837.774;52;-300;-295.0;73;72.9;-22;-22.1;28.7;0.0;
16/06/2019 09:38:49;100;0;355.67;17;-19.45;-7.11;147.8;12.00;69711;5125.179;-12837.774;52;-300;-295.0;73;72.9;-21;-21.2;28.7;0.0;
16/06/2019 09:39:09;100;0;350.94;17;-19.65;-6.22;149.8;11.90;69700;5125.179;-12837.774;52;-300;-295.0;73;72.9;-25;-24.8;28.7;0.0;
16/06/2019 09:39:29;100;0;349.34;17;-19.53;-8.39;151.8;11.90;69694;5125.179;-12837.774;52;-300;-295.0;73;72.7;-25;-25.3;28.7;0.0;
16/06/2019 09:39:49;100;0;352.26;17;-19.10;-8.39;153.8;11.80;69681;5125.179;-12837.774;52;-300;-295.0;73;72.9;-22;-21.7;28.7;0.0;
16/06/2019 09:40:09;100;0;353.46;17;-19.00;-6.30;155.8;11.80;69671;5125.179;-12837.774;52;-300;-295.0;73;72.9;-22;-21.2;28.7;0.0;
16/06/2019 09:40:29;100;0;353.89;17;-19.02;-6.31;157.8;11.70;69660;5125.179;-12837.774;52;-300;-295.0;73;72.9;-22;-21.2;28.7;0.0;
16/06/2019 09:40:49;100;0;355.73;17;-18.57;-6.41;159.9;11.60;69635;5125.179;-12837.774;52;-300;-295.0;73;72.9;-21;-21.2;28.7;0.0;
16/06/2019 09:41:09;100;0;355.71;17;-18.95;-6.36;161.7;11.60;69633;5125.179;-12837.774;52;-300;-295.0;73;72.9;-22;-22.1;28.7;0.0;
16/06/2019 09:41:29;100;0;356.08;17;-18.89;-7.22;163.7;11.50;69639;5125.179;-12837.774;52;-300;-295.0;73;72.9;-21;-21.2;28.7;0.0;
16/06/2019 09:41:49;100;0;354.28;17;-18.60;-6.07;165.6;11.40;69610;5125.179;-12837.774;52;-300;-295.0;73;72.9;-23;-23.5;28.7;0.0;
16/06/2019 09:42:09;100;0;353.87;17;-19.04;-7.64;167.4;11.40;69599;5125.179;-12837.774;52;-300;-295.0;73;72.9;-23;-23.5;28.7;0.0;
16/06/2019 09:42:29;100;0;354.00;17;-19.07;-7.75;169.3;11.30;69589;5125.179;-12837.774;52;-300;-293.1;73;72.9;-22;-22.1;28.7;0.0;
16/06/2019 09:42:49;100;0;353.99;17;-18.97;-6.77;171.2;11.30;69568;5125.179;-12837.774;52;-300;-295.0;73;72.9;-23;-23.0;28.7;0.0;
16/06/2019 09:43:09;100;0;355.31;17;-19.01;-7.61;173.1;11.20;69578;5125.179;-12837.774;52;-300;-295.0;73;72.9;-22;-22.1;28.7;43.2;
16/06/2019 09:43:29;100;0;355.01;17;-18.86;-6.95;175.1;11.20;69564;5125.179;-12837.774;52;-300;-295.0;73;72.9;-22;-21.7;28.7;41.1;
16/06/2019 09:43:49;100;0;355.26;17;-18.98;-6.79;177.1;11.10;69551;5125.179;-12837.774;52;-300;-295.0;73;72.9;-22;-21.7;28.7;39.1;
16/06/2019 09:44:09;100;0;354.97;17;-18.77;-6.80;179.1;11.10;69551;5125.179;-12837.774;52;-300;-295.0;73;72.9;-23;-23.0;28.7;25.6;
16/06/2019 09:44:29;100;0;356.33;17;-18.81;-7.58;181.1;11.00;69552;5125.179;-12837.774;52;-300;-295.0;73;72.9;-22;-22.1;28.7;35.2;
16/06/2019 09:44:49;100;0;356.73;17;-18.75;-6.66;183.2;10.90;69529;5125.179;-12837.774;52;-300;-295.0;73;72.9;-22;-21.7;28.8;33.1;
16/06/2019 09:45:09;100;0;357.75;17;-18.61;-6.69;185.2;10.90;69532;5125.179;-12837.774;52;-300;-295.0;73;72.9;-21;-21.2;28.7;31.0;
16/06/2019 09:45:29;100;0;358.13;17;-18.71;-6.07;187.2;10.80;69538;5125.179;-12837.774;52;-300;-297.0;73;72.9;-21;-20.3;28.8;29.0;
16/06/2019 09:45:49;100;0;358.71;17;-18.88;-6.12;189.2;10.80;69521;5125.179;-12837.774;52;-300;-295.0;73;72.9;-21;-20.3;28.7;27.2;
16/06/2019 09:46:09;100;0;358.98;17;-18.67;-6.01;191.2;10.70;69519;5125.179;-12837.774;52;-300;-295.0;73;72.9;-22;-22.1;28.7;24.8;
16/06/2019 09:46:29;100;0;359.88;17;-18.78;-7.28;193.3;10.70;69517;5125.179;-12837.774;52;-300;-295.0;73;72.9;-21;-21.2;28.7;22.7;
16/06/2019 09:46:49;100;0;0.59;17;-18.75;-6.32;195.2;10.70;69508;5125.179;-12837.774;52;-300;-295.0;73;72.9;-21;-20.8;28.7;20.6;
16/06/2019 09:47:09;100;0;1.39;17;-18.87;-6.29;197.2;10.60;69503;5125.179;-12837.774;52;-300;-295.0;73;73.0;-20;-19.9;28.7;18.6;
16/06/2019 09:47:29;118;0;1.90;17;-18.69;-5.42;199.2;10.60;69498;5125.179;-12837.774;52;150;-281.2;57;56.8;0;0.5;28.7;16.6;
16/06/2019 09:47:39;118;0;37.06;17;2.89;4.03;200.0;10.50;69422;5125.179;-12837.774;52;150;-122.8;57;57.1;0;0.5;28.1;16.6;
16/06/2019 09:47:49;118;0;34.96;17;20.51;3.42;199.7;10.50;69208;5125.179;-12837.774;52;150;29.7;57;57.1;0;0.5;28.1;-1.0;
16/06/2019 09:47:59;118;0;34.14;17;24.04;3.51;198.8;10.50;68961;5125.179;-12837.774;52;150;154.5;57;57.1;0;0.5;28.1;-1.0;
16/06/2019 09:48:09;118;0;352.09;17;25.02;3.48;197.7;10.50;68772;5125.179;-12837.774;52;150;156.4;57;56.9;0;0.5;28.7;-1.0;
16/06/2019 09:48:19;118;0;352.49;17;27.21;3.67;196.1;10.50;68779;5125.179;-12837.774;52;150;156.4;57;57.1;0;0.5;28.7;-1.0;
16/06/2019 09:48:29;117;0;351.78;17;28.25;3.51;194.1;10.50;68779;5125.179;-12837.774;52;150;158.4;57;56.9;0;0.5;28.7;-1.0;
16/06/2019 09:48:49;117;0;350.02;17;28.48;3.85;189.7;10.40;68772;5125.179;-12837.774;52;150;156.4;57;57.1;27;27.5;28.7;-1.0;
16/06/2019 09:49:09;117;0;357.31;17;27.99;17.18;184.8;10.40;68771;5125.179;-12837.774;52;150;154.5;57;56.9;21;21.2;28.7;-1.0;
16/06/2019 09:49:29;117;0;7.33;17;28.13;13.28;180.3;10.30;68763;5125.179;-12837.774;52;150;156.4;57;56.9;16;15.8;28.7;-1.0;
16/06/2019 09:49:49;117;0;13.11;17;28.13;10.64;175.9;10.30;68763;5125.179;-12837.774;52;150;156.4;57;56.9;14;14.0;28.7;-1.0;
16/06/2019 09:50:09;117;0;19.81;17;28.23;9.73;171.4;10.30;68763;5125.179;-12837.774;52;150;156.4;57;56.9;13;13.1;28.7;-1.0;
16/06/2019 09:50:29;117;0;28.22;17;28.26;9.28;166.9;10.20;68752;5125.179;-12837.774;52;150;154.5;57;56.9;10;9.9;28.7;-1.0;
16/06/2019 09:50:49;117;0;34.31;17;27.96;7.79;162.6;10.20;68763;5125.179;-12837.774;52;150;156.4;57;56.9;10;9.5;28.7;-1.0;
16/06/2019 09:51:09;117;0;31.62;17;27.70;7.95;158.2;10.10;68766;5125.179;-12837.774;52;150;156.4;57;56.9;14;14.0;28.7;-1.0;
16/06/2019 09:51:29;117;0;27.98;17;27.91;10.30;154.0;10.10;68770;5125.179;-12837.774;52;150;158.4;57;56.9;17;17.6;28.8;-1.0;
16/06/2019 09:51:49;117;0;36.14;17;26.42;12.21;149.9;10.10;68777;5125.179;-12837.774;52;150;156.4;57;56.9;17;18.1;28.7;-1.0;
16/06/2019 09:52:09;117;0;43.24;17;26.70;12.22;146.0;10.00;68791;5125.179;-12837.774;52;150;158.4;57;56.9;9;8.6;28.7;-1.0;
16/06/2019 09:52:29;117;0;40.16;17;26.90;7.25;141.9;10.00;68807;5125.179;-12837.774;52;150;156.4;57;56.9;12;12.2;28.7;-1.0;
16/06/2019 09:52:49;117;0;36.67;17;27.26;9.19;137.8;10.00;68808;5125.179;-12837.774;52;150;156.4;57;56.9;15;14.9;28.7;-1.0;
16/06/2019 09:53:09;117;0;35.05;17;27.54;11.20;133.4;10.00;68819;5125.179;-12837.774;52;150;156.4;57;56.9;15;15.3;28.7;-1.0;
16/06/2019 09:53:29;117;0;46.90;17;26.02;11.01;129.0;10.00;68830;5125.179;-12837.774;52;150;156.4;57;56.9;8;7.7;28.7;-1.0;
16/06/2019 09:53:49;117;0;54.95;17;24.91;6.87;125.0;9.90;68842;5125.179;-12837.774;52;150;156.4;57;56.9;4;4.1;28.7;-1.0;
16/06/2019 09:54:09;117;0;59.01;17;24.34;4.57;121.6;9.90;68856;5125.179;-12837.774;52;150;156.4;57;56.9;3;3.2;28.7;-1.0;
16/06/2019 09:54:29;117;0;58.97;17;24.03;4.29;118.3;9.90;68863;5125.179;-12837.774;52;150;156.4;57;56.9;5;5.0;28.7;-1.0;
16/06/2019 09:54:49;117;0;65.90;17;23.59;5.70;115.2;9.90;68869;5125.179;-12837.774;52;150;156.4;57;56.9;2;1.8;28.7;-1.0;
16/06/2019 09:55:09;117;0;73.09;17;24.23;3.75;112.1;9.90;68876;5125.179;-12837.774;52;150;156.4;57;56.9;-1;-0.9;28.8;-1.0;
16/06/2019 09:55:29;117;0;76.76;17;23.22;2.61;108.9;9.90;68889;5125.179;-12837.774;52;150;156.4;57;56.9;-1;-1.4;28.7;-1.0;
16/06/2019 09:55:49;117;0;75.50;17;23.19;2.50;105.9;9.90;68890;5125.179;-12837.774;52;150;156.4;57;56.9;0;0.0;28.7;-1.0;
16/06/2019 09:56:09;117;0;71.25;17;22.61;3.67;103.0;9.90;68904;5125.179;-12837.774;52;150;156.4;57;56.9;2;2.3;28.7;-1.0;
16/06/2019 09:56:29;117;0;70.61;17;22.01;4.33;100.3;9.90;68907;5125.179;-12837.774;52;150;156.4;57;56.9;2;2.3;28.7;-1.0;
16/06/2019 09:56:49;117;0;71.41;17;21.86;4.42;97.7;9.90;68912;5125.179;-12837.774;52;150;158.4;57;56.9;0;0.0;28.7;-1.0;
16/06/2019 09:57:09;117;0;75.00;17;21.10;2.88;95.2;9.90;68910;5125.179;-12837.774;52;150;156.4;57;56.9;-1;-0.9;28.7;-1.0;
16/06/2019 09:57:29;117;0;74.12;17;21.16;2.35;92.8;9.90;68927;5125.179;-12837.774;52;150;158.4;57;56.9;-1;-1.4;28.7;-1.0;
16/06/2019 09:57:49;117;0;73.97;17;21.13;2.48;90.4;9.90;68919;5125.179;-12837.774;52;150;158.4;57;56.9;-1;-1.4;28.7;-1.0;
16/06/2019 09:58:09;117;0;71.90;17;20.97;2.45;87.9;9.90;68930;5125.179;-12837.774;52;150;156.4;57;56.9;0;0.0;28.7;-1.0;
16/06/2019 09:58:29;117;0;67.71;17;21.02;3.71;85.4;9.90;68944;5125.179;-12837.774;52;150;156.4;57;57.1;0;0.9;28.7;-1.0;
16/06/2019 09:58:49;117;0;62.67;17;20.81;3.74;82.9;9.90;68954;5125.179;-12837.774;52;150;156.4;57;56.9;1;0.9;28.7;-1.0;
16/06/2019 09:59:09;117;0;59.34;17;20.86;3.66;80.3;9.90;68947;5125.179;-12837.774;52;150;156.4;57;56.9;1;0.9;28.7;-1.0;
16/06/2019 09:59:29;117;0;55.93;17;20.44;3.66;78.0;9.90;68952;5125.179;-12837.774;52;150;156.4;57;56.9;1;0.9;28.8;-1.0;
16/06/2019 09:59:49;117;0;57.58;17;20.28;3.59;75.9;9.90;68968;5125.179;-12837.774;52;150;158.4;57;56.9;-1;-0.9;28.7;-1.0;
16/06/2019 10:00:09;117;0;54.64;17;20.34;2.40;73.6;9.90;68968;5125.179;-12837.774;52;150;158.4;57;56.9;0;0.0;28.7;-1.0;
16/06/2019 10:00:29;117;0;51.77;17;20.71;3.24;71.3;9.90;68960;5125.179;-12837.774;52;150;158.4;57;56.9;0;0.5;28.7;-1.0;
16/06/2019 10:00:49;117;0;52.30;17;20.62;3.31;69.0;9.90;68970;5125.179;-12837.774;52;150;156.4;57;56.9;-2;-2.3;28.7;-1.0;
16/06/2019 10:01:09;117;0;50.01;17;20.33;1.78;66.5;9.90;68987;5125.179;-12837.774;52;150;158.4;57;56.9;-1;-0.9;28.8;-1.0;
16/06/2019 10:01:29;117;0;50.56;17;20.02;3.13;64.1;9.90;68988;5125.179;-12837.774;52;150;158.4;57;56.9;-2;-2.3;28.7;-1.0;
16/06/2019 10:01:49;117;0;47.57;17;20.37;1.14;61.9;9.90;68991;5125.179;-12837.774;52;150;158.4;57;56.9;-1;-0.9;28.7;-1.0;
16/06/2019 10:02:09;117;0;45.86;17;19.95;3.17;59.5;9.90;68997;5125.179;-12837.774;52;150;156.4;57;56.9;-1;0.0;28.7;-1.0;
16/06/2019 10:02:29;117;0;46.68;17;19.86;3.26;57.2;9.90;69005;5125.179;-12837.774;52;150;158.4;57;56.9;-3;-3.2;28.7;-1.0;
16/06/2019 10:02:49;117;0;45.41;17;19.62;1.42;55.2;9.90;69008;5125.179;-12837.774;52;150;158.4;57;56.9;-3;-3.6;28.7;-1.0;
16/06/2019 10:03:09;117;0;46.18;17;19.28;1.45;53.1;9.90;69025;5125.179;-12837.774;52;150;158.4;57;56.9;-4;-4.5;28.7;-1.0;
16/06/2019 10:03:29;117;0;45.88;17;19.19;0.84;51.1;9.90;69042;5125.179;-12837.774;52;150;156.4;57;56.9;-4;-5.0;28.7;-1.0;
16/06/2019 10:03:49;117;0;45.40;17;19.09;0.82;49.0;10.00;69057;5125.179;-12837.774;52;150;158.4;57;56.9;-5;-5.0;28.7;-1.0;
16/06/2019 10:04:09;117;0;42.98;17;18.95;0.84;47.1;10.00;69073;5125.179;-12837.774;52;150;158.4;57;56.9;-3;-3.2;28.7;-1.0;
16/06/2019 10:04:29;117;0;40.57;17;19.05;2.08;44.9;10.00;69076;5125.179;-12837.774;52;150;158.4;57;56.9;-3;-2.3;28.7;-1.0;
16/06/2019 10:04:49;117;0;36.22;17;19.47;2.14;42.7;10.00;69087;5125.179;-12837.774;52;150;156.4;57;56.9;-1;-0.9;28.7;-1.0;
16/06/2019 10:05:09;117;0;35.06;17;19.18;2.94;40.3;10.00;69106;5125.179;-12837.774;52;150;158.4;57;56.9;-1;-0.5;28.7;-1.0;
16/06/2019 10:05:29;117;0;35.85;17;19.17;2.89;37.9;10.10;69120;5125.179;-12837.774;52;150;158.4;57;56.9;-1;-0.5;28.7;-1.0;
16/06/2019 10:05:49;117;0;37.76;17;18.94;3.00;35.6;10.10;69128;5125.179;-12837.774;52;150;156.4;57;56.9;-1;-0.5;28.7;-1.0;
16/06/2019 10:06:09;117;0;32.73;17;18.93;3.00;33.3;10.10;69131;5125.179;-12837.774;52;150;160.4;57;56.9;-1;-0.5;28.7;-1.0;
16/06/2019 10:06:29;117;0;33.74;17;18.18;2.85;30.9;10.10;69155;5125.179;-12837.774;52;150;158.4;57;56.9;-1;-0.5;28.7;-1.0;
16/06/2019 10:06:49;117;0;30.54;17;18.32;2.95;28.8;10.10;69172;5125.179;-12837.774;52;150;158.4;57;56.9;-1;-0.5;28.7;-1.0;
16/06/2019 10:07:09;117;0;28.22;17;18.10;2.91;26.7;10.20;69192;5125.179;-12837.774;52;150;156.4;57;56.9;0;0.0;28.7;-1.0;
16/06/2019 10:07:29;117;0;23.19;17;17.64;3.70;24.7;10.20;69200;5125.179;-12837.774;52;150;158.4;57;57.1;1;0.9;28.7;-1.0;
16/06/2019 10:07:49;117;0;24.25;17;17.48;3.73;22.9;10.20;69228;5125.179;-12837.774;52;150;156.4;57;57.1;0;0.0;28.7;-1.0;
16/06/2019 10:08:09;117;0;25.96;17;16.96;3.21;21.1;10.30;69261;5125.179;-12837.774;52;150;158.4;57;56.9;0;0.0;28.7;-1.0;
16/06/2019 10:08:29;117;0;23.91;17;16.47;3.10;19.5;10.30;69287;5125.179;-12837.774;52;150;158.4;57;56.9;1;0.9;28.8;-1.0;
16/06/2019 10:08:49;117;0;27.64;17;16.49;3.98;18.0;10.30;69307;5125.179;-12837.774;52;150;156.4;57;57.1;-1;-0.9;28.7;-1.0;
16/06/2019 10:09:09;117;0;28.35;17;16.63;2.62;16.3;10.40;69335;5125.179;-12837.774;52;150;158.4;57;56.9;-1;-1.4;28.7;-1.0;
16/06/2019 10:09:29;117;0;28.38;17;16.75;2.63;14.4;10.40;69365;5125.179;-12837.774;52;150;158.4;57;57.1;0;0.0;28.7;-1.0;
16/06/2019 10:09:49;117;0;27.40;17;15.77;3.84;12.6;10.40;69395;5125.179;-12837.774;52;150;156.4;57;56.9;0;0.9;28.7;-1.0;
16/06/2019 10:10:09;117;0;33.94;17;15.50;3.73;10.9;10.50;69422;5125.179;-12837.774;52;150;156.4;57;57.1;-2;-2.3;28.7;-1.0;
