Timestamp;NavState;SecurityLevel;Heading;Declination;Pitch;Roll;Depth;Temperature;Pa;Lat;Lon;DesiredH;BallastCmd;BallastPos;LinCmd;LinPos;AngCmd;AngPos;Voltage;Altitude;
14/06/2019 08:54:53;117;0;214.48;17;24.16;5.44;9.4;10.60;69330;5136.570;-12820.682;211;200;207.9;54;54.1;1;0.9;29.2;-1.0;
14/06/2019 08:55:03;115;0;220.55;17;22.85;3.32;7.8;10.60;69340;5136.570;-12820.682;211;500;219.8;100;98.7;0;-0.9;29.2;-1.0;
14/06/2019 08:55:13;115;0;192.90;17;-9.94;3.85;6.6;10.60;69277;5136.570;-12820.682;211;500;372.3;100;100.4;0;-0.9;28.9;-1.0;
14/06/2019 08:55:23;115;0;193.78;17;-54.29;2.07;7.6;10.60;69073;5136.570;-12820.682;211;500;506.9;100;100.6;0;-0.9;28.9;-1.0;
14/06/2019 08:55:33;115;0;196.20;17;-62.82;3.81;7.3;10.70;68862;5136.570;-12820.682;211;500;505.0;100;100.6;0;-0.9;29.2;-1.0;
14/06/2019 08:55:43;115;0;184.53;17;-34.19;4.14;4.6;10.70;68896;5136.570;-12820.682;211;500;506.9;100;100.4;0;-0.9;29.2;-1.0;
14/06/2019 08:55:53;116;0;77.25;17;-73.39;58.49;1.3;10.70;68905;5136.570;-12820.682;211;500;505.0;100;100.6;0;-0.9;29.2;-1.0;
14/06/2019 08:56:13;116;0;123.56;17;-31.81;4.22;1.2;10.80;68931;5136.570;-12820.682;211;500;506.9;100;100.4;0;-0.9;29.2;-1.0;
14/06/2019 08:56:33;116;0;205.16;17;-15.36;1.56;1.2;10.90;68952;5136.570;-12820.682;211;500;508.9;100;100.4;0;-0.9;29.2;-1.0;
14/06/2019 08:56:55;116;0;293.18;17;-12.26;1.28;1.1;11.00;68964;5136.570;-12820.682;211;500;510.9;100;100.4;0;-0.9;29.2;-1.0;
14/06/2019 08:57:15;116;0;304.86;17;-22.65;1.79;1.2;11.10;68986;5136.114;-12820.984;211;500;508.9;100;100.3;0;-0.9;29.2;-1.0;
14/06/2019 08:57:35;116;0;308.97;17;-14.85;1.03;1.1;11.20;69003;5136.098;-12821.003;211;500;508.9;100;100.4;0;-0.9;29.2;-1.0;
14/06/2019 08:58:54;116;0;320.69;17;-8.11;4.45;1.1;11.70;69036;5136.098;-12821.003;211;500;508.9;100;100.3;0;-0.9;29.2;-1.0;
14/06/2019 08:59:14;116;0;306.62;17;-24.22;7.33;1.3;11.90;69041;5136.094;-12821.008;211;500;508.9;100;100.3;0;-0.5;29.2;-1.0;
14/06/2019 08:59:34;116;0;278.83;17;-15.98;-3.46;1.1;12.00;69041;5136.085;-12821.015;211;500;508.9;100;100.3;0;-0.9;29.2;-1.0;
14/06/2019 08:59:56;116;0;293.93;17;-27.69;-0.36;1.2;12.10;69055;5136.085;-12821.016;211;500;508.9;100;100.4;0;-0.9;29.2;-1.0;
14/06/2019 09:00:16;116;0;264.16;17;-17.87;-1.52;1.1;12.30;69063;5136.081;-12821.020;211;500;508.9;100;100.4;0;-0.9;29.2;-1.0;
14/06/2019 09:00:36;116;0;295.83;17;-8.15;7.93;1.1;12.50;69066;5136.079;-12821.025;211;500;508.9;100;100.3;0;-0.5;29.2;-1.0;
14/06/2019 09:00:56;116;0;305.52;17;-7.73;-1.37;1.2;12.60;69078;5136.024;-12821.079;211;500;510.9;100;100.3;0;-0.9;29.2;-1.0;
14/06/2019 09:05:39;116;0;319.70;17;-7.57;1.47;1.1;13.40;69140;5136.024;-12821.080;211;500;508.9;100;100.3;0;-0.5;29.2;-1.0;
14/06/2019 09:05:59;116;0;307.67;17;-6.80;2.92;1.2;13.40;69146;5136.022;-12821.083;211;500;508.9;100;100.4;0;-0.9;29.2;-1.0;
14/06/2019 09:06:19;116;0;321.19;17;-6.02;-2.27;1.1;13.50;69147;5136.017;-12821.087;211;500;510.9;100;100.3;0;-0.5;29.2;-1.0;
14/06/2019 09:06:39;116;0;293.91;17;-4.95;2.67;1.1;13.60;69149;5136.015;-12821.089;211;500;510.9;100;100.3;0;-0.9;29.2;-1.0;
14/06/2019 09:06:59;116;0;316.08;17;-15.73;2.13;1.1;13.70;69149;5136.008;-12821.098;211;500;512.9;100;100.3;0;-0.5;29.2;-1.0;
14/06/2019 09:07:27;116;0;299.32;17;-12.57;8.99;1.1;13.70;69166;5136.007;-12821.098;211;500;510.9;100;100.3;0;-0.9;29.2;-1.0;
14/06/2019 09:07:47;116;0;304.87;17;-7.53;-2.91;1.1;13.80;69165;5136.001;-12821.103;211;500;508.9;100;100.3;0;-0.9;29.2;-1.0;
14/06/2019 09:08:07;116;0;325.12;17;-18.19;3.32;1.2;13.80;69162;5135.998;-12821.106;211;500;510.9;100;100.3;0;-0.9;29.2;-1.0;
14/06/2019 09:08:27;116;0;304.29;17;-28.31;1.73;1.2;13.90;69179;5135.947;-12821.157;211;500;510.9;100;100.3;0;-0.9;29.2;-1.0;
14/06/2019 09:13:11;116;0;291.95;17;-6.70;-0.27;1.1;14.20;69207;5135.946;-12821.158;211;500;510.9;100;100.3;0;-0.9;29.2;-1.0;
14/06/2019 09:13:31;116;0;312.12;17;-35.48;5.16;1.3;14.20;69204;5135.939;-12821.165;211;500;508.9;100;100.3;0;-0.9;29.2;-1.0;
14/06/2019 09:13:53;116;0;313.21;17;-6.38;1.69;1.1;14.30;69214;5135.937;-12821.166;211;500;508.9;100;100.4;0;-0.9;29.2;-1.0;
14/06/2019 09:14:13;116;0;319.49;17;-7.89;2.68;1.0;14.30;69201;5135.933;-12821.170;211;500;508.9;100;100.3;0;-0.9;29.2;-1.0;
14/06/2019 09:14:33;116;0;333.97;17;-11.26;4.01;1.1;14.30;69204;5135.932;-12821.171;211;500;508.9;100;100.3;0;-0.9;29.1;-1.0;
14/06/2019 09:14:53;116;0;330.46;17;-9.14;3.61;1.1;14.40;69214;5135.929;-12821.173;211;500;508.9;100;100.4;0;-0.5;29.1;-1.0;
14/06/2019 09:15:13;116;0;308.94;17;-33.41;2.87;1.3;14.40;69214;5135.922;-12821.178;211;500;508.9;100;100.4;0;-0.9;29.2;-1.0;
14/06/2019 09:15:36;116;0;297.17;17;-11.45;6.68;1.0;14.50;69222;5135.921;-12821.178;211;500;508.9;100;100.3;0;-0.9;29.1;-1.0;
14/06/2019 09:15:56;116;0;334.25;17;-6.69;5.39;1.1;14.60;69215;5135.915;-12821.181;211;500;508.9;100;100.4;0;-0.9;29.2;-1.0;
14/06/2019 09:16:16;116;0;312.12;17;-13.82;1.28;1.1;14.70;69224;5135.916;-12821.184;211;500;508.9;100;100.3;0;-0.9;29.2;-1.0;
14/06/2019 09:16:36;110;0;313.78;17;-14.15;1.26;1.1;14.80;69224;5135.916;-12821.184;211;-250;405.9;100;100.4;0;-0.5;29.1;-1.0;
14/06/2019 09:16:46;110;0;326.33;17;-18.78;0.89;1.2;14.80;69472;5135.916;-12821.184;211;-250;255.4;100;100.4;0;-0.9;29.1;-1.0;
14/06/2019 09:16:56;110;0;332.43;17;-32.16;-1.98;1.6;14.80;69672;5135.916;-12821.184;211;-250;87.1;100;100.6;0;-0.9;29.1;-1.0;
14/06/2019 09:17:06;110;0;337.21;17;-66.71;-4.53;2.2;14.90;69937;5135.916;-12821.184;211;-250;-93.1;100;99.7;0;-0.5;29.1;-1.0;
14/06/2019 09:17:16;110;0;337.88;17;-60.70;-9.21;2.7;14.90;70238;5135.916;-12821.184;211;-250;-249.5;89;89.0;0;-0.9;29.1;-1.0;
14/06/2019 09:17:26;110;0;323.31;17;-52.81;3.60;4.1;14.90;70487;5135.916;-12821.184;211;-250;-249.5;71;70.9;0;-0.9;29.1;-1.0;
14/06/2019 09:17:36;100;0;316.24;17;-37.32;3.54;6.6;14.90;70472;5135.916;-12821.184;211;-250;-247.5;71;70.8;0;-0.9;29.2;-1.0;
14/06/2019 09:17:56;100;0;296.87;17;-25.61;4.05;10.6;14.90;70476;5135.916;-12821.184;211;-250;-245.5;71;70.8;45;45.1;29.2;0.0;
14/06/2019 09:18:16;100;0;271.81;17;-19.30;25.34;14.2;14.80;70440;5135.916;-12821.184;211;-250;-245.5;71;70.8;29;28.9;29.1;0.0;
14/06/2019 09:18:36;100;0;255.48;17;-20.79;16.45;17.1;14.80;70440;5135.916;-12821.184;211;-250;-243.6;71;70.8;19;19.0;29.2;0.0;
14/06/2019 09:18:56;100;0;241.87;17;-20.98;11.65;20.1;14.70;70421;5135.916;-12821.184;211;-250;-243.6;71;70.8;14;14.0;29.2;0.0;
14/06/2019 09:19:16;100;0;225.75;17;-21.18;9.45;23.1;14.70;70398;5135.916;-12821.184;211;-250;-243.6;71;70.8;9;9.0;29.2;0.0;
14/06/2019 09:19:36;100;0;218.07;17;-21.36;7.22;25.9;14.60;70367;5135.916;-12821.184;211;-250;-243.6;71;70.8;10;9.9;29.2;0.0;
14/06/2019 09:19:56;100;0;200.84;17;-20.61;8.71;28.8;14.60;70342;5135.916;-12821.184;211;-250;-243.6;71;70.8;4;4.1;29.2;0.0;
14/06/2019 09:20:16;100;0;187.61;17;-21.88;5.11;31.4;14.50;70296;5135.916;-12821.184;211;-250;-243.6;71;70.8;4;3.6;29.2;0.0;
14/06/2019 09:20:36;100;0;183.51;17;-20.43;5.07;34.3;14.40;70251;5135.916;-12821.184;211;-250;-243.6;71;70.8;4;3.6;29.1;0.0;
14/06/2019 09:20:56;100;0;179.18;17;-19.85;4.89;37.2;14.30;70199;5135.916;-12821.184;211;-250;-243.6;71;70.8;4;3.6;29.2;0.0;
14/06/2019 09:21:16;100;0;173.24;17;-19.69;4.87;39.8;14.30;70173;5135.916;-12821.184;211;-250;-243.6;71;70.8;2;1.8;29.2;0.0;
14/06/2019 09:21:36;100;0;165.24;17;-19.96;3.68;42.5;14.20;70140;5135.916;-12821.184;211;-250;-243.6;71;70.8;0;0.0;29.2;0.0;
14/06/2019 09:21:56;100;0;162.14;17;-19.66;3.12;45.3;14.10;70120;5135.916;-12821.184;211;-250;-243.6;71;70.8;0;-0.5;29.2;0.0;
14/06/2019 09:22:16;100;0;153.07;17;-19.90;3.12;47.8;14.00;70094;5135.916;-12821.184;211;-250;-241.6;71;70.8;-3;-3.2;29.2;0.0;
14/06/2019 09:22:36;100;0;147.69;17;-20.26;1.78;50.3;13.90;70072;5135.916;-12821.184;211;-250;-243.6;71;70.8;-6;-5.9;29.2;0.0;
14/06/2019 09:22:56;100;0;144.74;17;-19.93;0.32;53.0;13.90;70053;5135.916;-12821.184;211;-250;-243.6;71;70.8;-7;-7.2;29.2;0.0;
14/06/2019 09:23:16;100;0;145.58;17;-19.74;-0.13;55.7;13.80;70033;5135.916;-12821.184;211;-250;-243.6;71;70.8;-7;-7.7;29.1;0.0;
14/06/2019 09:23:36;100;0;143.54;17;-19.21;-0.14;58.4;13.70;70004;5135.916;-12821.184;211;-250;-243.6;71;70.8;-9;-9.0;29.1;0.0;
14/06/2019 09:23:56;100;0;137.80;17;-19.25;-1.19;60.7;13.60;69992;5135.916;-12821.184;211;-250;-243.6;71;70.8;-14;-14.4;29.1;0.0;
14/06/2019 09:24:16;100;0;134.80;17;-20.25;-3.55;63.0;13.60;69974;5135.916;-12821.184;211;-250;-241.6;71;70.8;-17;-17.6;29.2;0.0;
14/06/2019 09:24:36;100;0;133.30;17;-19.03;-4.70;65.5;13.50;69970;5135.916;-12821.184;211;-250;-243.6;71;70.8;-18;-18.1;29.1;0.0;
14/06/2019 09:24:56;100;0;132.90;17;-19.63;-4.71;67.8;13.40;69963;5135.916;-12821.184;211;-250;-241.6;71;70.6;-20;-19.9;29.2;0.0;
14/06/2019 09:25:16;100;0;131.96;17;-20.16;-6.06;70.2;13.30;69949;5135.916;-12821.184;211;-250;-241.6;71;70.6;-23;-23.0;29.2;0.0;
14/06/2019 09:25:36;100;0;132.10;17;-19.36;-7.44;72.7;13.30;69942;5135.916;-12821.184;211;-250;-243.6;71;70.8;-24;-23.9;29.2;0.0;
14/06/2019 09:25:56;100;0;133.12;17;-19.59;-7.82;75.0;13.20;69932;5135.916;-12821.184;211;-250;-241.6;71;70.8;-26;-26.2;29.2;0.0;
14/06/2019 09:26:16;100;0;135.83;17;-19.33;-9.06;77.3;13.10;69919;5135.916;-12821.184;211;-250;-241.6;71;70.8;-25;-24.4;29.2;0.0;
14/06/2019 09:26:36;100;0;134.96;17;-18.63;-7.73;79.7;13.10;69913;5135.916;-12821.184;211;-250;-241.6;71;70.6;-26;-26.6;29.1;0.0;
14/06/2019 09:26:56;100;0;139.24;17;-18.83;-9.36;82.0;13.00;69906;5135.916;-12821.184;211;-250;-241.6;71;70.6;-23;-23.0;29.2;0.0;
14/06/2019 09:27:16;100;0;142.75;17;-18.20;-6.87;84.2;13.00;69890;5135.916;-12821.184;211;-250;-241.6;71;70.6;-23;-22.1;29.2;0.0;
14/06/2019 09:27:36;100;0;139.46;17;-17.52;-6.86;86.5;12.90;69887;5135.916;-12821.184;211;-250;-241.6;71;70.6;-25;-25.3;29.1;0.0;
14/06/2019 09:27:56;100;0;137.35;17;-17.56;-8.57;88.7;12.80;69865;5135.916;-12821.184;211;-250;-241.6;71;70.6;-26;-26.2;29.2;0.0;
14/06/2019 09:28:16;100;0;136.50;17;-16.70;-9.04;90.7;12.80;69862;5135.916;-12821.184;211;-250;-239.6;71;70.8;-27;-27.5;29.2;0.0;
14/06/2019 09:28:36;100;0;137.00;17;-16.94;-9.69;92.6;12.70;69850;5135.916;-12821.184;211;-250;-239.6;71;70.6;-26;-25.7;29.1;0.0;
14/06/2019 09:28:56;100;0;138.06;17;-17.21;-8.59;94.3;12.70;69838;5135.916;-12821.184;211;-250;-239.6;71;70.8;-25;-24.8;29.2;0.0;
14/06/2019 09:29:16;100;0;140.98;17;-16.62;-7.95;96.2;12.60;69828;5135.916;-12821.184;211;-250;-241.6;71;70.6;-24;-23.9;29.1;0.0;
14/06/2019 09:29:36;100;0;141.28;17;-16.38;-7.88;97.9;12.50;69819;5135.916;-12821.184;211;-250;-241.6;71;70.8;-24;-23.9;29.2;0.0;
14/06/2019 09:29:56;100;0;142.94;17;-16.01;-8.01;99.7;12.50;69811;5135.916;-12821.184;211;-250;-241.6;71;70.8;-24;-23.9;29.1;0.0;
14/06/2019 09:30:16;100;0;143.99;17;-16.18;-7.97;101.4;12.40;69794;5135.916;-12821.184;211;-250;-241.6;71;70.8;-24;-24.4;29.2;0.0;
14/06/2019 09:30:36;100;0;139.67;17;-16.15;-7.93;103.0;12.40;69794;5135.916;-12821.184;211;-250;-241.6;71;70.6;-26;-26.6;29.2;0.0;
14/06/2019 09:30:56;100;0;141.75;17;-15.90;-9.34;104.7;12.30;69788;5135.916;-12821.184;211;-250;-241.6;71;70.6;-25;-24.8;29.2;0.0;
14/06/2019 09:31:16;100;0;143.32;17;-15.75;-8.14;106.3;12.20;69769;5135.916;-12821.184;211;-250;-239.6;71;70.6;-24;-23.9;29.2;0.0;
14/06/2019 09:31:36;100;0;144.72;17;-15.75;-7.58;107.8;12.20;69760;5135.916;-12821.184;211;-250;-241.6;71;70.6;-24;-23.5;29.1;0.0;
14/06/2019 09:31:56;100;0;148.02;17;-15.62;-7.63;109.4;12.10;69752;5135.916;-12821.184;211;-250;-241.6;71;70.6;-22;-22.1;29.2;0.0;
14/06/2019 09:32:16;100;0;145.21;17;-15.46;-6.61;110.9;12.10;69751;5135.916;-12821.184;211;-250;-239.6;71;70.8;-24;-23.9;29.2;0.0;
14/06/2019 09:32:36;100;0;142.64;17;-15.63;-8.00;112.4;12.00;69738;5135.916;-12821.184;211;-250;-241.6;71;70.6;-26;-26.2;29.2;0.0;
14/06/2019 09:32:56;100;0;142.42;17;-15.53;-9.16;113.9;12.00;69735;5135.916;-12821.184;211;-250;-239.6;71;70.8;-25;-24.8;29.2;0.0;
14/06/2019 09:33:16;100;0;145.86;17;-15.18;-8.00;115.5;11.90;69726;5135.916;-12821.184;211;-250;-239.6;71;70.6;-23;-23.0;29.1;0.0;
14/06/2019 09:33:36;100;0;147.29;17;-15.30;-7.13;117.0;11.90;69717;5135.916;-12821.184;211;-250;-241.6;71;70.6;-23;-22.1;29.1;0.0;
14/06/2019 09:33:56;100;0;148.45;17;-15.29;-7.13;118.6;11.80;69711;5135.916;-12821.184;211;-250;-239.6;71;70.6;-23;-22.1;29.2;0.0;
14/06/2019 09:34:16;100;0;149.86;17;-15.26;-7.10;120.0;11.80;69695;5135.916;-12821.184;211;-250;-239.6;71;70.6;-22;-22.1;29.2;44.7;
14/06/2019 09:34:36;100;0;151.11;17;-15.16;-7.10;121.6;11.70;69700;5135.916;-12821.184;211;-250;-241.6;71;70.8;-22;-22.1;29.2;43.2;
14/06/2019 09:34:56;100;0;153.64;17;-15.12;-7.19;122.9;11.70;69700;5135.916;-12821.184;211;-250;-243.6;71;70.6;-21;-20.8;29.1;41.8;
14/06/2019 09:35:16;100;0;157.31;17;-14.82;-6.31;124.4;11.60;69689;5135.916;-12821.184;211;-250;-239.6;71;70.8;-20;-19.9;29.2;40.2;
14/06/2019 09:35:36;100;0;159.37;17;-14.87;-5.67;125.7;11.60;69678;5135.916;-12821.184;211;-250;-239.6;71;70.6;-19;-19.0;29.2;38.9;
14/06/2019 09:35:56;100;0;161.70;17;-14.52;-5.63;127.1;11.50;69657;5135.916;-12821.184;211;-250;-241.6;71;70.6;-19;-19.0;29.2;37.4;
14/06/2019 09:36:16;100;0;164.14;17;-14.13;-5.53;128.6;11.50;69667;5135.916;-12821.184;211;-250;-241.6;71;70.6;-18;-18.1;29.2;35.8;
14/06/2019 09:36:36;100;0;160.87;17;-14.21;-4.65;130.0;11.40;69648;5135.916;-12821.184;211;-250;-239.6;71;70.6;-22;-22.1;29.2;34.4;
14/06/2019 09:36:56;100;0;158.75;17;-14.32;-7.27;131.3;11.40;69647;5135.916;-12821.184;211;-250;-239.6;71;70.6;-23;-23.0;29.1;33.0;
14/06/2019 09:37:16;100;0;159.54;17;-14.34;-7.71;132.5;11.30;69625;5135.916;-12821.184;211;-250;-239.6;71;70.6;-21;-21.2;29.1;31.7;
14/06/2019 09:37:36;100;0;159.83;17;-14.30;-6.29;134.0;11.30;69619;5135.916;-12821.184;211;-250;-239.6;71;70.6;-21;-20.3;29.2;30.3;
14/06/2019 09:37:57;100;0;158.65;17;-13.84;-6.18;135.4;11.20;69616;5135.916;-12821.184;211;-250;-239.6;71;70.6;-22;-22.1;29.2;28.9;
14/06/2019 09:38:17;100;0;159.02;17;-13.95;-7.38;136.7;11.20;69612;5135.916;-12821.184;211;-250;-239.6;71;70.6;-21;-20.8;29.2;27.4;
14/06/2019 09:38:37;100;0;156.29;17;-14.50;-6.10;138.1;11.10;69601;5135.916;-12821.184;211;-250;-239.6;71;70.6;-23;-23.5;29.2;26.1;
14/06/2019 09:38:57;100;0;156.91;17;-14.30;-7.99;139.3;11.10;69587;5135.916;-12821.184;211;-250;-241.6;71;70.8;-22;-22.1;29.2;24.7;
14/06/2019 09:39:17;100;0;158.79;17;-14.10;-6.96;140.7;11.10;69597;5135.916;-12821.184;211;-250;-239.6;71;70.6;-21;-21.2;29.2;23.4;
14/06/2019 09:39:37;100;0;158.90;17;-14.17;-6.23;141.9;11.00;69589;5135.916;-12821.184;211;-250;-239.6;71;70.8;-21;-20.3;29.2;22.1;
14/06/2019 09:39:57;100;0;159.66;17;-13.91;-6.23;143.3;11.00;69576;5135.916;-12821.184;211;-250;-239.6;71;70.6;-21;-20.3;29.2;20.7;
14/06/2019 09:40:17;100;0;158.83;17;-14.15;-6.20;144.5;10.90;69570;5135.916;-12821.184;211;-250;-239.6;71;70.6;-22;-22.1;29.1;19.4;
14/06/2019 09:40:37;118;0;159.75;17;-14.25;-7.33;145.7;10.90;69570;5135.916;-12821.184;211;150;-221.8;54;53.8;0;0.5;29.2;18.1;
14/06/2019 09:40:47;118;0;133.84;17;11.84;3.94;146.2;10.90;69489;5135.916;-12821.184;211;150;-65.3;54;54.1;0;0.5;28.7;18.1;
14/06/2019 09:40:57;118;0;135.16;17;30.17;3.42;145.8;10.80;69272;5135.916;-12821.184;211;150;89.1;54;54.1;0;0.5;28.7;-1.0;
14/06/2019 09:41:07;118;0;136.12;17;30.89;3.62;144.6;10.80;69024;5135.916;-12821.184;211;150;156.4;54;54.1;0;0.5;28.7;-1.0;
14/06/2019 09:41:17;118;0;172.12;17;32.02;3.71;143.0;10.80;68925;5135.916;-12821.184;211;150;156.4;54;54.1;0;0.5;29.2;-1.0;
14/06/2019 09:41:27;117;0;172.86;17;33.55;3.42;140.9;10.80;68933;5135.916;-12821.184;211;150;156.4;54;54.1;0;0.5;29.1;-1.0;
14/06/2019 09:41:47;117;0;173.55;17;33.61;3.75;135.8;10.80;68922;5135.916;-12821.184;211;150;154.5;54;54.1;13;13.1;29.2;-1.0;
14/06/2019 09:42:07;117;0;182.84;17;33.64;10.39;130.0;10.70;68929;5135.916;-12821.184;211;150;156.4;54;54.1;11;10.4;29.1;-1.0;
14/06/2019 09:42:27;117;0;179.59;17;33.73;8.11;124.7;10.70;68932;5135.916;-12821.184;211;150;158.4;54;54.1;15;14.9;29.1;-1.0;
14/06/2019 09:42:47;117;0;179.05;17;33.23;11.27;119.3;10.60;68930;5135.916;-12821.184;211;150;156.4;54;54.1;16;15.8;29.2;-1.0;
14/06/2019 09:43:07;117;0;179.79;17;32.91;11.40;113.9;10.60;68943;5135.916;-12821.184;211;150;158.4;54;54.1;17;17.1;29.2;-1.0;
14/06/2019 09:43:27;117;0;188.87;17;32.27;12.24;108.9;10.60;68952;5135.916;-12821.184;211;150;158.4;54;54.1;12;12.2;29.1;-1.0;
14/06/2019 09:43:47;117;0;189.84;17;31.87;9.10;103.8;10.50;68962;5135.916;-12821.184;211;150;156.4;54;54.1;13;13.1;29.2;-1.0;
14/06/2019 09:44:07;117;0;196.21;17;31.57;10.37;99.1;10.50;68958;5135.916;-12821.184;211;150;156.4;54;54.1;13;14.0;29.1;-1.0;
14/06/2019 09:44:27;117;0;194.66;17;31.61;10.34;94.5;10.50;68971;5135.916;-12821.184;211;150;158.4;54;54.1;13;14.0;29.2;-1.0;
14/06/2019 09:44:47;117;0;200.26;17;30.95;10.26;89.9;10.50;68978;5135.916;-12821.184;211;150;156.4;54;54.1;10;9.9;29.1;-1.0;
14/06/2019 09:45:07;117;0;198.87;17;29.54;7.86;85.8;10.40;68994;5135.916;-12821.184;211;150;158.4;54;54.1;12;12.2;29.1;-1.0;
14/06/2019 09:45:27;117;0;194.34;17;29.39;9.60;82.2;10.40;69002;5135.916;-12821.184;211;150;156.4;54;54.1;12;12.6;29.2;-1.0;
14/06/2019 09:45:47;117;0;191.93;17;28.27;9.52;78.4;10.40;69015;5135.916;-12821.184;211;150;156.4;54;54.1;12;12.6;29.2;-1.0;
14/06/2019 09:46:07;117;0;193.56;17;28.16;9.68;74.8;10.40;69012;5135.916;-12821.184;211;150;158.4;54;54.1;12;12.6;29.2;-1.0;
14/06/2019 09:46:27;117;0;195.33;17;27.79;9.41;71.3;10.40;69023;5135.916;-12821.184;211;150;156.4;54;54.1;12;12.6;29.2;-1.0;
14/06/2019 09:46:47;117;0;202.70;17;27.87;9.63;67.7;10.40;69034;5135.916;-12821.184;211;150;158.4;54;54.1;9;9.0;29.2;-1.0;
14/06/2019 09:47:07;117;0;208.13;17;27.79;7.52;64.2;10.40;69034;5135.916;-12821.184;211;150;156.4;54;54.1;7;7.2;29.1;-1.0;
14/06/2019 09:47:27;117;0;209.60;17;27.86;6.78;60.7;10.40;69042;5135.916;-12821.184;211;150;156.4;54;54.1;7;6.8;29.2;-1.0;
14/06/2019 09:47:47;117;0;214.46;17;27.11;6.49;57.4;10.40;69050;5135.916;-12821.184;211;150;156.4;54;54.1;5;5.0;29.2;-1.0;
14/06/2019 09:48:07;117;0;206.95;17;27.30;5.53;54.0;10.40;69058;5135.916;-12821.184;211;150;160.4;54;54.1;11;10.8;29.2;-1.0;
14/06/2019 09:48:27;117;0;208.44;17;26.52;8.98;50.8;10.40;69066;5135.916;-12821.184;211;150;158.4;54;54.1;8;7.7;29.2;-1.0;
14/06/2019 09:48:47;117;0;205.96;17;26.41;7.11;47.6;10.40;69069;5135.916;-12821.184;211;150;156.4;54;54.1;9;9.0;29.2;-1.0;
14/06/2019 09:49:07;117;0;212.11;17;26.10;8.20;44.6;10.40;69094;5135.916;-12821.184;211;150;158.4;54;54.1;4;3.6;29.2;-1.0;
14/06/2019 09:49:27;117;0;206.87;17;26.49;5.05;41.5;10.40;69106;5135.916;-12821.184;211;150;158.4;54;54.1;8;8.6;29.2;-1.0;
14/06/2019 09:49:47;117;0;209.69;17;26.05;7.90;38.5;10.40;69109;5135.916;-12821.184;211;150;156.4;54;54.1;5;5.0;29.1;-1.0;
14/06/2019 09:50:07;117;0;204.35;17;25.94;5.76;35.5;10.40;69123;5135.916;-12821.184;211;150;158.4;54;54.1;8;8.1;29.2;-1.0;
14/06/2019 09:50:27;117;0;203.13;17;25.78;7.67;32.6;10.40;69146;5135.916;-12821.184;211;150;158.4;54;54.1;7;7.2;29.2;-1.0;
14/06/2019 09:50:47;117;0;205.26;17;24.34;6.56;29.9;10.40;69159;5135.916;-12821.184;211;150;156.4;54;54.1;5;5.0;29.2;-1.0;
14/06/2019 09:51:07;117;0;205.00;17;25.38;5.54;27.3;10.40;69170;5135.916;-12821.184;211;150;158.4;54;54.1;5;4.5;29.2;-1.0;
14/06/2019 09:51:27;117;0;213.02;17;24.36;5.29;24.4;10.40;69223;5135.916;-12821.184;211;150;160.4;54;54.1;0;0.0;29.2;-1.0;
14/06/2019 09:51:47;117;0;208.63;17;23.80;3.08;21.8;10.50;69262;5135.916;-12821.184;211;150;158.4;54;54.1;4;4.1;29.2;-1.0;
14/06/2019 09:52:07;117;0;215.44;17;23.15;5.88;19.3;10.50;69294;5135.916;-12821.184;211;150;156.4;54;54.1;0;0.0;29.2;-1.0;
14/06/2019 09:52:27;117;0;221.33;17;23.47;3.02;17.0;10.50;69331;5135.916;-12821.184;211;150;160.4;54;54.1;-3;-3.6;29.2;-1.0;
14/06/2019 09:52:47;117;0;221.95;17;24.02;1.44;14.7;10.50;69371;5135.916;-12821.184;211;150;158.4;54;54.1;-2;-1.8;29.2;-1.0;
14/06/2019 09:53:07;117;0;223.07;17;23.74;3.01;12.4;10.60;69372;5135.916;-12821.184;211;150;158.4;54;54.1;-3;-3.6;29.1;-1.0;
