Timestamp;NavState;SecurityLevel;Heading;Declination;Pitch;Roll;Depth;Temperature;Pa;Lat;Lon;DesiredH;BallastCmd;BallastPos;LinCmd;LinPos;AngCmd;AngPos;Voltage;Altitude;
16/06/2019 15:42:46;117;0;21.43;17;15.93;3.59;9.5;10.20;69432;5125.135;-12838.779;54;150;156.4;57;57.1;2;1.8;28.7;-1.0;
16/06/2019 15:42:56;115;0;21.69;17;15.88;4.59;8.8;10.20;69441;5125.135;-12838.779;54;500;168.3;100;100.1;0;-0.9;28.7;-1.0;
16/06/2019 15:43:06;115;0;43.97;17;-25.49;3.57;8.1;10.20;69361;5125.135;-12838.779;54;500;320.8;100;100.0;0;-0.9;28.3;-1.0;
16/06/2019 15:43:16;115;0;30.55;17;-65.15;2.00;8.7;10.20;69173;5125.135;-12838.779;54;500;469.3;100;100.0;0;-0.9;28.3;-1.0;
16/06/2019 15:43:26;115;0;26.63;17;-57.89;2.79;7.6;10.30;68920;5125.135;-12838.779;54;500;505.0;100;100.0;0;-0.9;28.4;-1.0;
16/06/2019 15:43:36;115;0;357.56;17;-29.88;3.36;4.7;10.30;68896;5125.135;-12838.779;54;500;505.0;100;99.9;0;-0.9;28.7;-1.0;
16/06/2019 15:43:46;116;0;319.39;17;-65.12;8.18;1.7;10.40;68908;5125.135;-12838.779;54;500;505.0;100;99.9;0;-0.9;28.7;-1.0;
16/06/2019 15:44:06;116;0;274.96;17;-19.14;2.46;1.4;10.40;68930;5125.135;-12838.779;54;500;505.0;100;99.7;0;-0.9;28.6;-1.0;
16/06/2019 15:44:26;116;0;245.41;17;-11.07;2.65;1.4;10.50;68948;5125.135;-12838.779;54;500;506.9;100;99.7;0;-0.9;28.6;-1.0;
16/06/2019 15:44:46;116;0;236.60;17;-11.06;1.78;1.5;10.60;68947;5125.135;-12838.779;54;500;506.9;100;99.7;0;-0.9;28.7;-1.0;
16/06/2019 15:45:06;116;0;229.90;17;-9.78;4.49;1.4;10.70;68965;5125.135;-12838.779;54;500;506.9;100;99.7;0;-0.9;28.6;-1.0;
16/06/2019 15:46:08;116;0;214.31;17;-12.81;0.99;1.4;11.20;68998;5125.135;-12838.779;54;500;506.9;100;99.7;0;-0.9;28.6;-1.0;
16/06/2019 15:46:28;116;0;228.30;17;-5.39;2.75;1.3;11.40;69007;5125.616;-12838.251;54;500;506.9;100;99.7;0;-0.9;28.6;-1.0;
16/06/2019 15:46:48;116;0;223.07;17;-11.22;1.07;1.4;11.60;69018;5125.616;-12838.256;54;500;508.9;100;99.7;0;-0.9;28.7;-1.0;
16/06/2019 15:47:10;116;0;232.04;17;-6.21;1.48;1.4;11.80;69034;5125.616;-12838.256;54;500;508.9;100;99.7;0;-0.9;28.6;-1.0;
16/06/2019 15:47:30;116;0;225.74;17;-10.18;5.62;1.4;11.90;69032;5125.617;-12838.257;54;500;506.9;100;99.7;0;-0.9;28.6;-1.0;
16/06/2019 15:47:50;116;0;225.22;17;-7.51;1.88;1.4;12.10;69048;5125.617;-12838.257;54;500;506.9;100;99.9;0;-0.9;28.7;-1.0;
16/06/2019 15:49:04;116;0;228.55;17;-11.68;1.71;1.4;12.80;69075;5125.639;-12838.246;54;500;506.9;100;99.7;0;-0.9;28.6;-1.0;
16/06/2019 15:49:24;116;0;224.16;17;-6.97;1.66;1.4;12.90;69087;5125.620;-12838.257;54;500;506.9;100;99.9;0;-0.9;28.7;-1.0;
16/06/2019 15:49:44;116;0;228.35;17;-6.55;0.18;1.4;13.00;69085;5125.620;-12838.258;54;500;506.9;100;99.7;0;-0.9;28.6;-1.0;
16/06/2019 15:50:13;116;0;232.27;17;-13.44;1.50;1.4;13.20;69101;5125.620;-12838.259;54;500;506.9;100;99.7;0;-0.9;28.6;-1.0;
16/06/2019 15:50:33;116;0;223.64;17;-11.70;3.34;1.4;13.30;69106;5125.622;-12838.263;54;500;506.9;100;99.9;0;-0.9;28.6;-1.0;
16/06/2019 15:50:53;116;0;221.79;17;-24.27;3.03;1.5;13.40;69110;5125.623;-12838.262;54;500;506.9;100;99.7;0;-0.9;28.7;-1.0;
16/06/2019 15:51:18;116;0;214.90;17;-12.13;4.77;1.4;13.70;69126;5125.623;-12838.262;54;500;506.9;100;99.7;0;-0.9;28.6;-1.0;
16/06/2019 15:51:38;116;0;207.59;17;-9.57;4.63;1.3;13.80;69121;5125.623;-12838.260;54;500;506.9;100;99.7;0;-0.9;28.6;-1.0;
16/06/2019 15:51:58;116;0;210.60;17;-8.95;1.30;1.4;14.00;69119;5125.617;-12838.253;54;500;506.9;100;99.7;0;-0.9;28.7;-1.0;
16/06/2019 15:52:18;116;0;219.18;17;-9.52;-0.51;1.5;14.10;69123;5125.617;-12838.252;54;500;506.9;100;99.7;0;-0.9;28.6;-1.0;
16/06/2019 15:52:38;110;0;218.54;17;-10.33;1.45;1.5;14.20;69138;5125.617;-12838.252;54;-300;407.9;100;99.7;0;-0.9;28.7;-1.0;
16/06/2019 15:52:48;110;0;197.96;17;-6.90;0.05;1.5;14.30;69378;5125.617;-12838.252;54;-300;267.3;100;99.7;0;-0.9;28.6;-1.0;
16/06/2019 15:52:58;110;0;192.66;17;-12.83;0.17;1.4;14.30;69556;5125.617;-12838.252;54;-300;122.8;100;99.9;0;-0.9;28.6;-1.0;
16/06/2019 15:53:08;110;0;193.04;17;-27.71;4.14;1.7;14.30;69795;5125.617;-12838.252;54;-300;-41.6;100;99.9;0;-0.9;28.6;-1.0;
16/06/2019 15:53:18;110;0;207.80;17;-61.35;7.82;2.8;14.30;70066;5125.617;-12838.252;54;-300;-241.6;96;95.8;0;-0.9;28.6;-1.0;
16/06/2019 15:53:28;110;0;244.88;17;-57.85;3.02;4.6;14.30;70405;5125.617;-12838.252;54;-300;-301.0;78;77.8;0;-0.9;28.5;-1.0;
16/06/2019 15:53:38;110;0;258.82;17;-45.22;2.86;7.4;14.30;70459;5125.617;-12838.252;54;-300;-301.0;73;73.0;0;-0.9;28.7;-1.0;
16/06/2019 15:53:48;100;0;239.62;17;-35.14;2.79;10.5;14.40;70460;5125.617;-12838.252;54;-300;-299.0;73;73.0;0;-0.9;28.6;-1.0;
16/06/2019 15:54:08;100;0;220.61;17;-27.26;3.18;15.5;14.30;70448;5125.617;-12838.252;54;-300;-295.0;73;72.9;-45;-45.1;28.7;0.0;
16/06/2019 15:54:28;100;0;215.39;17;-28.11;-17.52;20.2;14.30;70414;5125.617;-12838.252;54;-300;-295.0;73;72.9;-45;-45.6;28.7;0.0;
16/06/2019 15:54:48;100;0;223.88;17;-26.49;-17.44;24.8;14.30;70370;5125.617;-12838.252;54;-300;-295.0;73;72.9;-45;-45.6;28.6;0.0;
16/06/2019 15:55:08;100;0;234.27;17;-26.61;-17.73;28.9;14.30;70333;5125.617;-12838.252;54;-300;-295.0;73;72.9;-45;-45.6;28.7;0.0;
16/06/2019 15:55:28;100;0;246.95;17;-26.16;-17.69;32.7;14.20;70287;5125.617;-12838.252;54;-300;-295.0;73;72.9;-45;-45.6;28.7;0.0;
16/06/2019 15:55:48;100;0;254.18;17;-26.57;-17.58;36.7;14.10;70251;5125.617;-12838.252;54;-300;-295.0;73;73.0;-45;-45.1;28.7;0.0;
16/06/2019 15:56:08;100;0;258.03;17;-26.72;-17.54;40.7;14.00;70195;5125.617;-12838.252;54;-300;-295.0;73;72.9;-43;-42.9;28.7;0.0;
16/06/2019 15:56:28;100;0;267.05;17;-25.69;-16.08;44.6;14.00;70176;5125.617;-12838.252;54;-300;-295.0;73;72.9;-37;-37.0;28.7;0.0;
16/06/2019 15:56:48;100;0;270.47;17;-26.06;-13.19;48.6;13.90;70149;5125.617;-12838.252;54;-300;-295.0;73;72.9;-37;-36.1;28.7;0.0;
16/06/2019 15:57:08;100;0;270.39;17;-25.52;-13.15;52.6;13.90;70122;5125.617;-12838.252;54;-300;-295.0;73;72.9;-38;-37.9;28.7;0.0;
16/06/2019 15:57:28;100;0;277.85;17;-24.72;-14.31;56.4;13.80;70100;5125.617;-12838.252;54;-300;-295.0;73;72.9;-35;-35.2;28.6;0.0;
16/06/2019 15:57:48;100;0;285.66;17;-25.19;-12.67;59.8;13.70;70073;5125.617;-12838.252;54;-300;-295.0;73;72.9;-32;-31.6;28.7;0.0;
16/06/2019 15:58:08;100;0;290.89;17;-25.17;-10.75;63.2;13.60;70046;5125.617;-12838.252;54;-300;-295.0;73;72.9;-32;-31.1;28.7;0.0;
16/06/2019 15:58:28;100;0;295.77;17;-24.80;-10.81;66.7;13.50;70031;5125.617;-12838.252;54;-300;-295.0;73;72.9;-31;-31.1;28.7;0.0;
16/06/2019 15:58:48;100;0;301.65;17;-24.30;-10.14;70.1;13.50;70013;5125.617;-12838.252;54;-300;-297.0;73;72.9;-29;-28.9;28.7;0.0;
16/06/2019 15:59:08;100;0;304.67;17;-24.29;-9.89;73.6;13.40;69979;5125.617;-12838.252;54;-300;-295.0;73;72.9;-30;-29.8;28.7;0.0;
16/06/2019 15:59:28;100;0;312.17;17;-24.02;-10.50;76.9;13.30;69958;5125.617;-12838.252;54;-300;-295.0;73;72.9;-27;-27.1;28.7;0.0;
16/06/2019 15:59:48;100;0;313.65;17;-23.71;-8.68;80.3;13.20;69941;5125.617;-12838.252;54;-300;-295.0;73;72.9;-28;-28.0;28.7;0.0;
16/06/2019 16:00:08;100;0;317.61;17;-23.57;-9.85;83.3;13.10;69922;5125.617;-12838.252;54;-300;-295.0;73;72.9;-27;-27.1;28.7;0.0;
16/06/2019 16:00:28;100;0;324.41;17;-23.48;-8.82;86.4;13.10;69905;5125.617;-12838.252;54;-300;-293.1;73;72.9;-25;-24.8;28.7;0.0;
16/06/2019 16:00:48;100;0;323.34;17;-23.00;-7.57;89.4;13.00;69890;5125.617;-12838.252;54;-300;-295.0;73;72.9;-27;-27.1;28.7;0.0;
16/06/2019 16:01:08;100;0;324.44;17;-23.18;-9.29;92.4;12.90;69880;5125.617;-12838.252;54;-300;-293.1;73;72.9;-28;-28.0;28.7;0.0;
16/06/2019 16:01:28;100;0;324.77;17;-22.92;-9.85;95.3;12.90;69870;5125.617;-12838.252;54;-300;-293.1;73;72.9;-28;-28.4;28.7;0.0;
16/06/2019 16:01:48;100;0;326.17;17;-22.88;-9.80;98.0;12.80;69859;5125.617;-12838.252;54;-300;-293.1;73;72.9;-27;-26.6;28.7;0.0;
16/06/2019 16:02:08;100;0;332.16;17;-23.06;-8.92;100.8;12.70;69842;5125.617;-12838.252;54;-300;-295.0;73;72.9;-25;-24.8;28.7;0.0;
16/06/2019 16:02:28;100;0;328.34;17;-22.09;-7.93;103.6;12.70;69827;5125.617;-12838.252;54;-300;-293.1;73;72.9;-28;-28.0;28.7;0.0;
16/06/2019 16:02:48;100;0;341.09;17;-20.84;-9.87;106.2;12.60;69811;5125.617;-12838.252;54;-300;-293.1;73;72.9;-21;-21.2;28.6;0.0;
16/06/2019 16:03:08;100;0;345.01;17;-19.80;-6.78;108.8;12.50;69793;5125.617;-12838.252;54;-300;-293.1;73;72.9;-21;-20.8;28.7;0.0;
16/06/2019 16:03:28;100;0;355.19;17;-22.49;-7.01;111.3;12.50;69788;5125.617;-12838.252;54;-300;-293.1;73;72.9;-17;-17.1;28.7;0.0;
16/06/2019 16:03:48;100;0;353.93;17;-20.61;-3.95;113.8;12.40;69779;5125.617;-12838.252;54;-300;-293.1;73;72.9;-21;-21.2;28.7;0.0;
16/06/2019 16:04:08;100;0;354.07;17;-20.82;-6.47;116.3;12.30;69772;5125.617;-12838.252;54;-300;-293.1;73;72.9;-21;-21.7;28.7;0.0;
16/06/2019 16:04:28;100;0;354.35;17;-21.01;-6.51;118.8;12.20;69752;5125.617;-12838.252;54;-300;-293.1;73;72.9;-22;-22.1;28.7;0.0;
16/06/2019 16:04:48;100;0;358.39;17;-20.95;-7.14;121.4;12.20;69748;5125.617;-12838.252;54;-300;-293.1;73;72.9;-20;-19.9;28.7;0.0;
16/06/2019 16:05:08;100;0;0.94;17;-20.26;-5.23;124.0;12.10;69739;5125.617;-12838.252;54;-300;-293.1;73;72.9;-20;-19.0;28.6;0.0;
16/06/2019 16:05:28;100;0;359.77;17;-19.96;-5.29;126.7;12.10;69744;5125.617;-12838.252;54;-300;-293.1;73;72.9;-21;-21.2;28.7;0.0;
16/06/2019 16:05:48;100;0;359.07;17;-19.75;-6.58;129.3;12.00;69711;5125.617;-12838.252;54;-300;-293.1;73;72.9;-22;-22.6;28.7;0.0;
16/06/2019 16:06:08;100;0;353.76;17;-20.43;-7.14;132.0;12.00;69715;5125.617;-12838.252;54;-300;-291.1;73;72.9;-25;-25.3;28.7;0.0;
16/06/2019 16:06:28;100;0;352.49;17;-19.95;-8.59;134.5;11.90;69708;5125.617;-12838.252;54;-300;-293.1;73;72.9;-25;-25.7;28.7;0.0;
16/06/2019 16:06:48;100;0;351.74;17;-20.08;-8.62;136.9;11.80;69688;5125.617;-12838.252;54;-300;-291.1;73;72.9;-25;-25.7;28.6;0.0;
16/06/2019 16:07:08;100;0;353.05;17;-20.04;-8.71;139.2;11.80;69678;5125.617;-12838.252;54;-300;-293.1;73;72.9;-23;-22.6;28.7;0.0;
16/06/2019 16:07:28;100;0;351.63;17;-19.88;-6.85;141.6;11.70;69670;5125.617;-12838.252;54;-300;-291.1;73;72.9;-24;-23.9;28.7;0.0;
16/06/2019 16:07:48;100;0;351.66;17;-19.40;-7.96;143.9;11.70;69663;5125.617;-12838.252;54;-300;-293.1;73;72.9;-24;-24.4;28.7;0.0;
16/06/2019 16:08:08;100;0;351.22;17;-19.69;-7.92;146.0;11.60;69640;5125.617;-12838.252;54;-300;-293.1;73;72.9;-24;-24.4;28.7;0.0;
16/06/2019 16:08:28;100;0;352.34;17;-19.91;-7.97;148.2;11.50;69627;5125.617;-12838.252;54;-300;-291.1;73;72.9;-23;-23.0;28.7;0.0;
16/06/2019 16:08:48;100;0;352.10;17;-19.28;-7.07;150.5;11.50;69617;5125.617;-12838.252;54;-300;-293.1;73;72.9;-23;-22.1;28.7;0.0;
16/06/2019 16:09:08;100;0;351.53;17;-19.12;-7.04;152.7;11.40;69609;5125.617;-12838.252;54;-300;-293.1;73;72.9;-24;-24.4;28.6;0.0;
16/06/2019 16:09:28;100;0;354.03;17;-19.36;-8.20;155.0;11.40;69602;5125.617;-12838.252;54;-300;-293.1;73;72.9;-22;-22.1;28.7;0.0;
16/06/2019 16:09:48;100;0;353.63;17;-19.05;-6.73;157.1;11.30;69595;5125.617;-12838.252;54;-300;-293.1;73;72.9;-23;-23.5;28.7;0.0;
16/06/2019 16:10:08;100;0;353.08;17;-19.19;-7.80;159.3;11.20;69573;5125.617;-12838.252;54;-300;-293.1;73;72.9;-23;-23.9;28.7;0.0;
16/06/2019 16:10:28;100;0;354.63;17;-19.05;-7.82;161.5;11.20;69562;5125.617;-12838.252;54;-300;-293.1;73;72.9;-22;-22.1;28.6;0.0;
16/06/2019 16:10:48;100;0;356.62;17;-18.94;-6.66;163.7;11.10;69564;5125.617;-12838.252;54;-300;-293.1;73;72.9;-22;-21.7;28.7;0.0;
16/06/2019 16:11:08;100;0;358.78;17;-19.09;-6.68;165.6;11.10;69548;5125.617;-12838.252;54;-300;-295.0;73;72.9;-21;-21.2;28.7;0.0;
16/06/2019 16:11:28;100;0;358.69;17;-19.01;-6.06;167.9;11.00;69541;5125.617;-12838.252;54;-300;-293.1;73;72.9;-21;-20.3;28.7;44.1;
16/06/2019 16:11:48;100;0;357.80;17;-18.71;-6.15;169.9;11.00;69533;5125.617;-12838.252;54;-300;-289.1;73;72.9;-22;-22.1;28.7;41.9;
16/06/2019 16:12:08;100;0;358.91;17;-19.00;-7.16;171.9;10.90;69518;5125.617;-12838.252;54;-300;-291.1;73;72.9;-22;-22.6;28.7;39.9;
16/06/2019 16:12:28;100;0;359.35;17;-18.61;-7.15;174.0;10.80;69510;5125.617;-12838.252;54;-300;-293.1;73;72.9;-21;-21.2;28.7;37.7;
16/06/2019 16:12:48;100;0;358.10;17;-18.69;-6.23;176.0;10.80;69510;5125.617;-12838.252;54;-300;-293.1;73;72.9;-22;-22.6;28.7;35.6;
16/06/2019 16:13:08;100;0;359.98;17;-19.18;-7.33;178.1;10.70;69506;5125.617;-12838.252;54;-300;-293.1;73;72.9;-22;-23.0;28.6;33.7;
16/06/2019 16:13:29;100;0;0.05;17;-19.05;-7.48;180.1;10.70;69509;5125.617;-12838.252;54;-300;-295.0;73;72.9;-21;-21.2;28.7;31.8;
16/06/2019 16:13:49;100;0;0.19;17;-18.61;-6.41;182.1;10.60;69491;5125.617;-12838.252;54;-300;-293.1;73;72.9;-21;-20.8;28.7;29.5;
16/06/2019 16:14:09;100;0;1.53;17;-19.21;-6.14;184.1;10.60;69491;5125.617;-12838.252;54;-300;-293.1;73;72.7;-21;-20.8;28.7;27.4;
16/06/2019 16:14:29;100;0;2.18;17;-18.45;-6.22;186.0;10.50;69486;5125.617;-12838.252;54;-300;-293.1;73;72.9;-21;-20.8;28.7;25.4;
16/06/2019 16:14:49;100;0;3.72;17;-18.96;-6.31;187.8;10.50;69489;5125.617;-12838.252;54;-300;-293.1;73;72.9;-20;-19.4;28.7;23.6;
16/06/2019 16:15:09;100;0;3.95;17;-18.84;-5.29;189.8;10.50;69477;5125.617;-12838.252;54;-300;-293.1;73;72.9;-21;-21.2;28.7;21.6;
16/06/2019 16:15:29;100;0;3.41;17;-19.67;-6.68;191.5;10.40;69485;5125.617;-12838.252;54;-300;-293.1;73;72.7;-21;-21.7;28.7;19.7;
16/06/2019 16:15:49;118;0;4.17;17;-18.66;-6.77;193.6;10.40;69475;5125.617;-12838.252;54;150;-277.2;57;56.8;0;0.9;28.6;17.7;
16/06/2019 16:15:59;118;0;39.52;17;2.58;3.94;194.4;10.40;69402;5125.617;-12838.252;54;150;-118.8;57;56.9;0;0.9;28.1;17.7;
16/06/2019 16:16:09;118;0;36.86;17;20.50;3.66;194.2;10.30;69189;5125.617;-12838.252;54;150;35.6;57;56.9;0;0.9;28.1;-1.0;
16/06/2019 16:16:19;118;0;34.78;17;23.40;3.77;193.2;10.30;68930;5125.617;-12838.252;54;150;156.4;57;56.9;0;0.9;28.1;-1.0;
16/06/2019 16:16:29;118;0;352.82;17;25.14;3.52;192.0;10.30;68749;5125.617;-12838.252;54;150;154.5;57;56.9;0;0.9;28.6;-1.0;
16/06/2019 16:16:39;118;0;352.94;17;27.15;3.88;190.3;10.30;68758;5125.617;-12838.252;54;150;156.4;57;57.1;0;0.9;28.7;-1.0;
16/06/2019 16:16:49;117;0;351.88;17;28.17;3.82;188.4;10.30;68758;5125.617;-12838.252;54;150;156.4;57;56.9;0;0.9;28.6;-1.0;
16/06/2019 16:17:09;117;0;349.18;17;28.32;3.85;184.1;10.20;68754;5125.617;-12838.252;54;150;156.4;57;56.9;29;28.9;28.6;-1.0;
16/06/2019 16:17:29;117;0;357.30;17;27.89;17.81;179.1;10.20;68748;5125.617;-12838.252;54;150;156.4;57;56.9;22;22.1;28.6;-1.0;
16/06/2019 16:17:49;117;0;6.36;17;27.93;13.61;174.7;10.20;68743;5125.617;-12838.252;54;150;158.4;57;56.9;17;16.7;28.7;-1.0;
16/06/2019 16:18:09;117;0;11.94;17;27.95;10.79;170.1;10.10;68746;5125.617;-12838.252;54;150;156.4;57;56.9;16;15.8;28.7;-1.0;
16/06/2019 16:18:29;117;0;16.93;17;28.26;10.43;165.5;10.10;68725;5125.617;-12838.252;54;150;156.4;57;56.9;15;14.9;28.7;-1.0;
16/06/2019 16:18:49;117;0;20.48;17;28.24;10.30;160.9;10.00;68726;5125.617;-12838.252;54;150;156.4;57;56.9;14;14.0;28.7;-1.0;
16/06/2019 16:19:09;117;0;29.00;17;28.28;9.57;156.3;10.00;68730;5125.617;-12838.252;54;150;156.4;57;56.9;11;10.8;28.6;-1.0;
16/06/2019 16:19:29;117;0;34.63;17;27.93;8.06;151.6;9.90;68743;5125.617;-12838.252;54;150;156.4;57;56.9;11;10.4;28.7;-1.0;
16/06/2019 16:19:49;117;0;42.29;17;27.40;8.05;147.3;9.90;68746;5125.617;-12838.252;54;150;156.4;57;56.9;11;10.4;28.7;-1.0;
16/06/2019 16:20:09;117;0;52.55;17;27.25;8.26;142.9;9.90;68762;5125.617;-12838.252;54;150;156.4;57;56.9;5;5.0;28.6;-1.0;
16/06/2019 16:20:29;117;0;59.42;17;27.23;5.19;138.7;9.90;68764;5125.617;-12838.252;54;150;156.4;57;56.9;3;3.2;28.7;-1.0;
16/06/2019 16:20:49;117;0;64.47;17;27.28;4.31;134.5;9.80;68779;5125.617;-12838.252;54;150;156.4;57;56.9;2;1.8;28.7;-1.0;
16/06/2019 16:21:09;117;0;63.02;17;26.25;3.53;130.5;9.80;68776;5125.617;-12838.252;54;150;158.4;57;56.9;5;5.0;28.7;-1.0;
16/06/2019 16:21:29;117;0;64.94;17;26.00;5.51;126.6;9.80;68788;5125.617;-12838.252;54;150;156.4;57;56.9;5;5.4;28.7;-1.0;
16/06/2019 16:21:49;117;0;59.37;17;26.04;5.76;122.9;9.80;68791;5125.617;-12838.252;54;150;158.4;57;56.9;7;7.2;28.7;-1.0;
16/06/2019 16:22:09;117;0;47.07;17;26.26;7.28;119.1;9.80;68795;5125.617;-12838.252;54;150;156.4;57;56.9;13;13.5;28.7;-1.0;
16/06/2019 16:22:29;117;0;42.90;17;26.16;9.06;115.6;9.70;68812;5125.617;-12838.252;54;150;156.4;57;56.9;14;14.0;28.6;-1.0;
16/06/2019 16:22:49;117;0;33.86;17;25.30;10.35;111.9;9.80;68820;5125.617;-12838.252;54;150;156.4;57;57.1;14;14.0;28.7;-1.0;
16/06/2019 16:23:09;117;0;45.59;17;24.05;8.44;108.4;9.70;68827;5125.617;-12838.252;54;150;156.4;57;56.9;7;7.2;28.7;-1.0;
16/06/2019 16:23:29;117;0;26.55;17;27.78;6.74;104.7;9.70;68827;5125.617;-12838.252;54;150;156.4;57;56.9;7;6.8;28.6;-1.0;
16/06/2019 16:23:49;117;0;15.74;17;24.81;6.50;101.1;9.70;68836;5125.617;-12838.252;54;150;156.4;57;56.9;22;22.1;28.7;-1.0;
16/06/2019 16:24:09;117;0;19.18;17;23.42;14.26;98.0;9.70;68842;5125.617;-12838.252;54;150;156.4;57;56.9;17;17.1;28.7;-1.0;
16/06/2019 16:24:29;117;0;28.78;17;22.56;11.07;95.1;9.70;68852;5125.617;-12838.252;54;150;156.4;57;56.9;11;10.4;28.7;-1.0;
16/06/2019 16:24:49;117;0;38.48;17;22.65;7.92;92.3;9.70;68857;5125.617;-12838.252;54;150;158.4;57;57.1;11;9.9;28.7;-1.0;
16/06/2019 16:25:09;117;0;48.25;17;22.12;7.81;89.4;9.70;68870;5125.617;-12838.252;54;150;158.4;57;56.9;3;3.2;28.7;-1.0;
16/06/2019 16:25:29;117;0;46.54;17;22.77;4.41;86.8;9.70;68883;5125.617;-12838.252;54;150;156.4;57;56.9;7;7.2;28.6;-1.0;
16/06/2019 16:25:49;117;0;43.28;17;22.43;6.99;84.0;9.70;68884;5125.617;-12838.252;54;150;156.4;57;56.9;10;9.9;28.7;-1.0;
16/06/2019 16:26:09;117;0;44.87;17;22.08;8.41;81.2;9.70;68887;5125.617;-12838.252;54;150;156.4;57;56.9;9;9.0;28.7;-1.0;
16/06/2019 16:26:29;117;0;51.10;17;21.60;7.17;78.4;9.70;68889;5125.617;-12838.252;54;150;156.4;57;57.1;4;4.1;28.7;-1.0;
16/06/2019 16:26:49;117;0;61.11;17;21.81;5.20;76.0;9.70;68903;5125.617;-12838.252;54;150;158.4;57;56.9;0;0.0;28.7;-1.0;
16/06/2019 16:27:09;117;0;65.53;17;21.85;2.82;73.6;9.70;68904;5125.617;-12838.252;54;150;158.4;57;56.9;0;-0.5;28.7;-1.0;
16/06/2019 16:27:29;117;0;62.78;17;21.47;2.74;71.3;9.70;68912;5125.617;-12838.252;54;150;158.4;57;56.9;2;1.8;28.7;-1.0;
16/06/2019 16:27:49;117;0;62.70;17;20.64;4.19;68.9;9.70;68914;5125.617;-12838.252;54;150;158.4;57;56.9;2;2.3;28.7;-1.0;
16/06/2019 16:28:09;117;0;61.96;17;20.03;4.19;66.7;9.70;68931;5125.617;-12838.252;54;150;158.4;57;56.9;2;2.3;28.7;-1.0;
16/06/2019 16:28:29;117;0;63.05;17;20.03;4.17;64.4;9.70;68955;5125.617;-12838.252;54;150;156.4;57;56.9;0;-0.5;28.7;-1.0;
16/06/2019 16:28:49;117;0;64.32;17;20.20;2.76;62.0;9.70;68958;5125.617;-12838.252;54;150;158.4;57;56.9;0;-0.5;28.7;-1.0;
16/06/2019 16:29:09;117;0;62.56;17;20.17;2.87;59.6;9.70;68961;5125.617;-12838.252;54;150;158.4;57;56.9;0;-0.5;28.7;-1.0;
16/06/2019 16:29:29;117;0;64.27;17;19.12;3.08;57.1;9.70;68980;5125.617;-12838.252;54;150;158.4;57;57.1;0;-0.5;28.7;-1.0;
16/06/2019 16:29:49;117;0;67.77;17;18.94;2.80;54.9;9.70;68989;5125.617;-12838.252;54;150;158.4;57;56.9;-3;-3.2;28.6;-1.0;
16/06/2019 16:30:09;117;0;70.40;17;19.40;1.24;52.9;9.80;69006;5125.617;-12838.252;54;150;158.4;57;56.9;-4;-4.1;28.7;-1.0;
16/06/2019 16:30:29;117;0;70.44;17;19.32;0.81;50.8;9.80;69000;5125.617;-12838.252;54;150;158.4;57;56.9;-4;-5.0;28.7;-1.0;
16/06/2019 16:30:49;117;0;68.25;17;19.81;0.77;48.7;9.80;69015;5125.617;-12838.252;54;150;158.4;57;56.9;-3;-3.2;28.7;-1.0;
16/06/2019 16:31:09;117;0;62.96;17;19.80;2.15;46.3;9.80;69020;5125.617;-12838.252;54;150;158.4;57;56.9;0;0.0;28.7;-1.0;
16/06/2019 16:31:29;117;0;56.43;17;19.49;3.58;43.9;9.80;69044;5125.617;-12838.252;54;150;158.4;57;56.9;1;0.9;28.7;-1.0;
16/06/2019 16:31:49;117;0;53.07;17;18.89;3.63;41.5;9.80;69049;5125.617;-12838.252;54;150;158.4;57;56.9;0;0.0;28.6;-1.0;
16/06/2019 16:32:09;117;0;50.62;17;19.03;2.88;39.3;9.80;69057;5125.617;-12838.252;54;150;158.4;57;57.1;0;-0.5;28.7;-1.0;
16/06/2019 16:32:29;117;0;48.37;17;18.96;2.92;37.2;9.90;69079;5125.617;-12838.252;54;150;156.4;57;57.1;0;-0.5;28.7;-1.0;
16/06/2019 16:32:49;117;0;45.58;17;18.91;2.92;35.0;9.90;69091;5125.617;-12838.252;54;150;158.4;57;56.9;0;-0.5;28.6;-1.0;
16/06/2019 16:33:09;117;0;44.93;17;18.41;2.91;32.9;9.90;69120;5125.617;-12838.252;54;150;156.4;57;56.9;0;-0.5;28.7;-1.0;
16/06/2019 16:33:29;117;0;42.07;17;18.42;2.90;30.9;9.90;69120;5125.617;-12838.252;54;150;156.4;57;56.9;0;-0.5;28.7;-1.0;
16/06/2019 16:33:49;117;0;41.54;17;17.76;3.01;28.9;10.00;69134;5125.617;-12838.252;54;150;158.4;57;56.9;0;-0.5;28.6;-1.0;
16/06/2019 16:34:09;117;0;46.97;17;17.59;2.97;27.1;10.00;69148;5125.617;-12838.252;54;150;156.4;57;56.9;-4;-4.1;28.7;-1.0;
16/06/2019 16:34:29;117;0;45.76;17;17.30;1.09;25.3;10.00;69174;5125.617;-12838.252;54;150;158.4;57;56.9;-3;-3.2;28.7;-1.0;
16/06/2019 16:34:49;117;0;44.13;17;16.66;1.88;23.6;10.00;69189;5125.617;-12838.252;54;150;158.4;57;56.9;-3;-3.2;28.7;-1.0;
16/06/2019 16:35:09;117;0;44.72;17;16.48;1.94;22.1;10.10;69218;5125.617;-12838.252;54;150;156.4;57;56.9;-3;-2.7;28.6;-1.0;
16/06/2019 16:35:29;117;0;46.69;17;16.01;1.92;20.5;10.10;69251;5125.617;-12838.252;54;150;156.4;57;56.9;-5;-5.0;28.6;-1.0;
16/06/2019 16:35:49;117;0;47.49;17;16.10;0.64;18.9;10.10;69274;5125.617;-12838.252;54;150;158.4;57;57.1;-5;-5.4;28.7;-1.0;
16/06/2019 16:36:09;117;0;41.30;17;16.53;0.60;17.2;10.20;69294;5125.617;-12838.252;54;150;156.4;57;57.1;-2;-1.8;28.7;-1.0;
16/06/2019 16:36:29;117;0;38.19;17;16.24;2.82;15.6;10.20;69328;5125.617;-12838.252;54;150;156.4;57;56.9;-1;-0.9;28.7;-1.0;
16/06/2019 16:36:49;117;0;36.75;17;15.70;2.76;14.1;10.30;69358;5125.617;-12838.252;54;150;156.4;57;56.9;-1;-0.9;28.7;-1.0;
16/06/2019 16:37:09;117;0;35.66;17;16.06;2.87;12.7;10.30;69387;5125.617;-12838.252;54;150;158.4;57;56.9;-1;-0.9;28.7;-1.0;
16/06/2019 16:37:29;117;0;33.21;17;16.14;2.83;11.2;10.40;69404;5125.617;-12838.252;54;150;156.4;57;56.9;-1;-0.9;28.7;-1.0;
16/06/2019 16:37:49;117;0;33.50;17;15.68;2.84;9.7;10.40;69427;5125.617;-12838.252;54;150;156.4;57;56.9;-1;-0.9;28.6;-1.0;
16/06/2019 16:38:09;117;0;29.60;17;16.18;2.62;8.3;10.50;69441;5125.617;-12838.252;54;150;158.4;57;56.9;0;0.5;28.7;-1.0;
16/06/2019 16:38:29;117;0;28.79;17;15.21;3.52;6.7;10.50;69464;5125.617;-12838.252;54;150;158.4;57;57.1;0;0.5;28.7;-1.0;
16/06/2019 16:38:49;117;0;28.31;17;16.79;4.09;5.1;10.60;69484;5125.617;-12838.252;54;150;158.4;57;57.1;0;0.9;28.7;-1.0;
