Timestamp;NavState;SecurityLevel;Heading;Declination;Pitch;Roll;Depth;Temperature;Pa;Lat;Lon;DesiredH;BallastCmd;BallastPos;LinCmd;LinPos;AngCmd;AngPos;Voltage;Altitude;
15/06/2019 12:37:06;117;0;258.61;17;15.49;0.48;9.6;10.70;69495;5124.418;-12834.295;264;150;158.4;57;57.2;-7;-7.2;28.9;-1.0;
15/06/2019 12:37:16;110;0;256.75;17;15.60;-0.40;8.8;10.80;69507;5124.418;-12834.295;264;-300;-61.4;73;73.5;0;0.9;28.9;-1.0;
15/06/2019 12:37:26;110;0;261.39;17;-10.02;4.07;8.4;10.80;70016;5124.418;-12834.295;264;-300;-303.0;73;73.0;0;0.9;28.8;-1.0;
15/06/2019 12:37:36;110;0;271.14;17;-23.13;4.40;9.1;10.80;70293;5124.418;-12834.295;264;-300;-305.0;73;73.0;0;0.9;28.9;-1.0;
15/06/2019 12:37:46;100;0;269.23;17;-27.36;4.30;10.8;10.80;70290;5124.418;-12834.295;264;-300;-306.9;73;73.0;0;0.9;28.9;-1.0;
15/06/2019 12:38:06;100;0;253.80;17;-27.29;4.06;15.1;10.90;70303;5124.418;-12834.295;264;-300;-305.0;73;73.0;4;4.1;28.9;0.0;
15/06/2019 12:38:26;100;0;243.66;17;-25.00;5.99;20.0;10.90;70289;5124.418;-12834.295;264;-300;-305.0;73;73.0;4;5.0;28.9;0.0;
15/06/2019 12:38:46;100;0;227.75;17;-25.41;5.91;24.3;11.00;70270;5124.418;-12834.295;264;-300;-306.9;73;73.0;-7;-7.2;28.9;0.0;
15/06/2019 12:39:06;100;0;211.63;17;-26.13;-0.04;28.4;11.00;70244;5124.418;-12834.295;264;-300;-306.9;73;73.0;-13;-13.1;28.9;0.0;
15/06/2019 12:39:26;100;0;198.94;17;-25.42;-2.89;32.9;11.00;70216;5124.418;-12834.295;264;-300;-305.0;73;73.0;-17;-17.1;28.9;0.0;
15/06/2019 12:39:46;100;0;202.09;17;-25.14;-4.36;37.1;11.00;70169;5124.418;-12834.295;264;-300;-305.0;73;73.0;-10;-9.5;28.9;0.0;
15/06/2019 12:40:06;100;0;195.17;17;-25.05;-0.63;41.0;11.00;70129;5124.418;-12834.295;264;-300;-306.9;73;73.0;-15;-14.9;28.9;0.0;
15/06/2019 12:40:26;100;0;195.43;17;-25.01;-3.45;44.8;11.00;70106;5124.418;-12834.295;264;-300;-306.9;73;73.0;-15;-15.3;28.9;0.0;
15/06/2019 12:40:46;100;0;194.66;17;-25.31;-3.49;48.4;11.00;70076;5124.418;-12834.295;264;-300;-306.9;73;73.0;-16;-15.8;28.9;0.0;
15/06/2019 12:41:06;100;0;192.18;17;-24.68;-3.58;52.5;11.00;70044;5124.418;-12834.295;264;-300;-305.0;73;73.0;-19;-19.0;28.9;0.0;
15/06/2019 12:41:26;100;0;186.55;17;-24.78;-5.45;56.2;11.00;70033;5124.418;-12834.295;264;-300;-306.9;73;73.0;-24;-24.4;28.9;0.0;
15/06/2019 12:41:46;100;0;188.19;17;-24.76;-7.80;60.0;11.00;70009;5124.418;-12834.295;264;-300;-306.9;73;73.0;-24;-24.8;28.9;0.0;
15/06/2019 12:42:06;100;0;190.82;17;-24.60;-7.88;63.7;11.00;69996;5124.418;-12834.295;264;-300;-306.9;73;73.0;-24;-24.8;28.9;0.0;
15/06/2019 12:42:26;100;0;189.22;17;-24.63;-7.83;67.3;10.90;69974;5124.418;-12834.295;264;-300;-306.9;73;72.9;-26;-26.6;28.9;0.0;
15/06/2019 12:42:47;100;0;190.06;17;-24.69;-8.85;71.0;10.90;69962;5124.418;-12834.295;264;-300;-305.0;73;72.9;-25;-24.8;28.9;0.0;
15/06/2019 12:43:07;100;0;189.98;17;-24.49;-7.35;74.8;10.90;69953;5124.418;-12834.295;264;-300;-306.9;73;72.9;-26;-26.2;28.9;0.0;
15/06/2019 12:43:27;100;0;190.25;17;-24.52;-8.89;78.7;10.90;69934;5124.418;-12834.295;264;-300;-306.9;73;73.0;-25;-24.8;28.9;0.0;
15/06/2019 12:43:47;100;0;191.71;17;-23.38;-7.70;82.4;10.90;69922;5124.418;-12834.295;264;-300;-305.0;73;73.0;-25;-24.4;28.9;0.0;
15/06/2019 12:44:07;100;0;196.61;17;-24.71;-7.92;85.6;10.90;69908;5124.418;-12834.295;264;-300;-305.0;73;73.0;-22;-22.1;28.9;0.0;
15/06/2019 12:44:27;100;0;200.59;17;-24.08;-6.38;88.9;10.90;69891;5124.418;-12834.295;264;-300;-306.9;73;73.0;-21;-21.2;28.9;0.0;
15/06/2019 12:44:47;100;0;205.71;17;-23.51;-6.08;92.4;10.80;69885;5124.418;-12834.295;264;-300;-306.9;73;72.9;-20;-19.9;28.9;0.0;
15/06/2019 12:45:07;100;0;201.53;17;-23.54;-5.21;96.0;10.80;69882;5124.418;-12834.295;264;-300;-305.0;73;73.0;-23;-23.0;28.9;0.0;
15/06/2019 12:45:27;100;0;197.95;17;-23.43;-7.26;99.5;10.80;69876;5124.418;-12834.295;264;-300;-305.0;73;72.9;-26;-26.6;28.9;0.0;
15/06/2019 12:45:47;100;0;198.33;17;-23.38;-8.87;103.1;10.80;69866;5124.418;-12834.295;264;-300;-305.0;73;73.0;-24;-23.9;28.9;0.0;
15/06/2019 12:46:07;100;0;194.23;17;-22.85;-7.10;106.7;10.80;69856;5124.418;-12834.295;264;-300;-305.0;73;73.0;-27;-27.1;28.9;0.0;
15/06/2019 12:46:27;100;0;197.44;17;-22.58;-9.59;110.0;10.70;69857;5124.418;-12834.295;264;-300;-306.9;73;73.0;-24;-23.9;28.9;0.0;
15/06/2019 12:46:47;100;0;204.99;17;-22.43;-7.34;113.2;10.70;69840;5124.418;-12834.295;264;-300;-305.0;73;73.0;-20;-19.9;28.9;0.0;
15/06/2019 12:47:07;100;0;209.31;17;-21.34;-5.22;116.3;10.70;69836;5124.418;-12834.295;264;-300;-306.9;73;73.0;-19;-19.0;28.9;0.0;
15/06/2019 12:47:27;100;0;205.15;17;-22.41;-5.36;119.0;10.70;69823;5124.418;-12834.295;264;-300;-305.0;73;73.0;-23;-23.0;28.9;0.0;
15/06/2019 12:47:47;100;0;203.74;17;-21.38;-7.55;121.9;10.70;69810;5124.418;-12834.295;264;-300;-306.9;73;73.0;-24;-23.9;28.9;0.0;
15/06/2019 12:48:07;100;0;204.67;17;-21.24;-7.81;124.4;10.70;69806;5124.418;-12834.295;264;-300;-305.0;73;72.9;-23;-23.0;28.9;0.0;
15/06/2019 12:48:27;100;0;201.46;17;-20.85;-6.94;127.0;10.60;69786;5124.418;-12834.295;264;-300;-305.0;73;73.0;-25;-24.8;28.9;0.0;
15/06/2019 12:48:47;100;0;201.81;17;-21.00;-8.22;129.5;10.60;69780;5124.418;-12834.295;264;-300;-305.0;73;72.9;-24;-23.9;28.9;0.0;
15/06/2019 12:49:07;100;0;205.51;17;-19.96;-7.38;132.2;10.60;69759;5124.418;-12834.295;264;-300;-306.9;73;73.0;-21;-21.2;28.9;0.0;
15/06/2019 12:49:27;100;0;208.38;17;-19.17;-6.08;134.5;10.50;69746;5124.418;-12834.295;264;-300;-305.0;73;73.0;-20;-19.9;28.9;0.0;
15/06/2019 12:49:47;100;0;209.50;17;-20.00;-5.38;136.5;10.50;69731;5124.418;-12834.295;264;-300;-306.9;73;73.0;-21;-21.7;28.9;0.0;
15/06/2019 12:50:07;100;0;209.46;17;-19.80;-6.82;138.6;10.50;69724;5124.418;-12834.295;264;-300;-306.9;73;73.0;-21;-22.1;28.9;0.0;
15/06/2019 12:50:27;100;0;211.71;17;-19.59;-6.79;140.8;10.50;69709;5124.418;-12834.295;264;-300;-305.0;73;73.0;-20;-19.9;28.9;0.0;
15/06/2019 12:50:47;100;0;208.79;17;-19.15;-5.55;143.1;10.40;69695;5124.418;-12834.295;264;-300;-306.9;73;73.0;-23;-23.0;28.9;0.0;
15/06/2019 12:51:07;100;0;204.69;17;-19.34;-7.64;145.3;10.40;69682;5124.418;-12834.295;264;-300;-305.0;73;72.9;-25;-24.8;28.9;0.0;
15/06/2019 12:51:27;100;0;202.92;17;-19.27;-8.44;147.5;10.40;69678;5124.418;-12834.295;264;-300;-306.9;73;73.0;-25;-25.3;28.9;0.0;
15/06/2019 12:51:47;100;0;203.72;17;-19.50;-8.34;149.7;10.30;69675;5124.418;-12834.295;264;-300;-305.0;73;73.0;-24;-23.9;28.9;0.0;
15/06/2019 12:52:07;100;0;204.91;17;-19.53;-7.54;151.7;10.30;69671;5124.418;-12834.295;264;-300;-306.9;73;73.0;-23;-23.0;28.9;0.0;
15/06/2019 12:52:27;100;0;210.55;17;-19.47;-6.99;153.9;10.30;69657;5124.418;-12834.295;264;-300;-305.0;73;73.0;-19;-19.0;28.9;0.0;
15/06/2019 12:52:47;100;0;212.27;17;-19.10;-5.03;155.9;10.30;69649;5124.418;-12834.295;264;-300;-306.9;73;73.0;-19;-18.1;29.0;0.0;
15/06/2019 12:53:07;100;0;211.31;17;-18.92;-5.06;158.1;10.20;69634;5124.418;-12834.295;264;-300;-306.9;73;73.0;-21;-21.2;28.9;0.0;
15/06/2019 12:53:27;100;0;214.15;17;-19.25;-6.68;160.1;10.20;69631;5124.418;-12834.295;264;-300;-308.9;73;73.0;-19;-18.5;28.9;0.0;
15/06/2019 12:53:47;100;0;217.07;17;-18.98;-4.92;162.1;10.10;69624;5124.418;-12834.295;264;-300;-306.9;73;73.0;-18;-18.1;28.9;44.5;
15/06/2019 12:54:07;100;0;218.82;17;-18.98;-4.98;164.1;10.10;69607;5124.418;-12834.295;264;-300;-306.9;73;73.0;-19;-19.4;28.9;42.4;
15/06/2019 12:54:27;100;0;220.37;17;-18.66;-5.78;166.2;10.10;69587;5124.418;-12834.295;264;-300;-306.9;73;72.9;-18;-18.1;28.9;40.4;
15/06/2019 12:54:47;100;0;221.35;17;-18.72;-4.63;168.3;10.10;69581;5124.418;-12834.295;264;-300;-306.9;73;73.0;-18;-17.1;28.9;38.2;
15/06/2019 12:55:07;100;0;221.36;17;-18.72;-4.60;170.3;10.00;69563;5124.418;-12834.295;264;-300;-306.9;73;73.0;-19;-19.0;28.9;36.1;
15/06/2019 12:55:27;100;0;221.07;17;-18.82;-5.71;172.3;10.00;69563;5124.418;-12834.295;264;-300;-306.9;73;73.0;-19;-19.4;28.9;34.0;
15/06/2019 12:55:47;100;0;220.86;17;-18.88;-5.63;174.4;9.90;69548;5124.418;-12834.295;264;-300;-305.0;73;72.9;-20;-19.9;28.9;32.0;
15/06/2019 12:56:07;100;0;221.65;17;-18.79;-5.95;176.4;9.90;69550;5124.418;-12834.295;264;-300;-306.9;73;73.0;-19;-19.0;28.9;29.9;
15/06/2019 12:56:27;100;0;221.58;17;-18.84;-5.01;178.4;9.90;69544;5124.418;-12834.295;264;-300;-306.9;73;73.0;-19;-18.1;28.9;27.8;
15/06/2019 12:56:47;100;0;221.13;17;-18.46;-5.00;180.6;9.90;69539;5124.418;-12834.295;264;-300;-306.9;73;72.9;-19;-18.1;28.9;25.6;
15/06/2019 12:57:07;100;0;218.48;17;-18.16;-5.38;182.6;9.80;69533;5124.418;-12834.295;264;-300;-308.9;73;73.0;-21;-21.2;28.9;23.6;
15/06/2019 12:57:27;100;0;221.87;17;-19.18;-6.29;184.6;9.80;69536;5124.418;-12834.295;264;-300;-306.9;73;72.9;-19;-18.5;28.9;21.6;
15/06/2019 12:57:47;100;0;218.58;17;-18.54;-5.20;186.7;9.80;69530;5124.418;-12834.295;264;-300;-305.0;73;73.0;-21;-21.7;28.9;19.5;
15/06/2019 12:58:07;118;0;220.49;17;-18.54;-6.87;188.8;9.80;69523;5124.418;-12834.295;264;150;-293.1;57;56.6;0;0.9;28.9;17.4;
15/06/2019 12:58:17;118;0;160.97;17;1.98;4.24;189.5;9.70;69433;5124.418;-12834.295;264;150;-134.7;57;57.1;0;0.9;28.3;17.4;
15/06/2019 12:58:27;118;0;163.93;17;20.02;3.85;189.2;9.70;69232;5124.418;-12834.295;264;150;19.8;57;57.1;0;0.9;28.3;-1.0;
15/06/2019 12:58:37;118;0;162.74;17;23.73;3.78;188.5;9.70;68978;5124.418;-12834.295;264;150;154.5;57;57.1;0;0.9;28.3;-1.0;
15/06/2019 12:58:47;118;0;210.13;17;24.31;4.43;187.2;9.70;68773;5124.418;-12834.295;264;150;158.4;57;57.1;0;0.9;28.9;-1.0;
15/06/2019 12:58:57;118;0;210.38;17;26.78;4.13;185.6;9.70;68778;5124.418;-12834.295;264;150;154.5;57;57.1;0;0.9;28.9;-1.0;
15/06/2019 12:59:07;117;0;211.67;17;27.51;3.85;183.7;9.70;68769;5124.418;-12834.295;264;150;156.4;57;57.1;0;0.9;28.9;-1.0;
15/06/2019 12:59:27;117;0;211.71;17;28.06;3.72;179.4;9.70;68764;5124.418;-12834.295;264;150;156.4;57;57.1;25;24.8;28.9;-1.0;
15/06/2019 12:59:47;117;0;221.23;17;27.58;15.91;174.4;9.60;68773;5124.418;-12834.295;264;150;156.4;57;57.1;18;18.1;28.9;-1.0;
15/06/2019 13:00:07;117;0;224.39;17;27.59;11.70;170.3;9.60;68753;5124.418;-12834.295;264;150;156.4;57;57.1;17;17.1;28.9;-1.0;
15/06/2019 13:00:27;117;0;226.96;17;27.91;10.99;165.7;9.60;68763;5124.418;-12834.295;264;150;154.5;57;57.1;17;16.2;28.9;-1.0;
15/06/2019 13:00:47;117;0;226.55;17;27.96;11.07;161.3;9.50;68755;5124.418;-12834.295;264;150;154.5;57;57.1;18;18.5;28.9;-1.0;
15/06/2019 13:01:07;117;0;231.69;17;27.46;12.43;156.7;9.50;68757;5124.418;-12834.295;264;150;158.4;57;57.1;15;14.9;28.9;-1.0;
15/06/2019 13:01:27;117;0;230.28;17;27.47;10.32;152.3;9.50;68780;5124.418;-12834.295;264;150;156.4;57;57.1;17;17.1;28.9;-1.0;
15/06/2019 13:01:47;117;0;233.42;17;27.45;12.07;147.9;9.50;68778;5124.418;-12834.295;264;150;156.4;57;57.1;16;15.8;28.9;-1.0;
15/06/2019 13:02:07;117;0;239.51;17;26.66;10.36;143.5;9.40;68786;5124.418;-12834.295;264;150;156.4;57;57.1;13;12.6;28.9;-1.0;
15/06/2019 13:02:27;117;0;243.23;17;26.75;9.17;139.3;9.40;68792;5124.418;-12834.295;264;150;156.4;57;57.1;12;12.2;28.9;-1.0;
15/06/2019 13:02:47;117;0;247.29;17;26.27;8.56;135.2;9.40;68778;5124.418;-12834.295;264;150;156.4;57;57.1;12;12.2;28.9;-1.0;
15/06/2019 13:03:07;117;0;249.12;17;27.03;9.13;131.0;9.40;68792;5124.418;-12834.295;264;150;158.4;57;57.1;12;12.2;28.9;-1.0;
15/06/2019 13:03:27;117;0;259.04;17;26.82;8.94;126.5;9.40;68797;5124.418;-12834.295;264;150;156.4;57;56.9;7;7.2;28.9;-1.0;
15/06/2019 13:03:47;117;0;255.86;17;25.36;6.15;122.2;9.40;68808;5124.418;-12834.295;264;150;156.4;57;57.1;11;10.8;28.9;-1.0;
15/06/2019 13:04:07;117;0;250.20;17;24.39;8.70;118.3;9.40;68843;5124.418;-12834.295;264;150;156.4;57;56.9;14;14.4;28.9;-1.0;
15/06/2019 13:04:27;117;0;255.05;17;23.18;10.63;114.7;9.40;68852;5124.418;-12834.295;264;150;154.5;57;57.1;10;9.5;28.9;-1.0;
15/06/2019 13:04:47;117;0;262.77;17;23.19;7.40;111.2;9.40;68863;5124.418;-12834.295;264;150;156.4;57;57.1;6;5.9;28.9;-1.0;
15/06/2019 13:05:07;117;0;255.24;17;23.29;6.03;107.5;9.40;68889;5124.418;-12834.295;264;150;156.4;57;57.1;12;12.2;28.9;-1.0;
15/06/2019 13:05:27;117;0;253.73;17;22.96;9.21;103.9;9.40;68895;5124.418;-12834.295;264;150;156.4;57;57.1;12;12.6;28.9;-1.0;
15/06/2019 13:05:47;117;0;256.69;17;21.26;9.52;100.6;9.40;68895;5124.418;-12834.295;264;150;156.4;57;57.1;9;9.0;28.9;-1.0;
15/06/2019 13:06:07;117;0;258.52;17;21.27;7.27;97.6;9.40;68908;5124.418;-12834.295;264;150;156.4;57;57.1;8;8.1;28.9;-1.0;
15/06/2019 13:06:27;117;0;257.05;17;21.45;6.83;94.8;9.40;68906;5124.418;-12834.295;264;150;156.4;57;57.1;9;9.0;28.9;-1.0;
15/06/2019 13:06:47;117;0;257.57;17;21.60;7.95;91.9;9.40;68919;5124.418;-12834.295;264;150;156.4;57;57.1;8;7.7;28.9;-1.0;
15/06/2019 13:07:07;117;0;255.88;17;21.51;6.75;89.0;9.40;68927;5124.418;-12834.295;264;150;156.4;57;57.1;9;9.0;28.9;-1.0;
15/06/2019 13:07:27;117;0;262.33;17;21.22;7.98;86.1;9.40;68934;5124.418;-12834.295;264;150;156.4;57;57.1;4;4.1;28.9;-1.0;
15/06/2019 13:07:47;117;0;270.48;17;21.18;5.20;83.3;9.40;68938;5124.418;-12834.295;264;150;156.4;57;56.9;0;-0.5;28.9;-1.0;
15/06/2019 13:08:07;117;0;277.75;17;20.67;2.56;80.5;9.40;68932;5124.418;-12834.295;264;150;156.4;57;57.1;-1;-0.9;28.9;-1.0;
15/06/2019 13:08:27;117;0;279.18;17;20.64;2.68;78.0;9.40;68954;5124.418;-12834.295;264;150;156.4;57;57.1;-1;-0.9;28.9;-1.0;
15/06/2019 13:08:47;117;0;280.33;17;20.42;2.46;75.6;9.40;68960;5124.418;-12834.295;264;150;156.4;57;57.1;0;0.0;28.9;-1.0;
15/06/2019 13:09:07;117;0;271.93;17;20.07;3.46;73.3;9.40;68971;5124.418;-12834.295;264;150;156.4;57;57.1;4;4.5;28.9;-1.0;
15/06/2019 13:09:27;117;0;271.12;17;19.93;5.80;71.2;9.40;68974;5124.418;-12834.295;264;150;156.4;57;57.1;2;1.4;28.9;-1.0;
15/06/2019 13:09:47;117;0;263.65;17;19.35;3.17;69.0;9.50;68978;5124.418;-12834.295;264;150;156.4;57;57.1;6;5.9;28.9;-1.0;
15/06/2019 13:10:07;117;0;260.89;17;19.77;6.57;66.9;9.50;68990;5124.418;-12834.295;264;150;156.4;57;57.1;5;5.0;28.9;-1.0;
15/06/2019 13:10:27;117;0;256.26;17;19.99;5.38;64.6;9.50;68989;5124.418;-12834.295;264;150;156.4;57;57.1;6;5.9;28.9;-1.0;
15/06/2019 13:10:47;117;0;258.05;17;19.48;6.40;62.4;9.50;69002;5124.418;-12834.295;264;150;156.4;57;57.1;3;3.2;28.9;-1.0;
15/06/2019 13:11:07;117;0;260.10;17;19.55;4.49;60.4;9.50;69004;5124.418;-12834.295;264;150;156.4;57;57.1;0;0.0;28.9;-1.0;
15/06/2019 13:11:27;117;0;258.73;17;19.76;2.90;58.1;9.50;69008;5124.418;-12834.295;264;150;156.4;57;57.1;1;0.9;28.9;-1.0;
15/06/2019 13:11:47;117;0;258.75;17;19.56;3.67;55.9;9.50;69016;5124.418;-12834.295;264;150;158.4;57;57.1;1;0.9;28.9;-1.0;
15/06/2019 13:12:07;117;0;257.81;17;19.54;3.75;53.8;9.60;69025;5124.418;-12834.295;264;150;156.4;57;57.1;1;1.4;28.9;-1.0;
15/06/2019 13:12:27;117;0;255.72;17;19.29;3.75;51.7;9.60;69033;5124.418;-12834.295;264;150;154.5;57;57.1;1;1.4;28.9;-1.0;
15/06/2019 13:12:47;117;0;256.06;17;18.99;3.78;49.6;9.60;69046;5124.418;-12834.295;264;150;156.4;57;56.9;0;0.0;29.0;-1.0;
15/06/2019 13:13:07;117;0;256.58;17;18.94;2.93;47.6;9.60;69051;5124.418;-12834.295;264;150;158.4;57;57.1;0;-0.5;28.9;-1.0;
15/06/2019 13:13:27;117;0;252.55;17;19.22;2.99;45.7;9.60;69051;5124.418;-12834.295;264;150;156.4;57;57.1;1;0.9;28.9;-1.0;
15/06/2019 13:13:47;117;0;249.10;17;19.00;3.75;43.6;9.60;69063;5124.418;-12834.295;264;150;156.4;57;57.1;2;1.8;28.9;-1.0;
15/06/2019 13:14:07;117;0;251.29;17;18.74;4.57;41.6;9.60;69074;5124.418;-12834.295;264;150;158.4;57;57.1;0;-0.5;28.9;-1.0;
15/06/2019 13:14:27;117;0;252.95;17;18.66;2.79;39.7;9.70;69076;5124.418;-12834.295;264;150;156.4;57;57.1;0;-0.9;28.9;-1.0;
15/06/2019 13:14:47;117;0;250.26;17;18.68;2.79;37.6;9.70;69097;5124.418;-12834.295;264;150;156.4;57;57.1;0;-0.9;28.9;-1.0;
15/06/2019 13:15:07;117;0;249.53;17;18.67;2.80;35.4;9.70;69111;5124.418;-12834.295;264;150;156.4;57;57.1;1;0.9;28.9;-1.0;
15/06/2019 13:15:27;117;0;250.50;17;18.58;3.95;33.2;9.70;69124;5124.418;-12834.295;264;150;156.4;57;57.1;0;-0.5;28.9;-1.0;
15/06/2019 13:15:47;117;0;250.34;17;18.63;2.80;31.0;9.70;69128;5124.418;-12834.295;264;150;156.4;57;57.1;0;-0.9;28.9;-1.0;
15/06/2019 13:16:08;117;0;251.64;17;17.17;2.77;28.9;9.80;69165;5124.418;-12834.295;264;150;156.4;57;57.1;0;-0.9;28.9;-1.0;
15/06/2019 13:16:28;117;0;250.33;17;16.50;2.89;27.1;9.80;69186;5124.418;-12834.295;264;150;156.4;57;57.1;0;-0.5;28.9;-1.0;
15/06/2019 13:16:48;117;0;249.91;17;16.59;2.81;25.6;9.80;69226;5124.418;-12834.295;264;150;156.4;57;57.1;0;-0.9;28.9;-1.0;
15/06/2019 13:17:08;117;0;252.67;17;16.49;2.85;24.1;9.90;69240;5124.418;-12834.295;264;150;158.4;57;57.1;-1;-0.9;28.9;-1.0;
15/06/2019 13:17:28;117;0;253.07;17;16.57;2.83;22.5;9.90;69262;5124.418;-12834.295;264;150;156.4;57;57.1;-2;-1.8;28.9;-1.0;
15/06/2019 13:17:48;117;0;254.57;17;16.77;2.31;20.9;9.90;69276;5124.418;-12834.295;264;150;156.4;57;57.1;-2;-1.8;28.9;-1.0;
15/06/2019 13:18:08;117;0;255.94;17;16.55;2.33;19.4;10.00;69293;5124.418;-12834.295;264;150;156.4;57;57.1;-3;-3.6;28.9;-1.0;
15/06/2019 13:18:28;117;0;255.89;17;16.37;1.28;17.7;10.00;69301;5124.418;-12834.295;264;150;156.4;57;57.1;-3;-4.1;28.9;-1.0;
15/06/2019 13:18:48;117;0;259.26;17;16.48;1.27;16.0;10.00;69319;5124.418;-12834.295;264;150;156.4;57;57.1;-5;-5.0;28.9;-1.0;
15/06/2019 13:19:08;117;0;259.32;17;15.94;0.58;14.2;10.10;69352;5124.418;-12834.295;264;150;156.4;57;57.1;-5;-5.4;28.9;-1.0;
15/06/2019 13:19:28;117;0;259.74;17;15.77;0.55;12.6;10.10;69383;5124.418;-12834.295;264;150;156.4;57;57.1;-5;-5.9;28.9;-1.0;
15/06/2019 13:19:48;117;0;259.12;17;15.98;0.67;11.1;10.20;69404;5124.418;-12834.295;264;150;156.4;57;57.1;-5;-5.9;28.9;-1.0;
