Timestamp;NavState;SecurityLevel;Heading;Declination;Pitch;Roll;Depth;Temperature;Pa;Lat;Lon;DesiredH;BallastCmd;BallastPos;LinCmd;LinPos;AngCmd;AngPos;Voltage;Altitude;
14/06/2019 23:18:28;117;0;207.59;17;16.17;2.51;14.5;9.60;69215;5130.310;-12824.790;227;150;156.4;57;57.1;-1;-1.8;29.0;-1.0;
14/06/2019 23:18:38;110;0;207.35;17;16.43;2.42;13.7;9.60;69227;5130.310;-12824.790;227;-300;27.7;73;73.3;0;0.9;29.1;-1.0;
14/06/2019 23:18:48;110;0;213.27;17;-9.03;4.30;13.1;9.70;69519;5130.310;-12824.790;227;-300;-148.5;73;72.9;0;0.9;29.0;-1.0;
14/06/2019 23:18:58;110;0;209.78;17;-22.78;4.24;13.7;9.70;69756;5130.310;-12824.790;227;-300;-303.0;73;72.9;0;0.9;29.0;-1.0;
14/06/2019 23:19:09;110;0;208.11;17;-26.40;3.78;14.9;9.70;70005;5130.310;-12824.790;227;-300;-303.0;73;72.9;0;0.9;29.0;-1.0;
14/06/2019 23:19:19;100;0;206.18;17;-27.40;3.88;16.7;9.70;69992;5130.310;-12824.790;227;-300;-303.0;73;72.9;0;0.9;29.0;-1.0;
14/06/2019 23:19:39;100;0;194.54;17;-26.46;3.86;20.9;9.80;69995;5130.310;-12824.790;227;-300;-303.0;73;72.9;-9;-9.0;29.0;0.0;
14/06/2019 23:19:59;100;0;181.94;17;-25.64;-0.77;25.6;9.80;69984;5130.310;-12824.790;227;-300;-303.0;73;72.9;-14;-14.0;29.1;0.0;
14/06/2019 23:20:19;100;0;176.22;17;-24.86;-3.29;30.0;9.80;69932;5130.310;-12824.790;227;-300;-303.0;73;73.0;-14;-14.4;29.0;0.0;
14/06/2019 23:20:39;100;0;178.04;17;-24.50;-3.15;33.9;9.90;69914;5130.310;-12824.790;227;-300;-303.0;73;72.9;-11;-10.4;29.0;0.0;
14/06/2019 23:20:59;100;0;171.20;17;-25.40;-0.96;37.7;9.90;69887;5130.310;-12824.790;227;-300;-301.0;73;72.9;-14;-14.0;29.1;0.0;
14/06/2019 23:21:19;100;0;166.38;17;-24.73;-3.05;41.5;9.90;69859;5130.310;-12824.790;227;-300;-303.0;73;72.9;-16;-15.8;29.0;0.0;
14/06/2019 23:21:39;100;0;165.38;17;-24.20;-3.87;45.5;9.90;69850;5130.310;-12824.790;227;-300;-305.0;73;72.9;-15;-14.9;29.0;0.0;
14/06/2019 23:21:59;100;0;162.96;17;-24.75;-3.03;49.1;9.90;69827;5130.310;-12824.790;227;-300;-303.0;73;72.9;-18;-18.1;29.0;0.0;
14/06/2019 23:22:19;100;0;161.80;17;-24.26;-4.90;52.9;9.80;69808;5130.310;-12824.790;227;-300;-303.0;73;72.9;-19;-19.0;29.0;0.0;
14/06/2019 23:22:39;100;0;159.04;17;-24.22;-5.55;56.5;9.80;69803;5130.310;-12824.790;227;-300;-303.0;73;72.9;-21;-21.2;29.1;0.0;
14/06/2019 23:22:59;100;0;152.91;17;-24.81;-6.53;60.0;9.80;69783;5130.310;-12824.790;227;-300;-303.0;73;72.9;-27;-27.1;29.0;0.0;
14/06/2019 23:23:19;100;0;154.51;17;-23.96;-9.22;63.7;9.80;69776;5130.310;-12824.790;227;-300;-303.0;73;72.9;-26;-26.2;29.0;0.0;
14/06/2019 23:23:39;100;0;154.25;17;-24.12;-8.34;67.3;9.80;69764;5130.310;-12824.790;227;-300;-303.0;73;72.9;-26;-25.7;29.0;0.0;
14/06/2019 23:23:59;100;0;154.67;17;-23.55;-8.42;70.9;9.80;69754;5130.310;-12824.790;227;-300;-303.0;73;72.9;-26;-25.7;29.0;0.0;
14/06/2019 23:24:19;100;0;157.40;17;-23.38;-8.33;74.4;9.80;69745;5130.310;-12824.790;227;-300;-303.0;73;72.9;-24;-23.9;29.0;0.0;
14/06/2019 23:24:39;100;0;159.20;17;-23.15;-7.23;77.9;9.80;69745;5130.310;-12824.790;227;-300;-303.0;73;72.9;-23;-23.0;29.0;0.0;
14/06/2019 23:24:59;100;0;150.61;17;-23.01;-6.69;81.2;9.80;69737;5130.310;-12824.790;227;-300;-303.0;73;72.9;-29;-29.3;29.0;0.0;
14/06/2019 23:25:19;100;0;146.31;17;-23.41;-10.43;84.5;9.80;69728;5130.310;-12824.790;227;-300;-303.0;73;72.9;-30;-29.8;29.0;0.0;
14/06/2019 23:25:39;100;0;144.49;17;-22.73;-10.33;87.6;9.80;69726;5130.310;-12824.790;227;-300;-303.0;73;72.9;-30;-29.8;29.0;0.0;
14/06/2019 23:25:59;100;0;138.26;17;-22.47;-10.29;90.9;9.80;69712;5130.310;-12824.790;227;-300;-301.0;73;72.9;-32;-32.5;29.0;0.0;
14/06/2019 23:26:19;100;0;140.77;17;-21.86;-11.76;93.9;9.80;69712;5130.310;-12824.790;227;-300;-305.0;73;72.9;-29;-28.9;29.0;0.0;
14/06/2019 23:26:39;100;0;149.40;17;-21.17;-9.63;96.9;9.80;69704;5130.310;-12824.790;227;-300;-303.0;73;72.9;-24;-23.5;29.0;0.0;
14/06/2019 23:26:59;100;0;156.63;17;-21.42;-7.24;99.7;9.80;69696;5130.310;-12824.790;227;-300;-303.0;73;72.9;-21;-20.8;29.1;0.0;
14/06/2019 23:27:19;100;0;161.05;17;-20.80;-5.96;102.4;9.70;69694;5130.310;-12824.790;227;-300;-303.0;73;72.9;-20;-19.9;29.0;0.0;
14/06/2019 23:27:39;100;0;159.13;17;-21.21;-5.28;105.0;9.70;69682;5130.310;-12824.790;227;-300;-303.0;73;72.9;-23;-23.0;29.1;0.0;
14/06/2019 23:27:59;100;0;163.56;17;-20.72;-7.42;107.6;9.70;69661;5130.310;-12824.790;227;-300;-303.0;73;72.9;-22;-22.1;29.1;0.0;
14/06/2019 23:28:19;100;0;160.05;17;-20.47;-6.54;110.3;9.70;69656;5130.310;-12824.790;227;-300;-305.0;73;72.9;-24;-23.9;29.0;0.0;
14/06/2019 23:28:39;100;0;160.96;17;-20.47;-7.95;112.8;9.70;69651;5130.310;-12824.790;227;-300;-303.0;73;72.9;-24;-24.4;29.1;0.0;
14/06/2019 23:28:59;100;0;159.68;17;-20.26;-7.98;115.5;9.70;69646;5130.310;-12824.790;227;-300;-301.0;73;72.9;-25;-25.3;29.0;0.0;
14/06/2019 23:29:19;100;0;155.79;17;-20.18;-8.46;118.1;9.70;69631;5130.310;-12824.790;227;-300;-303.0;73;72.9;-27;-27.5;29.0;0.0;
14/06/2019 23:29:39;100;0;153.67;17;-20.30;-9.60;120.6;9.60;69632;5130.310;-12824.790;227;-300;-305.0;73;72.9;-27;-27.5;29.0;0.0;
14/06/2019 23:29:59;100;0;152.42;17;-20.03;-9.58;123.0;9.60;69618;5130.310;-12824.790;227;-300;-303.0;73;72.9;-27;-28.0;29.1;0.0;
14/06/2019 23:30:19;100;0;152.30;17;-20.23;-9.64;125.4;9.60;69610;5130.310;-12824.790;227;-300;-303.0;73;72.9;-26;-25.7;29.0;0.0;
14/06/2019 23:30:39;100;0;152.70;17;-19.96;-8.45;127.8;9.60;69597;5130.310;-12824.790;227;-300;-303.0;73;72.9;-26;-25.3;29.1;0.0;
14/06/2019 23:30:59;100;0;156.60;17;-20.01;-8.57;130.1;9.60;69600;5130.310;-12824.790;227;-300;-303.0;73;72.9;-24;-23.9;29.0;0.0;
14/06/2019 23:31:19;100;0;160.12;17;-19.20;-7.59;132.3;9.60;69581;5130.310;-12824.790;227;-300;-303.0;73;72.9;-22;-22.1;29.1;0.0;
14/06/2019 23:31:39;100;0;158.11;17;-19.29;-6.66;134.5;9.50;69563;5130.310;-12824.790;227;-300;-303.0;73;72.9;-24;-23.9;29.1;0.0;
14/06/2019 23:31:59;100;0;157.89;17;-19.14;-8.08;136.7;9.50;69561;5130.310;-12824.790;227;-300;-305.0;73;72.9;-25;-24.8;29.0;0.0;
14/06/2019 23:32:19;100;0;159.34;17;-19.24;-8.45;138.9;9.50;69549;5130.310;-12824.790;227;-300;-303.0;73;72.9;-24;-23.9;29.1;0.0;
14/06/2019 23:32:39;100;0;157.94;17;-19.28;-7.41;141.1;9.50;69542;5130.310;-12824.790;227;-300;-303.0;73;72.9;-25;-24.8;29.0;0.0;
14/06/2019 23:32:59;100;0;157.99;17;-18.96;-8.52;143.3;9.40;69535;5130.310;-12824.790;227;-300;-303.0;73;72.9;-25;-25.3;29.1;0.0;
14/06/2019 23:33:19;100;0;158.52;17;-19.00;-8.52;145.4;9.40;69505;5130.310;-12824.790;227;-300;-303.0;73;72.9;-24;-23.5;29.1;43.2;
14/06/2019 23:33:39;100;0;159.44;17;-18.79;-7.34;147.5;9.40;69509;5130.310;-12824.790;227;-300;-303.0;73;72.9;-24;-23.0;29.0;40.9;
14/06/2019 23:33:59;100;0;160.58;17;-18.92;-7.36;149.6;9.40;69504;5130.310;-12824.790;227;-300;-305.0;73;72.9;-24;-23.0;29.0;38.9;
14/06/2019 23:34:19;100;0;160.67;17;-18.94;-7.34;151.6;9.40;69505;5130.310;-12824.790;227;-300;-301.0;73;72.9;-24;-23.0;29.1;36.7;
14/06/2019 23:34:39;100;0;163.47;17;-19.12;-7.44;153.7;9.30;69488;5130.310;-12824.790;227;-300;-303.0;73;72.9;-22;-21.7;29.1;34.5;
14/06/2019 23:34:59;100;0;165.20;17;-18.99;-6.52;155.7;9.30;69481;5130.310;-12824.790;227;-300;-305.0;73;72.9;-22;-21.2;29.0;32.4;
14/06/2019 23:35:19;100;0;166.61;17;-18.84;-6.45;157.8;9.30;69474;5130.310;-12824.790;227;-300;-301.0;73;72.9;-22;-21.2;29.1;30.2;
14/06/2019 23:35:39;100;0;167.63;17;-18.82;-6.47;159.9;9.20;69464;5130.310;-12824.790;227;-300;-301.0;73;72.9;-22;-21.2;29.0;28.0;
14/06/2019 23:35:59;100;0;168.38;17;-18.65;-6.56;162.1;9.20;69465;5130.310;-12824.790;227;-300;-303.0;73;72.9;-22;-21.2;29.0;25.9;
14/06/2019 23:36:19;100;0;168.83;17;-18.57;-6.58;164.3;9.20;69460;5130.310;-12824.790;227;-300;-303.0;73;72.9;-22;-21.2;29.1;23.6;
14/06/2019 23:36:39;100;0;169.38;17;-18.79;-6.54;166.3;9.20;69458;5130.310;-12824.790;227;-300;-303.0;73;72.9;-22;-21.2;29.0;21.5;
14/06/2019 23:36:59;100;0;170.56;17;-18.46;-6.49;168.4;9.20;69459;5130.310;-12824.790;227;-300;-305.0;73;72.9;-22;-21.2;29.1;19.3;
14/06/2019 23:37:19;118;0;170.27;17;-18.99;-6.57;170.4;9.20;69454;5130.310;-12824.790;227;150;-291.1;57;56.8;0;0.5;29.0;17.2;
14/06/2019 23:37:29;118;0;135.90;17;2.19;3.94;171.2;9.10;69371;5130.310;-12824.790;227;150;-132.7;57;57.1;0;0.9;28.5;17.2;
14/06/2019 23:37:39;118;0;136.48;17;19.24;3.59;170.8;9.10;69153;5130.310;-12824.790;227;150;23.8;57;57.2;0;0.9;28.5;-1.0;
14/06/2019 23:37:49;118;0;136.78;17;23.10;3.72;170.1;9.10;68907;5130.310;-12824.790;227;150;156.4;57;57.2;0;0.9;28.5;-1.0;
14/06/2019 23:37:59;118;0;175.99;17;24.14;4.06;168.9;9.10;68712;5130.310;-12824.790;227;150;156.4;57;57.2;0;0.9;29.0;-1.0;
14/06/2019 23:38:09;118;0;176.96;17;26.39;3.70;167.3;9.10;68713;5130.310;-12824.790;227;150;156.4;57;57.2;0;0.9;29.0;-1.0;
14/06/2019 23:38:19;117;0;177.64;17;27.05;3.68;165.4;9.10;68708;5130.310;-12824.790;227;150;156.4;57;57.2;0;0.9;29.0;-1.0;
14/06/2019 23:38:39;117;0;176.57;17;27.43;3.91;161.5;9.10;68715;5130.310;-12824.790;227;150;156.4;57;57.2;19;19.0;29.0;-1.0;
14/06/2019 23:38:59;117;0;183.11;17;27.32;12.85;156.7;9.10;68704;5130.310;-12824.790;227;150;156.4;57;57.1;16;15.8;29.0;-1.0;
14/06/2019 23:39:19;117;0;185.47;17;27.62;10.57;152.4;9.10;68692;5130.310;-12824.790;227;150;156.4;57;57.2;17;17.6;29.0;-1.0;
14/06/2019 23:39:39;117;0;190.04;17;27.58;12.09;148.0;9.00;68684;5130.310;-12824.790;227;150;156.4;57;57.1;15;14.9;29.0;-1.0;
14/06/2019 23:39:59;117;0;193.14;17;27.45;10.04;143.7;9.00;68696;5130.310;-12824.790;227;150;156.4;57;57.1;15;14.0;29.0;-1.0;
14/06/2019 23:40:19;117;0;200.12;17;26.75;10.05;139.6;9.00;68701;5130.310;-12824.790;227;150;156.4;57;57.1;12;11.7;29.0;-1.0;
14/06/2019 23:40:39;117;0;203.24;17;27.21;8.55;135.7;9.00;68697;5130.310;-12824.790;227;150;156.4;57;57.2;13;13.5;29.0;-1.0;
14/06/2019 23:40:59;117;0;208.87;17;26.55;9.73;131.7;9.00;68706;5130.310;-12824.790;227;150;156.4;57;57.1;11;10.8;29.1;-1.0;
14/06/2019 23:41:19;117;0;208.52;17;26.97;8.23;127.8;8.90;68705;5130.310;-12824.790;227;150;156.4;57;57.1;13;13.1;29.0;-1.0;
14/06/2019 23:41:39;117;0;214.84;17;26.02;9.99;123.9;8.90;68723;5130.310;-12824.790;227;150;158.4;57;57.2;13;14.0;29.0;-1.0;
14/06/2019 23:41:59;117;0;221.90;17;25.05;9.93;120.1;8.90;68737;5130.310;-12824.790;227;150;156.4;57;57.1;8;8.1;29.0;-1.0;
14/06/2019 23:42:19;117;0;225.08;17;24.93;6.70;116.6;8.90;68754;5130.310;-12824.790;227;150;156.4;57;57.1;7;7.2;29.1;-1.0;
14/06/2019 23:42:39;117;0;221.22;17;25.18;6.46;113.0;8.90;68760;5130.310;-12824.790;227;150;156.4;57;57.1;10;10.4;29.1;-1.0;
14/06/2019 23:42:59;117;0;225.91;17;24.54;8.44;109.5;8.90;68763;5130.310;-12824.790;227;150;156.4;57;57.1;8;7.7;29.0;-1.0;
14/06/2019 23:43:19;117;0;223.04;17;24.89;6.82;105.9;8.90;68774;5130.310;-12824.790;227;150;156.4;57;57.2;9;9.0;29.0;-1.0;
14/06/2019 23:43:39;117;0;225.90;17;24.35;8.18;102.2;8.90;68785;5130.310;-12824.790;227;150;156.4;57;57.1;7;7.2;29.0;-1.0;
14/06/2019 23:43:59;117;0;228.40;17;24.47;6.39;98.5;8.90;68791;5130.310;-12824.790;227;150;158.4;57;57.1;5;5.0;29.1;-1.0;
14/06/2019 23:44:19;117;0;226.78;17;24.29;5.39;94.7;8.90;68803;5130.310;-12824.790;227;150;156.4;57;57.1;7;7.2;29.0;-1.0;
14/06/2019 23:44:39;117;0;222.59;17;23.54;7.33;90.9;8.90;68809;5130.310;-12824.790;227;150;156.4;57;57.2;9;9.0;29.0;-1.0;
14/06/2019 23:44:59;117;0;225.47;17;22.45;7.79;87.6;8.90;68814;5130.310;-12824.790;227;150;158.4;57;57.1;5;5.0;29.0;-1.0;
14/06/2019 23:45:19;117;0;224.18;17;22.24;5.28;84.5;8.90;68823;5130.310;-12824.790;227;150;156.4;57;57.1;6;5.9;29.0;-1.0;
14/06/2019 23:45:39;117;0;227.17;17;22.19;6.65;81.6;8.90;68823;5130.310;-12824.790;227;150;158.4;57;57.2;3;3.2;29.1;-1.0;
14/06/2019 23:45:59;117;0;227.57;17;21.31;4.46;78.9;8.90;68830;5130.310;-12824.790;227;150;158.4;57;57.2;3;2.7;29.0;-1.0;
14/06/2019 23:46:19;117;0;232.08;17;21.55;4.53;76.3;8.90;68846;5130.310;-12824.790;227;150;156.4;57;57.2;0;0.0;29.0;-1.0;
14/06/2019 23:46:39;117;0;225.02;17;21.75;2.92;73.7;9.00;68856;5130.310;-12824.790;227;150;156.4;57;57.2;4;4.1;29.0;-1.0;
14/06/2019 23:46:59;117;0;223.03;17;21.17;5.54;71.0;9.00;68849;5130.310;-12824.790;227;150;156.4;57;57.2;4;4.5;29.0;-1.0;
14/06/2019 23:47:19;117;0;224.35;17;20.69;5.40;68.3;8.90;68841;5130.310;-12824.790;227;150;158.4;57;57.1;2;1.8;29.0;-1.0;
14/06/2019 23:47:39;117;0;222.57;17;20.34;3.74;65.8;9.00;68863;5130.310;-12824.790;227;150;156.4;57;57.1;3;3.2;29.0;-1.0;
14/06/2019 23:47:59;117;0;220.78;17;20.38;5.12;63.4;9.00;68863;5130.310;-12824.790;227;150;158.4;57;57.1;3;4.1;29.0;-1.0;
14/06/2019 23:48:19;117;0;221.17;17;20.06;5.13;60.9;9.00;68869;5130.310;-12824.790;227;150;154.5;57;57.1;2;1.8;29.0;-1.0;
14/06/2019 23:48:39;117;0;218.91;17;20.02;3.67;58.4;9.00;68875;5130.310;-12824.790;227;150;156.4;57;57.1;3;3.6;29.0;-1.0;
14/06/2019 23:48:59;117;0;216.95;17;19.83;5.20;56.1;9.00;68884;5130.310;-12824.790;227;150;156.4;57;57.1;3;4.1;29.0;-1.0;
14/06/2019 23:49:19;117;0;221.38;17;19.30;5.19;53.7;9.00;68885;5130.310;-12824.790;227;150;158.4;57;57.1;0;0.0;29.0;-1.0;
14/06/2019 23:49:39;117;0;222.86;17;19.47;2.83;51.4;9.00;68886;5130.310;-12824.790;227;150;156.4;57;57.2;0;-0.5;29.0;-1.0;
14/06/2019 23:49:59;117;0;218.81;17;19.34;2.85;49.2;9.00;68902;5130.310;-12824.790;227;150;156.4;57;57.1;1;1.4;29.0;-1.0;
14/06/2019 23:50:19;117;0;216.63;17;19.34;4.23;47.1;9.00;68905;5130.310;-12824.790;227;150;156.4;57;57.2;2;1.8;29.0;-1.0;
14/06/2019 23:50:39;117;0;218.24;17;18.78;4.10;45.0;9.10;68916;5130.310;-12824.790;227;150;158.4;57;57.2;0;0.0;29.0;-1.0;
14/06/2019 23:50:59;117;0;216.94;17;18.79;2.96;42.9;9.10;68925;5130.310;-12824.790;227;150;156.4;57;57.2;0;-0.5;29.0;-1.0;
14/06/2019 23:51:19;117;0;214.53;17;18.27;2.90;41.0;9.10;68936;5130.310;-12824.790;227;150;156.4;57;57.1;1;1.4;29.0;-1.0;
14/06/2019 23:51:39;117;0;214.93;17;18.14;4.24;39.1;9.10;68948;5130.310;-12824.790;227;150;158.4;57;57.1;0;0.0;29.1;-1.0;
14/06/2019 23:51:59;117;0;217.10;17;18.46;2.98;37.2;9.10;68972;5130.310;-12824.790;227;150;156.4;57;57.1;-1;-0.9;29.1;-1.0;
14/06/2019 23:52:19;117;0;217.53;17;18.24;2.37;35.3;9.10;68974;5130.310;-12824.790;227;150;156.4;57;57.2;-1;-1.4;29.0;-1.0;
14/06/2019 23:52:40;117;0;215.26;17;18.56;2.56;33.1;9.20;68978;5130.310;-12824.790;227;150;156.4;57;57.1;0;0.0;29.0;-1.0;
14/06/2019 23:53:00;117;0;213.52;17;17.81;3.58;31.0;9.20;68994;5130.310;-12824.790;227;150;158.4;57;57.2;0;0.9;29.0;-1.0;
14/06/2019 23:53:20;117;0;212.06;17;17.54;3.60;29.2;9.20;68995;5130.310;-12824.790;227;150;156.4;57;57.1;0;0.9;29.0;-1.0;
14/06/2019 23:53:40;117;0;212.70;17;17.10;3.61;27.3;9.20;69017;5130.310;-12824.790;227;150;156.4;57;57.2;0;0.9;29.0;-1.0;
14/06/2019 23:54:00;117;0;211.34;17;16.99;3.65;25.7;9.20;69032;5130.310;-12824.790;227;150;156.4;57;57.1;0;0.9;29.0;-1.0;
14/06/2019 23:54:20;117;0;216.04;17;16.59;3.79;24.0;9.30;69063;5130.310;-12824.790;227;150;158.4;57;57.1;-3;-3.6;29.0;-1.0;
14/06/2019 23:54:40;117;0;216.10;17;16.72;1.32;22.4;9.30;69086;5130.310;-12824.790;227;150;156.4;57;57.2;-2;-1.8;29.0;-1.0;
14/06/2019 23:55:00;117;0;219.76;17;16.50;2.88;20.8;9.30;69106;5130.310;-12824.790;227;150;156.4;57;57.2;-4;-4.1;29.0;-1.0;
14/06/2019 23:55:20;117;0;213.32;17;16.05;1.03;19.2;9.40;69134;5130.310;-12824.790;227;150;158.4;57;57.2;0;0.5;29.1;-1.0;
14/06/2019 23:55:40;117;0;213.31;17;16.24;3.79;17.6;9.40;69159;5130.310;-12824.790;227;150;156.4;57;57.2;0;0.9;29.0;-1.0;
14/06/2019 23:56:00;117;0;210.10;17;15.80;3.64;15.9;9.40;69186;5130.310;-12824.790;227;150;158.4;57;57.2;0;0.9;29.0;-1.0;
14/06/2019 23:56:20;117;0;210.64;17;15.84;3.76;14.2;9.50;69202;5130.310;-12824.790;227;150;158.4;57;57.1;0;0.9;29.1;-1.0;
14/06/2019 23:56:40;117;0;210.80;17;15.49;3.70;12.6;9.50;69219;5130.310;-12824.790;227;150;156.4;57;57.1;0;0.9;29.0;-1.0;
14/06/2019 23:57:00;117;0;213.67;17;14.77;3.76;11.0;9.60;69234;5130.310;-12824.790;227;150;158.4;57;57.1;-2;-2.3;29.0;-1.0;
