Timestamp;NavState;SecurityLevel;Heading;Declination;Pitch;Roll;Depth;Temperature;Pa;Lat;Lon;DesiredH;BallastCmd;BallastPos;LinCmd;LinPos;AngCmd;AngPos;Voltage;Altitude;
13/06/2019 21:34:06;117;0;232.87;17;24.11;3.39;9.8;11.20;69683;5139.347;-12818.529;209;100;108.9;53;53.2;-3;-3.2;29.3;-1.0;
13/06/2019 21:34:16;115;0;225.93;17;21.98;0.91;8.8;11.30;69698;5139.347;-12818.529;209;500;120.8;100;98.7;0;0.5;29.3;-1.0;
13/06/2019 21:34:26;115;0;189.43;17;-22.04;3.98;8.2;11.30;69611;5139.347;-12818.529;209;500;269.3;100;100.3;0;0.9;29.0;-1.0;
13/06/2019 21:34:36;115;0;214.69;17;-67.43;1.98;8.7;11.30;69412;5139.347;-12818.529;209;500;423.8;100;100.3;0;0.5;29.0;-1.0;
13/06/2019 21:34:46;115;0;314.38;17;-62.17;-1.19;8.0;11.30;69170;5139.347;-12818.529;209;500;505.0;100;100.3;0;0.5;29.0;-1.0;
13/06/2019 21:34:56;115;0;341.97;17;-39.31;0.45;5.3;11.30;69062;5139.347;-12818.529;209;500;508.9;100;100.3;0;0.5;29.3;-1.0;
13/06/2019 21:35:06;116;0;28.46;17;-71.59;-4.14;2.1;11.30;69064;5139.347;-12818.529;209;500;505.0;100;100.4;0;0.5;29.3;-1.0;
13/06/2019 21:35:26;116;0;15.27;17;-43.91;11.89;1.3;11.40;69106;5139.347;-12818.529;209;500;508.9;100;100.1;0;0.5;29.3;-1.0;
13/06/2019 21:35:46;116;0;342.06;17;-8.05;11.12;1.1;11.50;69133;5138.999;-12818.682;209;500;510.9;100;100.1;0;0.5;29.3;-1.0;
13/06/2019 21:36:06;116;0;298.35;17;-7.67;-1.25;1.1;11.50;69158;5139.000;-12818.687;209;500;510.9;100;100.1;0;0.5;29.3;-1.0;
13/06/2019 21:36:29;116;0;304.10;17;-7.54;7.91;1.1;11.60;69161;5138.997;-12818.692;209;500;508.9;100;100.1;0;0.5;29.2;-1.0;
13/06/2019 21:36:49;116;0;335.62;17;-10.87;4.90;1.1;11.70;69177;5138.994;-12818.699;209;500;508.9;100;100.1;0;0.5;29.3;-1.0;
13/06/2019 21:37:16;116;0;320.18;17;-17.43;2.84;1.2;11.90;69197;5138.992;-12818.701;209;500;508.9;100;100.1;0;0.5;29.3;-1.0;
13/06/2019 21:37:36;116;0;295.65;17;-14.16;3.20;1.1;12.00;69204;5138.990;-12818.707;209;500;508.9;100;100.1;0;0.5;29.3;-1.0;
13/06/2019 21:37:56;116;0;262.29;17;-11.12;7.93;1.1;12.10;69223;5138.984;-12818.712;209;500;508.9;100;100.1;0;0.5;29.3;-1.0;
13/06/2019 21:38:17;116;0;280.00;17;-12.70;-0.22;1.1;12.20;69226;5138.986;-12818.722;209;500;508.9;100;100.1;0;0.5;29.3;-1.0;
13/06/2019 21:38:38;116;0;272.41;17;-36.05;6.74;1.3;12.30;69239;5138.986;-12818.723;209;500;508.9;100;100.1;0;0.5;29.2;-1.0;
13/06/2019 21:38:58;116;0;304.72;17;-5.62;10.08;1.1;12.40;69243;5138.984;-12818.729;210;500;508.9;100;100.1;0;0.5;29.3;-1.0;
13/06/2019 21:39:18;116;0;292.54;17;-12.62;3.87;1.1;12.50;69248;5138.976;-12818.733;210;500;508.9;100;100.1;0;0.5;29.3;-1.0;
13/06/2019 21:39:38;116;0;316.11;17;-15.66;6.99;1.1;12.60;69242;5138.963;-12818.757;210;500;510.9;100;100.1;0;0.9;29.3;-1.0;
13/06/2019 21:40:58;116;0;284.07;17;-14.58;7.97;1.1;13.00;69271;5138.963;-12818.759;210;500;508.9;100;100.1;0;0.5;29.3;-1.0;
13/06/2019 21:41:18;116;0;309.56;17;-17.18;3.06;1.1;13.20;69283;5138.882;-12818.760;210;500;508.9;100;100.1;0;0.5;29.3;-1.0;
13/06/2019 21:42:11;116;0;318.91;17;-4.01;6.53;1.1;13.50;69300;5138.872;-12818.760;210;500;508.9;100;100.1;0;0.5;29.3;-1.0;
13/06/2019 21:42:31;116;0;300.98;17;-10.17;4.60;1.1;13.60;69295;5138.937;-12818.781;210;500;508.9;100;100.0;0;0.5;29.3;-1.0;
13/06/2019 21:42:51;116;0;309.86;17;-4.13;3.62;1.1;13.80;69307;5138.945;-12818.788;210;500;508.9;100;100.1;0;0.5;29.3;-1.0;
13/06/2019 21:43:11;116;0;294.16;17;-5.67;4.99;1.0;13.90;69313;5138.944;-12818.790;210;500;508.9;100;100.1;0;0.5;29.3;-1.0;
13/06/2019 21:43:31;116;0;294.44;17;-7.60;4.29;1.1;13.90;69307;5138.944;-12818.797;210;500;508.9;100;100.1;0;0.5;29.3;-1.0;
13/06/2019 21:43:51;116;0;313.68;17;-8.21;2.78;1.0;14.00;69317;5138.942;-12818.803;210;500;506.9;100;100.1;0;0.5;29.3;-1.0;
13/06/2019 21:44:11;116;0;293.36;17;-17.20;5.57;1.2;14.10;69323;5138.936;-12818.817;210;500;508.9;100;100.1;0;0.5;29.3;-1.0;
13/06/2019 21:44:31;116;0;297.23;17;-25.99;7.73;1.2;14.20;69329;5138.932;-12818.825;210;500;508.9;100;100.1;0;0.5;29.3;-1.0;
13/06/2019 21:44:51;116;0;325.35;17;-5.05;5.78;1.0;14.30;69336;5138.932;-12818.825;210;500;508.9;100;100.1;0;0.5;29.3;-1.0;
13/06/2019 21:45:11;116;0;332.61;17;-23.30;4.08;1.2;14.30;69326;5138.926;-12818.846;210;500;510.9;100;100.1;0;0.5;29.3;-1.0;
13/06/2019 21:46:07;116;0;304.51;17;-9.73;6.87;1.1;14.50;69340;5138.926;-12818.846;210;500;508.9;100;100.1;0;0.5;29.3;-1.0;
13/06/2019 21:46:27;116;0;319.72;17;-39.36;-0.74;1.6;14.50;69339;5138.923;-12818.858;210;500;506.9;100;100.3;0;0.5;29.3;-1.0;
13/06/2019 21:46:47;116;0;317.46;17;-7.04;2.00;1.1;14.60;69342;5138.920;-12818.861;210;500;508.9;100;100.1;0;0.5;29.3;-1.0;
13/06/2019 21:47:07;116;0;308.12;17;-16.70;2.02;1.1;14.60;69336;5138.918;-12818.866;210;500;508.9;100;100.1;0;0.5;29.3;-1.0;
13/06/2019 21:47:27;116;0;302.01;17;-14.49;0.53;1.2;14.70;69357;5138.915;-12818.873;210;500;508.9;100;100.1;0;0.5;29.3;-1.0;
13/06/2019 21:47:47;116;0;307.95;17;-7.92;-0.91;1.1;14.70;69349;5138.913;-12818.877;210;500;510.9;100;100.1;0;0.5;29.3;-1.0;
13/06/2019 21:48:07;116;0;317.17;17;-7.63;3.64;1.1;14.70;69353;5138.909;-12818.884;210;500;510.9;100;100.1;0;0.9;29.3;-1.0;
13/06/2019 21:48:27;116;0;315.59;17;-6.14;7.28;1.1;14.80;69361;5138.909;-12818.884;210;500;508.9;100;100.1;0;0.5;29.3;-1.0;
13/06/2019 21:48:47;116;0;277.52;17;-8.87;3.35;1.1;14.80;69372;5138.903;-12818.896;210;500;508.9;100;100.1;0;0.5;29.3;-1.0;
13/06/2019 21:49:07;116;0;271.70;17;-8.53;-0.23;1.1;14.80;69357;5138.897;-12818.914;210;500;510.9;100;100.1;0;0.5;29.3;-1.0;
13/06/2019 21:49:46;116;0;320.87;17;-29.75;6.86;1.4;14.90;69366;5138.896;-12818.918;210;500;510.9;100;100.1;0;0.5;29.3;-1.0;
13/06/2019 21:50:06;116;0;326.82;17;-10.70;-3.69;1.0;14.90;69364;5138.894;-12818.918;210;500;508.9;100;100.1;0;0.5;29.3;-1.0;
13/06/2019 21:50:26;116;0;320.85;17;-5.97;5.97;1.0;15.00;69370;5138.890;-12818.923;210;500;510.9;100;100.1;0;0.5;29.3;-1.0;
13/06/2019 21:50:46;116;0;314.75;17;-12.04;-0.96;1.1;15.00;69365;5138.888;-12818.930;210;500;508.9;100;100.1;0;0.5;29.3;-1.0;
13/06/2019 21:51:06;116;0;304.61;17;-5.65;8.53;1.1;15.00;69373;5138.888;-12818.930;210;500;508.9;100;100.1;0;0.5;29.3;-1.0;
13/06/2019 21:51:26;116;0;277.35;17;-6.60;1.44;1.1;15.10;69372;5138.882;-12818.948;210;500;510.9;100;100.1;0;0.5;29.3;-1.0;
13/06/2019 21:51:49;110;0;299.40;17;-11.97;3.76;1.1;15.10;69368;5138.882;-12818.948;210;-250;404.0;100;100.1;0;0.5;29.3;-1.0;
13/06/2019 21:51:59;110;0;332.17;17;-23.08;4.57;1.3;15.10;69612;5138.882;-12818.948;210;-250;251.5;100;100.1;0;0.5;29.2;-1.0;
13/06/2019 21:52:09;110;0;324.51;17;-35.97;6.81;1.5;15.10;69824;5138.882;-12818.948;210;-250;91.1;100;100.3;0;0.5;29.2;-1.0;
13/06/2019 21:52:19;110;0;330.18;17;-50.91;8.90;1.9;15.10;70077;5138.882;-12818.948;210;-250;-83.2;100;100.3;0;0.5;29.2;-1.0;
13/06/2019 21:52:29;110;0;325.18;17;-59.45;10.43;2.6;15.10;70375;5138.882;-12818.948;210;-250;-249.5;90;89.7;0;0.5;29.2;-1.0;
13/06/2019 21:52:39;110;0;322.43;17;-49.80;3.16;4.1;15.10;70645;5138.882;-12818.948;210;-250;-251.5;72;72.0;0;0.5;29.3;-1.0;
13/06/2019 21:52:49;100;0;319.56;17;-35.67;3.95;6.5;15.10;70620;5138.882;-12818.948;210;-250;-249.5;71;70.9;0;0.5;29.2;-1.0;
13/06/2019 21:53:09;100;0;320.85;17;-25.19;3.78;10.9;15.10;70597;5138.882;-12818.948;210;-250;-245.5;71;70.9;45;45.1;29.3;0.0;
13/06/2019 21:53:29;100;0;299.81;17;-19.70;25.69;14.4;15.00;70578;5138.882;-12818.948;210;-250;-245.5;71;70.8;40;40.2;29.3;0.0;
13/06/2019 21:53:49;100;0;284.66;17;-19.67;22.13;17.2;15.00;70540;5138.882;-12818.948;210;-250;-245.5;71;70.8;30;29.8;29.3;0.0;
13/06/2019 21:54:09;100;0;268.95;17;-19.39;17.08;20.2;14.90;70498;5138.882;-12818.948;210;-250;-245.5;71;70.8;23;23.0;29.3;0.0;
13/06/2019 21:54:29;100;0;258.75;17;-19.69;13.84;23.1;14.80;70475;5138.882;-12818.948;210;-250;-243.6;71;70.8;20;19.9;29.3;0.0;
13/06/2019 21:54:49;100;0;237.95;17;-19.36;12.31;25.8;14.80;70426;5138.882;-12818.948;210;-250;-245.5;71;70.9;12;12.2;29.2;0.0;
13/06/2019 21:55:09;100;0;223.86;17;-19.68;8.53;28.7;14.70;70381;5138.882;-12818.948;210;-250;-243.6;71;70.8;10;9.9;29.3;0.0;
13/06/2019 21:55:29;100;0;208.85;17;-19.28;7.29;31.4;14.60;70347;5138.882;-12818.948;210;-250;-243.6;71;70.8;6;5.9;29.3;0.0;
13/06/2019 21:55:49;100;0;198.71;17;-20.26;5.71;34.1;14.50;70323;5138.882;-12818.948;210;-250;-245.5;71;70.8;6;5.4;29.3;0.0;
13/06/2019 21:56:09;100;0;186.29;17;-20.17;5.79;36.8;14.40;70295;5138.882;-12818.948;210;-250;-243.6;71;70.8;6;5.4;29.3;0.0;
13/06/2019 21:56:29;100;0;176.23;17;-19.91;5.70;39.4;14.30;70263;5138.882;-12818.948;210;-250;-243.6;71;70.8;2;1.8;29.2;0.0;
13/06/2019 21:56:49;100;0;170.61;17;-19.99;3.80;42.0;14.20;70233;5138.882;-12818.948;210;-250;-243.6;71;70.8;2;1.4;29.3;0.0;
13/06/2019 21:57:09;100;0;161.64;17;-19.78;3.82;44.9;14.10;70209;5138.882;-12818.948;210;-250;-243.6;71;70.8;0;0.0;29.3;0.0;
13/06/2019 21:57:29;100;0;152.67;17;-19.75;3.14;47.6;14.00;70201;5138.882;-12818.948;210;-250;-243.6;71;70.8;-2;-1.8;29.3;0.0;
13/06/2019 21:57:49;100;0;143.58;17;-20.19;2.31;50.2;14.00;70175;5138.882;-12818.948;210;-250;-243.6;71;70.8;-6;-6.3;29.3;0.0;
13/06/2019 21:58:09;100;0;135.87;17;-20.02;0.30;52.9;13.90;70176;5138.882;-12818.948;210;-250;-243.6;71;70.8;-9;-9.0;29.3;0.0;
13/06/2019 21:58:29;100;0;131.02;17;-19.98;-1.02;55.5;13.80;70147;5138.882;-12818.948;210;-250;-243.6;71;70.8;-11;-10.8;29.3;0.0;
13/06/2019 21:58:49;100;0;127.69;17;-19.78;-1.89;58.1;13.70;70142;5138.882;-12818.948;210;-250;-243.6;71;70.8;-13;-13.1;29.3;0.0;
13/06/2019 21:59:09;100;0;129.25;17;-19.51;-2.92;60.8;13.70;70128;5138.882;-12818.948;210;-250;-243.6;71;70.8;-13;-13.5;29.3;0.0;
13/06/2019 21:59:29;100;0;129.78;17;-19.18;-3.11;63.3;13.60;70102;5138.882;-12818.948;210;-250;-243.6;71;70.8;-15;-14.9;29.3;0.0;
13/06/2019 21:59:49;100;0;130.12;17;-19.58;-3.92;65.8;13.50;70098;5138.882;-12818.948;210;-250;-243.6;71;70.8;-16;-15.8;29.3;0.0;
13/06/2019 22:00:09;100;0;129.23;17;-19.47;-4.22;68.4;13.50;70089;5138.882;-12818.948;210;-250;-243.6;71;70.8;-19;-19.0;29.3;0.0;
13/06/2019 22:00:29;100;0;129.88;17;-19.13;-5.35;70.9;13.40;70074;5138.882;-12818.948;210;-250;-243.6;71;70.8;-22;-22.1;29.3;0.0;
13/06/2019 22:00:49;100;0;129.09;17;-19.10;-7.13;73.3;13.30;70067;5138.882;-12818.948;210;-250;-243.6;71;70.8;-24;-23.9;29.2;0.0;
13/06/2019 22:01:09;100;0;126.41;17;-18.87;-7.96;75.7;13.30;70056;5138.882;-12818.948;210;-250;-243.6;71;70.8;-29;-28.9;29.3;0.0;
13/06/2019 22:01:29;100;0;128.99;17;-18.77;-10.17;77.9;13.20;70042;5138.882;-12818.948;210;-250;-243.6;71;70.8;-27;-27.1;29.3;0.0;
13/06/2019 22:01:49;100;0;129.98;17;-18.12;-8.92;80.2;13.10;70032;5138.882;-12818.948;210;-250;-243.6;71;70.8;-27;-26.6;29.3;0.0;
13/06/2019 22:02:09;100;0;132.80;17;-18.35;-8.94;82.3;13.10;70019;5138.882;-12818.948;210;-250;-243.6;71;70.8;-25;-24.8;29.3;0.0;
13/06/2019 22:02:29;100;0;127.50;17;-18.30;-7.64;84.3;13.00;70010;5138.882;-12818.948;210;-250;-241.6;71;70.8;-29;-28.9;29.3;0.0;
13/06/2019 22:02:49;100;0;122.54;17;-18.00;-10.34;86.3;13.00;69994;5138.882;-12818.948;210;-250;-243.6;71;70.8;-31;-31.1;29.3;0.0;
13/06/2019 22:03:09;100;0;124.26;17;-17.53;-11.33;88.3;12.90;69976;5138.882;-12818.948;210;-250;-241.6;71;70.8;-29;-28.9;29.3;0.0;
13/06/2019 22:03:29;100;0;124.71;17;-17.37;-10.02;90.1;12.80;69986;5138.882;-12818.948;210;-250;-241.6;71;70.6;-28;-28.0;29.3;0.0;
13/06/2019 22:03:49;100;0;130.18;17;-16.79;-9.26;92.1;12.80;69973;5138.882;-12818.948;210;-250;-243.6;71;70.8;-25;-24.8;29.3;0.0;
13/06/2019 22:04:09;100;0;133.36;17;-16.85;-7.99;93.8;12.70;69963;5138.882;-12818.948;210;-250;-241.6;71;70.8;-24;-23.9;29.3;0.0;
13/06/2019 22:04:29;100;0;135.73;17;-16.63;-7.33;95.6;12.70;69951;5138.882;-12818.948;210;-250;-243.6;71;70.8;-24;-23.0;29.3;0.0;
13/06/2019 22:04:49;100;0;134.89;17;-16.71;-7.29;97.3;12.60;69945;5138.882;-12818.948;210;-250;-239.6;71;70.8;-26;-26.6;29.3;0.0;
13/06/2019 22:05:09;100;0;134.96;17;-16.52;-9.25;99.0;12.50;69937;5138.882;-12818.948;210;-250;-241.6;71;70.6;-26;-27.1;29.3;0.0;
13/06/2019 22:05:29;100;0;137.43;17;-16.21;-9.31;100.8;12.50;69928;5138.882;-12818.948;210;-250;-241.6;71;70.8;-24;-23.9;29.3;0.0;
13/06/2019 22:05:49;100;0;143.98;17;-15.80;-7.56;102.4;12.40;69918;5138.882;-12818.948;210;-250;-241.6;71;70.8;-21;-21.2;29.3;44.4;
13/06/2019 22:06:09;100;0;145.06;17;-15.95;-6.32;104.0;12.40;69907;5138.882;-12818.948;210;-250;-241.6;71;70.8;-22;-22.1;29.3;42.6;
13/06/2019 22:06:29;100;0;145.20;17;-15.73;-7.12;105.6;12.30;69908;5138.882;-12818.948;210;-250;-241.6;71;70.8;-23;-23.0;29.3;41.0;
13/06/2019 22:06:49;100;0;147.22;17;-15.64;-7.61;107.2;12.30;69901;5138.882;-12818.948;210;-250;-241.6;71;70.8;-22;-22.1;29.3;39.5;
13/06/2019 22:07:09;100;0;149.69;17;-15.70;-6.71;108.8;12.20;69891;5138.882;-12818.948;210;-250;-241.6;71;70.6;-22;-21.2;29.2;37.9;
13/06/2019 22:07:29;100;0;151.57;17;-15.52;-6.66;110.3;12.20;69877;5138.882;-12818.948;210;-250;-241.6;71;70.8;-21;-21.2;29.3;36.3;
13/06/2019 22:07:49;100;0;153.75;17;-15.42;-6.71;111.8;12.10;69864;5138.882;-12818.948;210;-250;-241.6;71;70.8;-21;-21.7;29.2;34.7;
13/06/2019 22:08:09;100;0;154.41;17;-15.32;-6.63;113.3;12.00;69854;5138.882;-12818.948;210;-250;-241.6;71;70.8;-21;-21.7;29.3;33.2;
13/06/2019 22:08:29;100;0;153.75;17;-15.46;-6.67;114.9;12.00;69863;5138.882;-12818.948;210;-250;-241.6;71;70.8;-22;-22.1;29.3;31.6;
13/06/2019 22:08:49;100;0;154.08;17;-15.11;-7.16;116.5;11.90;69856;5138.882;-12818.948;210;-250;-241.6;71;70.8;-22;-22.6;29.3;30.0;
13/06/2019 22:09:09;100;0;152.76;17;-15.33;-7.22;118.0;11.90;69853;5138.882;-12818.948;210;-250;-241.6;71;70.8;-23;-23.5;29.3;28.4;
13/06/2019 22:09:29;118;0;151.92;17;-15.02;-7.74;119.5;11.80;69834;5138.882;-12818.948;210;100;-225.7;55;54.8;0;0.5;29.3;26.9;
13/06/2019 22:09:39;118;0;130.50;17;8.20;4.14;120.1;11.80;69745;5138.882;-12818.948;210;100;-67.3;55;55.0;0;0.5;28.9;26.9;
13/06/2019 22:09:49;118;0;132.57;17;25.62;3.70;119.6;11.80;69541;5138.882;-12818.948;210;100;87.1;55;55.1;0;0.5;28.9;-1.0;
13/06/2019 22:09:59;118;0;135.03;17;27.28;3.76;118.7;11.80;69277;5138.882;-12818.948;210;100;105.0;55;55.0;0;0.5;28.9;-1.0;
13/06/2019 22:10:09;118;0;166.24;17;28.77;3.85;117.3;11.70;69271;5138.882;-12818.948;210;100;105.0;55;55.0;0;0.9;29.3;-1.0;
13/06/2019 22:10:19;117;0;167.14;17;29.65;3.67;115.7;11.70;69272;5138.882;-12818.948;210;100;105.0;55;55.0;0;0.5;29.3;-1.0;
13/06/2019 22:10:39;117;0;167.35;17;29.63;3.57;112.1;11.70;69269;5138.882;-12818.948;210;100;106.9;55;55.0;14;14.0;29.3;-1.0;
13/06/2019 22:10:59;117;0;167.70;17;29.81;10.58;108.0;11.60;69262;5138.882;-12818.948;210;100;105.0;55;55.0;17;17.1;29.3;-1.0;
13/06/2019 22:11:19;117;0;170.62;17;29.57;12.20;104.2;11.60;69265;5138.882;-12818.948;210;100;105.0;55;55.0;16;15.3;29.3;-1.0;
13/06/2019 22:11:39;117;0;166.38;17;29.10;10.87;100.2;11.50;69261;5138.882;-12818.948;210;100;105.0;55;55.0;20;19.9;29.3;-1.0;
13/06/2019 22:11:59;117;0;173.91;17;28.56;13.68;96.6;11.50;69269;5138.882;-12818.948;210;100;105.0;55;55.0;16;15.8;29.3;-1.0;
13/06/2019 22:12:19;117;0;175.92;17;28.30;11.11;93.0;11.40;69272;5138.882;-12818.948;210;100;105.0;55;55.0;16;15.3;29.3;-1.0;
13/06/2019 22:12:40;117;0;175.11;17;27.80;11.04;89.3;11.40;69272;5138.882;-12818.948;210;100;105.0;55;55.0;17;17.6;29.3;-1.0;
13/06/2019 22:13:00;117;0;180.28;17;26.77;12.42;85.9;11.40;69283;5138.882;-12818.948;210;100;105.0;55;55.0;15;14.9;29.3;-1.0;
13/06/2019 22:13:20;117;0;191.47;17;26.98;10.38;82.9;11.30;69273;5138.882;-12818.948;210;100;106.9;55;55.1;9;9.0;29.3;-1.0;
13/06/2019 22:13:40;117;0;196.20;17;26.73;7.71;79.8;11.30;69284;5138.882;-12818.948;210;100;108.9;55;55.0;9;8.6;29.3;-1.0;
13/06/2019 22:14:00;117;0;198.02;17;26.31;7.55;76.9;11.30;69287;5138.882;-12818.948;210;100;106.9;55;55.1;10;9.9;29.3;-1.0;
13/06/2019 22:14:20;117;0;198.56;17;25.41;8.87;73.9;11.20;69294;5138.882;-12818.948;210;100;106.9;55;55.0;12;12.2;29.3;-1.0;
13/06/2019 22:14:40;117;0;203.00;17;25.45;9.67;71.2;11.20;69295;5138.882;-12818.948;210;100;106.9;55;55.0;10;9.5;29.3;-1.0;
13/06/2019 22:15:00;117;0;202.44;17;25.05;7.76;68.5;11.20;69299;5138.882;-12818.948;210;100;105.0;55;55.0;10;9.0;29.3;-1.0;
13/06/2019 22:15:20;117;0;200.66;17;25.11;7.89;65.8;11.20;69308;5138.882;-12818.948;210;100;106.9;55;55.0;12;12.2;29.3;-1.0;
13/06/2019 22:15:40;117;0;203.93;17;25.16;9.64;63.1;11.10;69311;5138.882;-12818.948;210;100;105.0;55;55.0;10;9.9;29.3;-1.0;
13/06/2019 22:16:00;117;0;202.61;17;24.28;7.97;60.3;11.10;69309;5138.882;-12818.948;210;100;106.9;55;55.0;10;9.0;29.3;-1.0;
13/06/2019 22:16:20;117;0;195.32;17;24.65;7.98;57.6;11.10;69324;5138.882;-12818.948;210;100;105.0;55;55.0;14;14.0;29.3;-1.0;
13/06/2019 22:16:40;117;0;192.76;17;24.52;10.40;55.1;11.10;69317;5138.882;-12818.948;210;100;105.0;55;55.1;14;14.4;29.3;-1.0;
13/06/2019 22:17:00;117;0;194.50;17;23.84;10.50;52.6;11.10;69315;5138.882;-12818.948;210;100;105.0;55;55.0;14;14.4;29.3;-1.0;
13/06/2019 22:17:20;117;0;200.48;17;23.75;10.63;50.4;11.00;69330;5138.882;-12818.948;210;100;106.9;55;55.0;8;8.1;29.3;-1.0;
13/06/2019 22:17:40;117;0;202.92;17;23.54;7.21;48.1;11.00;69333;5138.882;-12818.948;210;100;105.0;55;55.0;8;7.7;29.3;-1.0;
13/06/2019 22:18:00;117;0;209.73;17;23.28;7.34;45.8;11.00;69339;5138.882;-12818.948;210;100;105.0;55;55.0;4;4.1;29.3;-1.0;
13/06/2019 22:18:20;117;0;211.08;17;23.16;5.02;43.6;11.00;69351;5138.882;-12818.948;210;100;105.0;55;55.0;4;3.6;29.3;-1.0;
13/06/2019 22:18:40;117;0;211.62;17;23.35;5.14;41.4;11.00;69349;5138.882;-12818.948;210;100;105.0;55;55.0;5;5.0;29.3;-1.0;
13/06/2019 22:19:00;117;0;212.42;17;23.55;6.37;39.3;11.00;69349;5138.882;-12818.948;210;100;105.0;55;55.0;4;4.1;29.3;-1.0;
13/06/2019 22:19:20;117;0;213.98;17;23.46;5.20;37.2;11.00;69360;5138.882;-12818.948;210;100;105.0;55;55.0;4;3.6;29.3;-1.0;
13/06/2019 22:19:40;117;0;216.75;17;23.34;5.17;35.2;11.00;69362;5138.882;-12818.948;210;100;105.0;55;55.0;2;1.8;29.3;-1.0;
13/06/2019 22:20:00;117;0;220.97;17;22.99;3.90;32.9;11.00;69377;5138.882;-12818.948;210;100;106.9;55;55.0;0;0.0;29.3;-1.0;
13/06/2019 22:20:20;117;0;219.80;17;22.97;3.00;30.7;11.00;69391;5138.882;-12818.948;210;100;106.9;55;55.0;1;0.9;29.3;-1.0;
13/06/2019 22:20:40;117;0;218.00;17;22.84;4.49;28.5;11.00;69396;5138.882;-12818.948;210;100;106.9;55;55.0;2;1.8;29.3;-1.0;
13/06/2019 22:21:00;117;0;223.56;17;22.84;4.40;26.4;11.00;69397;5138.882;-12818.948;210;100;106.9;55;55.0;-2;-1.8;29.3;-1.0;
13/06/2019 22:21:20;117;0;232.08;17;22.72;2.34;24.5;11.00;69408;5138.882;-12818.948;210;100;106.9;55;55.0;-6;-5.9;29.3;-1.0;
13/06/2019 22:21:40;117;0;235.55;17;22.84;0.17;22.6;11.00;69433;5138.882;-12818.948;210;100;106.9;55;55.0;-6;-6.8;29.3;-1.0;
13/06/2019 22:22:00;117;0;234.64;17;22.17;0.14;20.8;11.00;69448;5138.882;-12818.948;210;100;106.9;55;55.0;-5;-5.0;29.3;-1.0;
13/06/2019 22:22:20;117;0;235.90;17;21.52;1.36;19.2;11.00;69469;5138.882;-12818.948;210;100;106.9;55;55.0;-5;-4.1;29.3;-1.0;
13/06/2019 22:22:40;117;0;231.60;17;21.03;1.47;17.7;11.00;69501;5138.882;-12818.948;210;100;106.9;55;55.0;-3;-3.2;29.3;-1.0;
13/06/2019 22:23:00;117;0;238.73;17;20.46;2.18;16.1;11.00;69528;5138.882;-12818.948;210;100;106.9;55;55.0;-9;-9.0;29.3;-1.0;
13/06/2019 22:23:20;117;0;237.14;17;20.87;-1.11;14.5;11.00;69557;5138.882;-12818.948;210;100;106.9;55;55.0;-8;-8.1;29.3;-1.0;
13/06/2019 22:23:40;117;0;243.93;17;20.44;-0.13;12.9;11.00;69571;5138.882;-12818.948;210;100;106.9;55;55.0;-14;-14.4;29.3;-1.0;
13/06/2019 22:24:00;117;0;241.70;17;21.09;-4.12;11.3;11.10;69605;5138.882;-12818.948;210;100;106.9;55;55.1;-13;-13.1;29.3;-1.0;
