Timestamp;NavState;SecurityLevel;Heading;Declination;Pitch;Roll;Depth;Temperature;Pa;Lat;Lon;DesiredH;BallastCmd;BallastPos;LinCmd;LinPos;AngCmd;AngPos;Voltage;Altitude;
15/06/2019 05:21:30;117;0;219.56;17;14.20;1.97;8.6;10.60;69460;5127.665;-12828.784;246;150;158.4;57;57.1;-2;-2.7;29.0;-1.0;
15/06/2019 05:21:40;115;0;222.30;17;13.77;1.73;8.0;10.60;69464;5127.665;-12828.784;246;500;170.3;100;100.7;0;0.5;29.0;-1.0;
15/06/2019 05:21:50;115;0;192.02;17;-30.16;4.80;7.4;10.60;69395;5127.665;-12828.784;246;500;318.8;100;100.0;0;0.5;28.6;-1.0;
15/06/2019 05:22:00;115;0;168.37;17;-69.36;2.05;8.0;10.60;69188;5127.665;-12828.784;246;500;471.3;100;100.0;0;0.5;28.7;-1.0;
15/06/2019 05:22:10;115;0;131.23;17;-54.20;6.84;6.6;10.70;68936;5127.665;-12828.784;246;500;505.0;100;100.0;0;0.5;28.6;-1.0;
15/06/2019 05:22:20;115;0;99.93;17;-42.60;7.48;3.6;10.70;68916;5127.665;-12828.784;246;500;505.0;100;100.0;0;0.5;29.0;-1.0;
15/06/2019 05:22:30;116;0;25.12;17;-34.94;-0.40;1.6;10.70;68932;5127.665;-12828.784;246;500;505.0;100;100.0;0;0.5;29.0;-1.0;
15/06/2019 05:22:50;116;0;4.99;17;-21.07;3.96;1.2;10.80;68953;5127.475;-12829.010;246;500;506.9;100;99.9;0;0.5;29.0;-1.0;
15/06/2019 05:23:10;116;0;330.70;17;-6.97;5.88;1.2;10.90;68963;5127.472;-12829.007;246;500;506.9;100;99.9;0;0.5;29.0;-1.0;
15/06/2019 05:23:50;116;0;290.46;17;-8.36;3.57;1.2;11.00;68984;5127.472;-12829.008;246;500;506.9;100;99.9;0;0.5;29.0;-1.0;
15/06/2019 05:24:10;116;0;296.25;17;-13.79;3.93;1.2;11.10;68997;5127.472;-12829.008;246;500;506.9;100;99.9;0;0.5;28.9;-1.0;
15/06/2019 05:24:30;116;0;290.02;17;-7.67;4.35;1.2;11.20;69009;5127.471;-12829.008;246;500;508.9;100;99.7;0;0.5;28.9;-1.0;
15/06/2019 05:24:50;116;0;293.59;17;-21.92;0.44;1.3;11.40;69015;5127.470;-12829.008;246;500;508.9;100;99.9;0;0.5;28.9;-1.0;
15/06/2019 05:25:10;116;0;283.83;17;-20.43;1.01;1.3;11.50;69031;5127.469;-12829.010;246;500;506.9;100;99.9;0;0.5;29.0;-1.0;
15/06/2019 05:25:30;116;0;293.77;17;-15.46;3.62;1.2;11.60;69032;5127.469;-12829.010;246;500;508.9;100;99.9;0;0.5;29.0;-1.0;
15/06/2019 05:25:50;116;0;292.44;17;-5.41;2.88;1.2;11.70;69040;5127.468;-12829.012;246;500;506.9;100;99.9;0;0.5;29.0;-1.0;
15/06/2019 05:26:10;116;0;292.56;17;-11.38;5.77;1.2;11.80;69054;5127.466;-12829.021;246;500;508.9;100;99.9;0;0.5;29.0;-1.0;
15/06/2019 05:27:26;116;0;285.27;17;-21.77;1.54;1.3;12.40;69073;5127.466;-12829.021;246;500;508.9;100;99.9;0;0.5;28.9;-1.0;
15/06/2019 05:27:46;116;0;288.01;17;-13.38;4.90;1.2;12.50;69089;5127.465;-12829.022;246;500;508.9;100;99.9;0;0.5;28.9;-1.0;
15/06/2019 05:28:06;116;0;276.59;17;-13.10;0.08;1.2;12.70;69091;5127.450;-12829.047;246;500;508.9;100;99.9;0;0.5;28.9;-1.0;
15/06/2019 05:33:42;116;0;283.62;17;-7.00;3.02;1.3;13.50;69155;5127.449;-12829.047;246;500;508.9;100;99.9;0;0.5;29.0;-1.0;
15/06/2019 05:34:02;116;0;285.60;17;-7.12;6.39;1.2;13.60;69160;5127.448;-12829.048;246;500;508.9;100;99.9;0;0.5;29.0;-1.0;
15/06/2019 05:34:22;116;0;280.85;17;-7.15;2.20;1.2;13.60;69158;5127.447;-12829.052;246;500;508.9;100;99.9;0;0.5;29.0;-1.0;
15/06/2019 05:34:42;116;0;289.05;17;-7.08;1.80;1.2;13.70;69167;5127.445;-12829.052;246;500;508.9;100;99.9;0;0.5;29.0;-1.0;
15/06/2019 05:35:02;116;0;296.75;17;-11.06;5.08;1.2;13.70;69162;5127.445;-12829.054;246;500;508.9;100;99.9;0;0.5;28.9;-1.0;
15/06/2019 05:35:22;116;0;280.51;17;-5.62;3.59;1.2;13.80;69170;5127.445;-12829.056;246;500;508.9;100;99.9;0;0.5;29.0;-1.0;
15/06/2019 05:35:42;116;0;299.40;17;-6.78;3.17;1.2;13.80;69172;5127.444;-12829.057;246;500;508.9;100;99.9;0;0.5;29.0;-1.0;
15/06/2019 05:36:02;116;0;292.22;17;-12.05;-0.34;1.2;13.90;69184;5127.444;-12829.060;246;500;508.9;100;99.9;0;0.5;29.0;-1.0;
15/06/2019 05:36:22;116;0;280.11;17;-7.92;4.76;1.2;13.90;69189;5127.444;-12829.060;246;500;508.9;100;99.9;0;0.5;29.0;-1.0;
15/06/2019 05:36:42;116;0;278.73;17;-9.49;0.55;1.2;14.00;69187;5127.441;-12829.065;246;500;506.9;100;99.9;0;0.5;29.0;-1.0;
15/06/2019 05:37:20;116;0;287.84;17;-26.04;2.31;1.3;14.00;69195;5127.440;-12829.066;246;500;508.9;100;99.9;0;0.5;29.0;-1.0;
15/06/2019 05:37:41;116;0;294.54;17;-9.14;5.38;1.2;14.10;69192;5127.439;-12829.067;246;500;508.9;100;99.9;0;0.5;29.0;-1.0;
15/06/2019 05:38:01;116;0;276.54;17;-8.97;3.81;1.2;14.10;69201;5127.440;-12829.069;246;500;508.9;100;99.9;0;0.5;29.0;-1.0;
15/06/2019 05:38:21;116;0;303.03;17;-21.11;0.18;1.3;14.20;69195;5127.423;-12829.099;246;500;506.9;100;99.9;0;0.5;29.0;-1.0;
15/06/2019 05:43:57;116;0;302.58;17;-5.00;2.85;1.2;14.70;69230;5127.423;-12829.099;246;500;508.9;100;99.9;0;0.5;29.0;-1.0;
15/06/2019 05:44:17;116;0;292.28;17;-25.13;5.84;1.3;14.80;69243;5127.422;-12829.102;246;500;508.9;100;99.9;0;0.5;29.0;-1.0;
15/06/2019 05:44:37;116;0;279.19;17;-7.46;3.14;1.2;14.80;69238;5127.422;-12829.104;246;500;508.9;100;99.9;0;0.5;29.0;-1.0;
15/06/2019 05:44:57;116;0;286.67;17;-8.84;5.91;1.2;14.80;69240;5127.421;-12829.106;246;500;508.9;100;99.9;0;0.5;29.0;-1.0;
15/06/2019 05:45:17;116;0;282.84;17;-8.42;2.97;1.2;14.80;69233;5127.420;-12829.108;246;500;508.9;100;99.9;0;0.5;29.0;-1.0;
15/06/2019 05:45:37;116;0;294.02;17;-19.95;3.73;1.2;14.90;69235;5127.419;-12829.110;246;500;508.9;100;99.9;0;0.5;29.0;-1.0;
15/06/2019 05:45:57;116;0;296.90;17;-8.72;4.99;1.2;14.90;69242;5127.417;-12829.111;246;500;506.9;100;99.9;0;0.5;29.0;-1.0;
15/06/2019 05:46:17;116;0;299.99;17;-12.03;6.29;1.2;14.90;69244;5127.417;-12829.114;246;500;508.9;100;99.9;0;0.5;29.0;-1.0;
15/06/2019 05:46:37;116;0;281.83;17;-6.36;3.52;1.2;14.90;69242;5127.416;-12829.115;246;500;508.9;100;99.9;0;0.5;29.0;-1.0;
15/06/2019 05:46:57;116;0;295.86;17;-6.60;6.15;1.2;15.00;69246;5127.415;-12829.122;246;500;508.9;100;99.9;0;0.5;29.0;-1.0;
15/06/2019 05:47:35;116;0;272.91;17;-7.04;4.60;1.2;15.00;69245;5127.415;-12829.124;246;500;508.9;100;99.9;0;0.5;29.0;-1.0;
15/06/2019 05:47:55;116;0;284.10;17;-7.37;-2.44;1.2;15.00;69248;5127.414;-12829.123;246;500;508.9;100;99.9;0;0.5;29.0;-1.0;
15/06/2019 05:48:15;116;0;290.89;17;-6.08;3.83;1.2;15.00;69251;5127.411;-12829.130;246;500;508.9;100;99.9;0;0.5;29.0;-1.0;
15/06/2019 05:48:52;110;0;282.36;17;-4.85;5.88;1.2;15.10;69254;5127.411;-12829.130;246;-300;404.0;100;99.9;0;0.5;28.9;-1.0;
15/06/2019 05:49:02;110;0;289.58;17;-8.68;3.77;1.2;15.10;69492;5127.411;-12829.130;246;-300;261.4;100;99.9;0;0.5;28.9;-1.0;
15/06/2019 05:49:12;110;0;265.13;17;-10.31;3.81;1.2;15.10;69680;5127.411;-12829.130;246;-300;122.8;100;99.9;0;0.5;28.9;-1.0;
15/06/2019 05:49:22;110;0;288.73;17;-8.60;2.78;1.2;15.10;69906;5127.411;-12829.130;246;-300;-17.8;100;99.9;0;0.5;28.9;-1.0;
15/06/2019 05:49:32;110;0;291.46;17;-16.67;4.87;1.3;15.10;70147;5127.411;-12829.130;246;-300;-180.2;99;98.8;0;0.5;28.9;-1.0;
15/06/2019 05:49:42;110;0;289.60;17;-51.86;6.55;2.6;15.10;70414;5127.411;-12829.130;246;-300;-301.0;84;83.9;0;0.5;28.9;-1.0;
15/06/2019 05:49:52;110;0;293.26;17;-53.25;3.54;5.5;15.10;70590;5127.411;-12829.130;246;-300;-301.0;73;73.0;0;0.5;29.0;-1.0;
15/06/2019 05:50:02;100;0;287.71;17;-40.36;5.02;9.2;15.10;70582;5127.411;-12829.130;246;-300;-301.0;73;73.0;0;0.5;29.0;-1.0;
15/06/2019 05:50:22;100;0;288.21;17;-31.15;4.51;15.6;15.10;70551;5127.411;-12829.130;246;-300;-297.0;73;72.9;0;0.5;28.9;0.0;
15/06/2019 05:50:42;100;0;277.15;17;-26.13;4.15;21.2;15.00;70506;5127.411;-12829.130;246;-300;-299.0;73;73.0;22;22.1;29.0;0.0;
15/06/2019 05:51:02;100;0;264.20;17;-24.18;13.96;25.5;15.00;70484;5127.411;-12829.130;246;-300;-299.0;73;72.9;11;10.8;29.0;0.0;
15/06/2019 05:51:22;100;0;253.04;17;-24.39;7.82;29.4;14.90;70425;5127.411;-12829.130;246;-300;-297.0;73;72.9;6;5.9;28.9;0.0;
15/06/2019 05:51:42;100;0;241.38;17;-24.35;5.65;32.9;14.80;70355;5127.411;-12829.130;246;-300;-297.0;73;72.9;1;0.9;29.0;0.0;
15/06/2019 05:52:02;100;0;232.58;17;-25.21;3.53;36.5;14.70;70309;5127.411;-12829.130;246;-300;-299.0;73;72.9;0;0.0;29.0;0.0;
15/06/2019 05:52:22;100;0;221.79;17;-24.56;3.02;40.1;14.60;70278;5127.411;-12829.130;246;-300;-297.0;73;72.9;0;-0.5;29.0;0.0;
15/06/2019 05:52:42;100;0;211.83;17;-24.34;3.05;43.7;14.50;70236;5127.411;-12829.130;246;-300;-297.0;73;72.9;-5;-5.0;29.0;0.0;
15/06/2019 05:53:02;100;0;207.31;17;-24.50;1.01;47.1;14.40;70200;5127.411;-12829.130;246;-300;-297.0;73;72.9;-4;-4.1;29.0;0.0;
15/06/2019 05:53:22;100;0;200.66;17;-24.19;1.97;50.6;14.40;70174;5127.411;-12829.130;246;-300;-297.0;73;73.0;-6;-5.9;29.0;0.0;
15/06/2019 05:53:42;100;0;189.20;17;-24.07;0.37;53.9;14.30;70147;5127.411;-12829.130;246;-300;-297.0;73;72.9;-10;-9.9;28.9;0.0;
15/06/2019 05:54:02;100;0;178.02;17;-24.65;-1.55;57.2;14.20;70123;5127.411;-12829.130;246;-300;-297.0;73;72.9;-15;-14.9;29.0;0.0;
15/06/2019 05:54:22;100;0;178.46;17;-23.78;-3.57;60.5;14.10;70102;5127.411;-12829.130;246;-300;-297.0;73;72.9;-14;-13.5;29.0;0.0;
15/06/2019 05:54:42;100;0;184.39;17;-23.37;-2.44;63.9;14.00;70077;5127.411;-12829.130;246;-300;-297.0;73;72.9;-9;-9.0;29.0;0.0;
15/06/2019 05:55:02;100;0;176.69;17;-23.75;-0.36;67.0;14.00;70075;5127.411;-12829.130;246;-300;-297.0;73;72.9;-16;-15.8;29.0;0.0;
15/06/2019 05:55:22;100;0;166.39;17;-23.72;-4.20;70.2;13.90;70052;5127.411;-12829.130;246;-300;-295.0;73;72.9;-23;-23.0;28.9;0.0;
15/06/2019 05:55:42;100;0;166.67;17;-23.64;-7.27;73.2;13.80;70031;5127.411;-12829.130;246;-300;-297.0;73;72.9;-23;-23.5;29.0;0.0;
15/06/2019 05:56:02;100;0;171.43;17;-23.84;-7.28;76.3;13.70;70020;5127.411;-12829.130;246;-300;-297.0;73;72.9;-21;-21.2;28.9;0.0;
15/06/2019 05:56:22;100;0;179.02;17;-23.30;-5.87;79.3;13.60;69991;5127.411;-12829.130;246;-300;-295.0;73;72.9;-18;-18.1;29.0;0.0;
15/06/2019 05:56:42;100;0;182.13;17;-22.99;-4.33;82.2;13.60;69999;5127.411;-12829.130;246;-300;-295.0;73;72.9;-20;-19.9;29.0;0.0;
15/06/2019 05:57:02;100;0;177.74;17;-23.21;-5.81;85.2;13.50;69977;5127.411;-12829.130;246;-300;-297.0;73;72.9;-25;-24.8;28.9;0.0;
15/06/2019 05:57:22;100;0;189.39;17;-22.79;-8.41;88.1;13.40;69968;5127.411;-12829.130;246;-300;-295.0;73;72.9;-18;-18.1;29.0;0.0;
15/06/2019 05:57:42;100;0;197.58;17;-22.32;-4.38;91.1;13.30;69953;5127.411;-12829.130;246;-300;-297.0;73;72.9;-16;-15.8;29.0;0.0;
15/06/2019 05:58:02;100;0;196.70;17;-21.21;-3.36;94.1;13.30;69943;5127.411;-12829.130;246;-300;-297.0;73;72.9;-19;-19.0;29.0;0.0;
15/06/2019 05:58:22;100;0;189.83;17;-21.72;-5.49;96.9;13.20;69930;5127.411;-12829.130;246;-300;-295.0;73;72.9;-24;-23.9;29.0;0.0;
15/06/2019 05:58:42;100;0;186.39;17;-21.87;-7.72;99.8;13.10;69922;5127.411;-12829.130;246;-300;-295.0;73;72.9;-25;-24.8;29.0;0.0;
15/06/2019 05:59:02;100;0;192.15;17;-22.01;-8.43;102.4;13.10;69907;5127.411;-12829.130;246;-300;-295.0;73;72.7;-20;-19.9;29.0;0.0;
15/06/2019 05:59:22;100;0;195.19;17;-21.73;-5.37;105.0;13.00;69901;5127.411;-12829.130;246;-300;-295.0;73;72.9;-19;-19.0;29.0;0.0;
15/06/2019 05:59:42;100;0;194.40;17;-21.30;-5.27;107.7;12.90;69890;5127.411;-12829.130;246;-300;-297.0;73;72.9;-21;-21.7;29.0;0.0;
15/06/2019 06:00:02;100;0;194.06;17;-21.19;-6.66;110.2;12.90;69885;5127.411;-12829.130;246;-300;-295.0;73;72.9;-21;-22.1;28.9;0.0;
15/06/2019 06:00:22;100;0;194.59;17;-21.67;-6.74;112.5;12.80;69874;5127.411;-12829.130;246;-300;-295.0;73;72.9;-21;-21.7;29.0;0.0;
15/06/2019 06:00:42;100;0;207.80;17;-21.43;-6.90;114.9;12.70;69857;5127.411;-12829.130;246;-300;-295.0;73;72.9;-14;-13.5;29.0;0.0;
15/06/2019 06:01:02;100;0;211.17;17;-20.27;-2.48;117.2;12.70;69853;5127.411;-12829.130;246;-300;-295.0;73;72.9;-14;-13.1;29.0;0.0;
15/06/2019 06:01:22;100;0;200.67;17;-20.08;-2.39;119.6;12.60;69824;5127.411;-12829.130;246;-300;-295.0;73;72.9;-22;-22.1;29.0;0.0;
15/06/2019 06:01:42;100;0;195.91;17;-20.60;-7.02;121.7;12.60;69824;5127.411;-12829.130;246;-300;-295.0;73;72.9;-24;-23.9;29.0;0.0;
15/06/2019 06:02:02;100;0;203.38;17;-19.83;-8.05;124.1;12.50;69811;5127.411;-12829.130;246;-300;-295.0;73;72.9;-18;-17.6;29.0;0.0;
15/06/2019 06:02:22;100;0;203.68;17;-19.62;-4.28;126.5;12.40;69795;5127.411;-12829.130;246;-300;-295.0;73;72.9;-19;-19.0;28.9;0.0;
15/06/2019 06:02:42;100;0;207.74;17;-19.23;-5.57;128.7;12.40;69776;5127.411;-12829.130;246;-300;-293.1;73;72.9;-17;-16.7;29.0;0.0;
15/06/2019 06:03:02;100;0;207.58;17;-19.00;-3.87;131.1;12.30;69769;5127.411;-12829.130;246;-300;-295.0;73;72.9;-18;-18.1;29.0;0.0;
15/06/2019 06:03:22;100;0;207.94;17;-19.27;-5.10;133.1;12.20;69750;5127.411;-12829.130;246;-300;-295.0;73;72.9;-18;-18.5;29.0;0.0;
15/06/2019 06:03:42;100;0;208.12;17;-19.65;-5.14;135.2;12.20;69743;5127.411;-12829.130;246;-300;-295.0;73;72.9;-18;-18.5;29.0;0.0;
15/06/2019 06:04:02;100;0;203.77;17;-19.07;-5.15;137.4;12.10;69735;5127.411;-12829.130;246;-300;-295.0;73;72.9;-21;-21.7;29.0;0.0;
15/06/2019 06:04:22;100;0;202.54;17;-19.54;-6.75;139.5;12.00;69716;5127.411;-12829.130;246;-300;-295.0;73;72.9;-21;-22.1;29.0;0.0;
15/06/2019 06:04:43;100;0;205.38;17;-19.63;-6.78;141.6;12.00;69711;5127.411;-12829.130;246;-300;-295.0;73;72.9;-19;-19.0;29.0;0.0;
15/06/2019 06:05:03;100;0;205.78;17;-19.02;-5.03;143.7;11.90;69703;5127.411;-12829.130;246;-300;-295.0;73;72.7;-19;-18.5;29.0;0.0;
15/06/2019 06:05:23;100;0;204.24;17;-18.95;-4.98;145.9;11.90;69687;5127.411;-12829.130;246;-300;-293.1;73;72.9;-20;-20.3;29.0;0.0;
15/06/2019 06:05:43;100;0;203.75;17;-19.22;-6.15;148.0;11.80;69678;5127.411;-12829.130;246;-300;-295.0;73;72.9;-20;-20.8;29.0;0.0;
15/06/2019 06:06:03;100;0;205.83;17;-19.07;-6.12;150.3;11.70;69673;5127.411;-12829.130;246;-300;-295.0;73;72.9;-19;-19.0;29.0;0.0;
15/06/2019 06:06:23;100;0;206.27;17;-18.95;-5.03;152.4;11.70;69668;5127.411;-12829.130;246;-300;-295.0;73;72.9;-18;-18.1;29.0;0.0;
15/06/2019 06:06:43;100;0;205.75;17;-19.06;-5.08;154.3;11.60;69649;5127.411;-12829.130;246;-300;-295.0;73;72.9;-19;-19.0;29.0;0.0;
15/06/2019 06:07:03;100;0;206.91;17;-19.28;-5.60;156.4;11.50;69642;5127.411;-12829.130;246;-300;-293.1;73;72.9;-19;-19.4;29.0;44.5;
15/06/2019 06:07:23;100;0;206.22;17;-19.28;-5.55;158.4;11.50;69637;5127.411;-12829.130;246;-300;-295.0;73;72.9;-19;-19.4;29.0;42.4;
15/06/2019 06:07:43;100;0;204.54;17;-19.07;-5.56;160.5;11.40;69630;5127.411;-12829.130;246;-300;-295.0;73;72.9;-20;-19.9;29.0;40.3;
15/06/2019 06:08:03;100;0;201.33;17;-18.91;-6.04;162.5;11.40;69607;5127.411;-12829.130;246;-300;-293.1;73;72.9;-21;-21.2;29.0;38.1;
15/06/2019 06:08:23;100;0;200.92;17;-19.13;-6.66;164.5;11.30;69605;5127.411;-12829.130;246;-300;-293.1;73;72.9;-21;-21.7;29.0;36.1;
15/06/2019 06:08:43;100;0;200.82;17;-19.10;-6.68;166.6;11.30;69599;5127.411;-12829.130;246;-300;-293.1;73;72.9;-21;-21.7;29.0;34.1;
15/06/2019 06:09:03;100;0;199.46;17;-18.87;-6.67;168.7;11.20;69598;5127.411;-12829.130;246;-300;-295.0;73;72.9;-21;-21.7;29.0;31.9;
15/06/2019 06:09:23;100;0;200.22;17;-18.99;-6.62;170.7;11.20;69584;5127.411;-12829.130;246;-300;-295.0;73;72.9;-20;-19.9;29.0;29.8;
15/06/2019 06:09:43;100;0;200.66;17;-18.87;-5.43;172.7;11.10;69579;5127.411;-12829.130;246;-300;-295.0;73;72.9;-20;-19.4;28.9;27.7;
15/06/2019 06:10:03;100;0;201.83;17;-18.80;-5.49;174.6;11.10;69571;5127.411;-12829.130;246;-300;-293.1;73;72.9;-20;-19.0;29.0;25.7;
15/06/2019 06:10:23;100;0;202.41;17;-18.65;-5.42;176.5;11.00;69567;5127.411;-12829.130;246;-300;-295.0;73;72.7;-19;-19.0;29.0;23.8;
15/06/2019 06:10:43;100;0;203.26;17;-19.16;-5.52;178.4;11.00;69562;5127.411;-12829.130;246;-300;-295.0;73;72.9;-19;-19.4;29.0;21.9;
15/06/2019 06:11:03;100;0;201.82;17;-18.99;-5.58;180.3;10.90;69561;5127.411;-12829.130;246;-300;-295.0;73;72.9;-20;-19.9;29.0;19.9;
15/06/2019 06:11:23;118;0;202.85;17;-18.90;-5.85;182.4;10.90;69559;5127.411;-12829.130;246;150;-279.2;57;56.8;0;0.9;29.0;17.9;
15/06/2019 06:11:33;118;0;154.13;17;2.32;4.05;183.2;10.80;69469;5127.411;-12829.130;246;150;-118.8;57;57.2;0;0.9;28.4;17.9;
15/06/2019 06:11:43;118;0;154.52;17;20.05;3.64;182.8;10.80;69263;5127.411;-12829.130;246;150;35.6;57;57.2;0;0.9;28.4;-1.0;
15/06/2019 06:11:53;118;0;155.93;17;23.59;3.74;182.0;10.80;69003;5127.411;-12829.130;246;150;156.4;57;57.2;0;0.9;28.4;-1.0;
15/06/2019 06:12:03;118;0;200.03;17;24.19;3.60;180.9;10.80;68839;5127.411;-12829.130;246;150;156.4;57;57.2;0;0.9;29.0;-1.0;
15/06/2019 06:12:13;118;0;200.32;17;26.93;3.53;179.4;10.80;68831;5127.411;-12829.130;246;150;156.4;57;57.2;0;0.9;29.0;-1.0;
15/06/2019 06:12:23;117;0;201.17;17;27.71;3.96;177.3;10.80;68836;5127.411;-12829.130;246;150;156.4;57;57.2;0;0.9;29.0;-1.0;
15/06/2019 06:12:43;117;0;198.91;17;28.14;3.91;173.1;10.70;68824;5127.411;-12829.130;246;150;156.4;57;57.2;22;22.6;28.9;-1.0;
15/06/2019 06:13:03;117;0;208.90;17;27.41;14.79;168.3;10.70;68817;5127.411;-12829.130;246;150;156.4;57;57.2;16;15.8;28.9;-1.0;
15/06/2019 06:13:23;117;0;212.43;17;27.46;10.69;163.9;10.60;68810;5127.411;-12829.130;246;150;156.4;57;57.2;15;14.9;28.9;-1.0;
15/06/2019 06:13:43;117;0;219.49;17;27.09;10.04;159.6;10.60;68808;5127.411;-12829.130;246;150;156.4;57;57.2;12;12.2;29.0;-1.0;
15/06/2019 06:14:03;117;0;223.02;17;28.02;8.74;155.2;10.50;68811;5127.411;-12829.130;246;150;156.4;57;57.2;12;11.7;28.9;-1.0;
15/06/2019 06:14:23;117;0;224.99;17;27.92;8.80;150.6;10.50;68818;5127.411;-12829.130;246;150;156.4;57;57.2;13;13.1;29.0;-1.0;
15/06/2019 06:14:43;117;0;226.85;17;27.17;10.25;146.0;10.40;68819;5127.411;-12829.130;246;150;156.4;57;57.2;13;14.0;29.0;-1.0;
15/06/2019 06:15:03;117;0;230.18;17;26.83;9.84;141.7;10.40;68808;5127.411;-12829.130;246;150;156.4;57;57.2;13;14.0;29.0;-1.0;
15/06/2019 06:15:23;117;0;231.45;17;27.54;10.04;137.5;10.40;68827;5127.411;-12829.130;246;150;156.4;57;57.2;13;14.0;29.0;-1.0;
15/06/2019 06:15:43;117;0;232.54;17;26.64;10.02;133.1;10.30;68832;5127.411;-12829.130;246;150;156.4;57;57.2;13;14.0;29.0;-1.0;
15/06/2019 06:16:03;117;0;232.91;17;26.25;10.02;129.1;10.30;68840;5127.411;-12829.130;246;150;154.5;57;57.2;13;14.0;28.9;-1.0;
15/06/2019 06:16:23;117;0;232.85;17;25.57;9.73;125.4;10.30;68852;5127.411;-12829.130;246;150;156.4;57;57.2;13;14.0;29.0;-1.0;
15/06/2019 06:16:43;117;0;228.87;17;26.17;10.04;121.5;10.30;68862;5127.411;-12829.130;246;150;156.4;57;57.2;13;14.0;29.0;-1.0;
15/06/2019 06:17:03;117;0;237.54;17;25.13;10.10;117.8;10.20;68859;5127.411;-12829.130;246;150;158.4;57;57.2;10;9.9;29.0;-1.0;
15/06/2019 06:17:23;117;0;236.62;17;25.53;7.74;114.1;10.20;68852;5127.411;-12829.130;246;150;156.4;57;57.2;11;10.8;29.0;-1.0;
15/06/2019 06:17:43;117;0;237.76;17;25.37;8.99;110.2;10.20;68879;5127.411;-12829.130;246;150;156.4;57;57.4;11;11.7;29.0;-1.0;
15/06/2019 06:18:03;117;0;243.80;17;24.55;8.91;106.3;10.20;68892;5127.411;-12829.130;246;150;156.4;57;57.2;7;7.2;28.9;-1.0;
15/06/2019 06:18:23;117;0;248.04;17;24.14;6.43;102.6;10.20;68889;5127.411;-12829.130;246;150;156.4;57;57.2;5;4.5;29.0;-1.0;
15/06/2019 06:18:43;117;0;243.26;17;24.75;5.13;99.1;10.20;68917;5127.411;-12829.130;246;150;156.4;57;57.2;9;9.0;29.0;-1.0;
15/06/2019 06:19:03;117;0;247.00;17;24.50;8.00;95.5;10.10;68915;5127.411;-12829.130;246;150;156.4;57;57.2;6;5.9;29.0;-1.0;
15/06/2019 06:19:23;117;0;250.60;17;23.37;5.50;92.0;10.10;68911;5127.411;-12829.130;246;150;156.4;57;57.2;4;4.1;29.0;-1.0;
15/06/2019 06:19:43;117;0;245.16;17;23.43;4.76;88.8;10.10;68916;5127.411;-12829.130;246;150;158.4;57;57.2;7;7.2;29.0;-1.0;
15/06/2019 06:20:03;117;0;237.50;17;23.40;6.92;85.7;10.10;68916;5127.411;-12829.130;246;150;156.4;57;57.2;11;11.3;29.0;-1.0;
15/06/2019 06:20:23;117;0;230.45;17;23.10;8.93;82.8;10.10;68924;5127.411;-12829.130;246;150;156.4;57;57.2;13;13.1;29.0;-1.0;
15/06/2019 06:20:43;117;0;233.50;17;21.72;9.63;79.9;10.10;68935;5127.411;-12829.130;246;150;156.4;57;57.2;9;8.6;29.0;-1.0;
15/06/2019 06:21:03;117;0;232.05;17;22.06;7.11;77.2;10.10;68942;5127.411;-12829.130;246;150;156.4;57;57.2;9;8.1;29.0;-1.0;
15/06/2019 06:21:23;117;0;230.47;17;21.57;7.21;74.2;10.10;68946;5127.411;-12829.130;246;150;156.4;57;57.2;10;10.4;29.0;-1.0;
15/06/2019 06:21:43;117;0;229.69;17;21.58;8.92;71.5;10.10;68955;5127.411;-12829.130;246;150;156.4;57;57.2;10;10.8;29.0;-1.0;
15/06/2019 06:22:03;117;0;235.47;17;20.75;8.58;68.7;10.10;68964;5127.411;-12829.130;246;150;158.4;57;57.2;6;5.4;29.0;-1.0;
15/06/2019 06:22:23;117;0;239.07;17;20.65;5.63;66.2;10.10;68966;5127.411;-12829.130;246;150;156.4;57;57.2;4;3.6;29.0;-1.0;
15/06/2019 06:22:43;117;0;240.49;17;20.38;4.78;63.6;10.10;68980;5127.411;-12829.130;246;150;156.4;57;57.2;4;3.6;29.0;-1.0;
15/06/2019 06:23:03;117;0;242.94;17;20.33;4.85;61.2;10.10;68973;5127.411;-12829.130;246;150;158.4;57;57.2;3;3.2;29.0;-1.0;
15/06/2019 06:23:23;117;0;244.16;17;20.69;4.73;58.7;10.10;68980;5127.411;-12829.130;246;150;156.4;57;57.2;2;1.8;29.0;-1.0;
15/06/2019 06:23:43;117;0;242.44;17;20.35;3.70;56.0;10.10;68986;5127.411;-12829.130;246;150;156.4;57;57.2;4;4.1;29.0;-1.0;
15/06/2019 06:24:03;117;0;242.47;17;20.08;5.44;53.4;10.10;68992;5127.411;-12829.130;246;150;156.4;57;57.2;3;3.2;29.0;-1.0;
15/06/2019 06:24:23;117;0;239.19;17;19.54;4.53;50.8;10.10;69002;5127.411;-12829.130;246;150;156.4;57;57.2;4;4.1;29.0;-1.0;
15/06/2019 06:24:43;117;0;246.92;17;19.22;5.74;48.4;10.10;69008;5127.411;-12829.130;246;150;156.4;57;57.2;0;0.0;29.0;-1.0;
15/06/2019 06:25:03;117;0;250.05;17;19.09;2.80;46.1;10.10;69014;5127.411;-12829.130;246;150;156.4;57;57.2;-2;-1.8;28.9;-1.0;
15/06/2019 06:25:23;117;0;250.14;17;18.74;1.92;43.7;10.10;69022;5127.411;-12829.130;246;150;156.4;57;57.2;-1;-0.9;29.0;-1.0;
15/06/2019 06:25:43;117;0;246.61;17;18.59;3.27;41.4;10.10;69038;5127.411;-12829.130;246;150;156.4;57;57.2;0;0.0;29.0;-1.0;
15/06/2019 06:26:03;117;0;245.59;17;18.25;3.29;39.1;10.10;69050;5127.411;-12829.130;246;150;156.4;57;57.2;0;0.0;29.0;-1.0;
15/06/2019 06:26:23;117;0;249.82;17;18.06;3.28;37.0;10.10;69066;5127.411;-12829.130;246;150;156.4;57;57.2;-2;-1.8;29.0;-1.0;
15/06/2019 06:26:43;117;0;251.10;17;17.90;2.09;34.9;10.10;69079;5127.411;-12829.130;246;150;156.4;57;57.2;-4;-4.5;29.0;-1.0;
15/06/2019 06:27:03;117;0;244.13;17;17.66;0.88;32.9;10.20;69103;5127.411;-12829.130;246;150;156.4;57;57.2;0;0.0;29.0;-1.0;
15/06/2019 06:27:23;117;0;239.54;17;17.68;3.53;31.1;10.20;69103;5127.411;-12829.130;246;150;158.4;57;57.2;1;0.9;29.0;-1.0;
15/06/2019 06:27:43;117;0;241.22;17;17.01;3.65;29.4;10.20;69133;5127.411;-12829.130;246;150;156.4;57;57.2;-1;-1.4;29.0;-1.0;
15/06/2019 06:28:03;117;0;246.33;17;17.44;2.56;27.7;10.20;69143;5127.411;-12829.130;246;150;158.4;57;57.2;-5;-5.0;29.0;-1.0;
15/06/2019 06:28:23;117;0;241.82;17;17.07;0.80;26.0;10.20;69164;5127.411;-12829.130;246;150;158.4;57;57.2;-2;-1.8;29.0;-1.0;
15/06/2019 06:28:43;117;0;241.00;17;16.34;2.84;24.3;10.30;69178;5127.411;-12829.130;246;150;156.4;57;57.2;-2;-0.9;29.0;-1.0;
15/06/2019 06:29:03;117;0;238.56;17;15.70;2.72;22.9;10.30;69232;5127.411;-12829.130;246;150;158.4;57;57.2;-2;-0.9;29.0;-1.0;
15/06/2019 06:29:23;117;0;237.45;17;15.52;2.94;21.6;10.30;69253;5127.411;-12829.130;246;150;156.4;57;57.2;-2;-0.9;29.0;-1.0;
15/06/2019 06:29:43;117;0;239.25;17;15.74;2.86;20.2;10.30;69295;5127.411;-12829.130;246;150;158.4;57;57.2;-4;-4.1;29.0;-1.0;
15/06/2019 06:30:03;117;0;233.43;17;15.59;0.94;18.8;10.40;69328;5127.411;-12829.130;246;150;156.4;57;57.2;-1;-0.9;29.0;-1.0;
15/06/2019 06:30:23;117;0;242.55;17;15.65;3.30;17.4;10.40;69349;5127.411;-12829.130;246;150;156.4;57;57.4;-8;-8.1;29.0;-1.0;
15/06/2019 06:30:43;117;0;243.98;17;15.26;-0.52;16.1;10.50;69365;5127.411;-12829.130;246;150;156.4;57;57.2;-8;-8.6;29.0;-1.0;
15/06/2019 06:31:03;117;0;241.80;17;14.12;-0.88;15.0;10.50;69385;5127.411;-12829.130;246;150;158.4;57;57.2;-6;-5.4;29.0;-1.0;
15/06/2019 06:31:23;117;0;235.64;17;13.90;0.93;14.0;10.60;69415;5127.411;-12829.130;246;150;158.4;57;57.2;-3;-3.2;29.0;-1.0;
15/06/2019 06:31:43;117;0;232.52;17;13.85;2.26;12.9;10.60;69421;5127.411;-12829.130;246;150;156.4;57;57.2;-2;-1.8;29.0;-1.0;
15/06/2019 06:32:03;117;0;231.77;17;13.72;2.95;11.8;10.60;69439;5127.411;-12829.130;246;150;158.4;57;57.2;-3;-3.2;29.0;-1.0;
15/06/2019 06:32:23;117;0;230.21;17;14.07;1.79;10.6;10.70;69464;5127.411;-12829.130;246;150;158.4;57;57.4;-3;-3.6;29.0;-1.0;
