Timestamp;NavState;SecurityLevel;Heading;Declination;Pitch;Roll;Depth;Temperature;Pa;Lat;Lon;DesiredH;BallastCmd;BallastPos;LinCmd;LinPos;AngCmd;AngPos;Voltage;Altitude;
15/06/2019 01:09:13;117;0;247.20;17;14.40;2.39;9.4;10.60;69382;5128.276;-12826.705;266;150;158.4;57;56.9;-2;-2.3;29.0;-1.0;
15/06/2019 01:09:23;110;0;243.99;17;14.90;1.88;8.7;10.60;69405;5128.276;-12826.705;266;-300;-55.4;73;73.3;0;0.5;29.1;-1.0;
15/06/2019 01:09:33;110;0;246.08;17;-9.75;3.94;8.3;10.70;69929;5128.276;-12826.705;266;-300;-303.0;73;72.9;0;0.5;28.9;-1.0;
15/06/2019 01:09:43;110;0;255.58;17;-22.56;3.97;9.1;10.70;70215;5128.276;-12826.705;266;-300;-303.0;73;72.9;0;0.9;29.1;-1.0;
15/06/2019 01:09:53;100;0;263.27;17;-27.24;3.77;10.8;10.70;70210;5128.276;-12826.705;266;-300;-305.0;73;73.0;0;0.9;29.0;-1.0;
15/06/2019 01:10:13;100;0;246.23;17;-26.17;3.87;14.7;10.70;70195;5128.276;-12826.705;266;-300;-305.0;73;72.9;0;0.9;29.0;0.0;
15/06/2019 01:10:33;100;0;240.86;17;-25.99;3.84;19.1;10.80;70172;5128.276;-12826.705;266;-300;-305.0;73;73.0;-5;-5.0;28.9;0.0;
15/06/2019 01:10:53;100;0;234.72;17;-25.23;1.04;23.4;10.80;70146;5128.276;-12826.705;266;-300;-305.0;73;72.9;-7;-7.2;29.0;0.0;
15/06/2019 01:11:13;100;0;223.66;17;-25.21;0.17;27.5;10.80;70102;5128.276;-12826.705;266;-300;-305.0;73;72.9;-12;-12.2;29.0;0.0;
15/06/2019 01:11:33;100;0;219.07;17;-24.74;-2.38;31.6;10.90;70054;5128.276;-12826.705;266;-300;-305.0;73;73.0;-12;-12.6;29.0;0.0;
15/06/2019 01:11:53;100;0;215.28;17;-24.97;-2.37;35.4;10.80;70016;5128.276;-12826.705;266;-300;-306.9;73;73.0;-13;-13.1;29.0;0.0;
15/06/2019 01:12:13;100;0;213.40;17;-24.88;-2.27;39.4;10.80;69985;5128.276;-12826.705;266;-300;-305.0;73;73.0;-13;-12.6;29.1;0.0;
15/06/2019 01:12:33;100;0;207.42;17;-24.22;-2.49;43.3;10.80;69960;5128.276;-12826.705;266;-300;-305.0;73;73.0;-16;-15.8;29.0;0.0;
15/06/2019 01:12:53;100;0;208.33;17;-23.97;-4.08;47.2;10.80;69939;5128.276;-12826.705;266;-300;-305.0;73;72.9;-14;-13.5;29.0;0.0;
15/06/2019 01:13:13;100;0;207.09;17;-23.95;-2.39;51.0;10.80;69913;5128.276;-12826.705;266;-300;-305.0;73;73.0;-14;-13.1;29.0;0.0;
15/06/2019 01:13:33;100;0;202.91;17;-24.50;-2.47;54.6;10.80;69901;5128.276;-12826.705;266;-300;-305.0;73;72.9;-19;-19.0;29.0;0.0;
15/06/2019 01:13:53;100;0;197.66;17;-23.80;-5.31;58.5;10.70;69877;5128.276;-12826.705;266;-300;-305.0;73;73.0;-22;-22.1;29.0;0.0;
15/06/2019 01:14:13;100;0;200.83;17;-24.11;-6.88;62.2;10.70;69877;5128.276;-12826.705;266;-300;-305.0;73;73.0;-21;-21.2;29.0;0.0;
15/06/2019 01:14:33;100;0;197.34;17;-23.40;-5.92;65.8;10.70;69857;5128.276;-12826.705;266;-300;-305.0;73;72.9;-24;-23.9;29.0;0.0;
15/06/2019 01:14:53;100;0;193.02;17;-23.64;-7.75;69.3;10.70;69839;5128.276;-12826.705;266;-300;-305.0;73;72.9;-28;-28.0;29.0;0.0;
15/06/2019 01:15:13;100;0;192.07;17;-23.59;-9.55;72.7;10.70;69830;5128.276;-12826.705;266;-300;-306.9;73;73.0;-27;-26.6;29.0;0.0;
15/06/2019 01:15:33;100;0;192.87;17;-23.27;-8.55;76.1;10.70;69828;5128.276;-12826.705;266;-300;-305.0;73;72.9;-26;-26.2;29.0;0.0;
15/06/2019 01:15:53;100;0;186.00;17;-22.84;-8.61;79.6;10.60;69816;5128.276;-12826.705;266;-300;-305.0;73;72.9;-30;-29.8;29.0;0.0;
15/06/2019 01:16:13;100;0;183.62;17;-22.70;-10.57;82.8;10.60;69795;5128.276;-12826.705;266;-300;-305.0;73;72.9;-30;-30.2;29.0;0.0;
15/06/2019 01:16:33;100;0;184.90;17;-23.01;-10.59;85.9;10.60;69801;5128.276;-12826.705;266;-300;-305.0;73;72.9;-28;-28.0;29.0;0.0;
15/06/2019 01:16:53;100;0;183.02;17;-22.10;-9.24;89.1;10.60;69785;5128.276;-12826.705;266;-300;-305.0;73;73.0;-28;-27.1;29.0;0.0;
15/06/2019 01:17:13;100;0;184.75;17;-21.69;-9.14;92.1;10.60;69784;5128.276;-12826.705;266;-300;-305.0;73;73.0;-27;-27.1;29.0;0.0;
15/06/2019 01:17:33;100;0;188.99;17;-21.67;-9.28;95.2;10.60;69768;5128.276;-12826.705;266;-300;-305.0;73;72.9;-25;-24.8;29.0;0.0;
15/06/2019 01:17:53;100;0;199.05;17;-21.29;-7.72;98.1;10.50;69761;5128.276;-12826.705;266;-300;-305.0;73;72.9;-19;-19.0;29.1;0.0;
15/06/2019 01:18:13;100;0;204.73;17;-21.08;-4.79;101.0;10.50;69756;5128.276;-12826.705;266;-300;-305.0;73;72.9;-19;-18.1;29.0;0.0;
15/06/2019 01:18:34;100;0;203.03;17;-21.22;-4.80;103.7;10.50;69755;5128.276;-12826.705;266;-300;-305.0;73;72.9;-22;-22.1;29.0;0.0;
15/06/2019 01:18:54;100;0;201.55;17;-21.21;-6.94;106.3;10.50;69741;5128.276;-12826.705;266;-300;-305.0;73;72.9;-24;-23.9;29.0;0.0;
15/06/2019 01:19:14;100;0;198.44;17;-21.41;-7.76;108.9;10.50;69741;5128.276;-12826.705;266;-300;-305.0;73;72.9;-26;-26.2;29.0;0.0;
15/06/2019 01:19:34;100;0;201.97;17;-21.40;-8.87;111.5;10.40;69742;5128.276;-12826.705;266;-300;-305.0;73;73.0;-23;-23.0;29.0;0.0;
15/06/2019 01:19:54;100;0;201.50;17;-20.66;-6.67;114.0;10.40;69724;5128.276;-12826.705;266;-300;-305.0;73;72.9;-24;-23.9;29.0;0.0;
15/06/2019 01:20:14;100;0;197.85;17;-20.81;-7.99;116.6;10.40;69718;5128.276;-12826.705;266;-300;-305.0;73;72.9;-26;-26.2;29.1;0.0;
15/06/2019 01:20:34;100;0;196.21;17;-20.86;-9.13;119.2;10.40;69705;5128.276;-12826.705;266;-300;-305.0;73;72.9;-26;-26.6;29.0;0.0;
15/06/2019 01:20:54;100;0;200.55;17;-20.73;-9.05;121.7;10.40;69709;5128.276;-12826.705;266;-300;-305.0;73;72.9;-23;-23.0;29.0;0.0;
15/06/2019 01:21:14;100;0;204.07;17;-19.94;-6.97;124.3;10.30;69692;5128.276;-12826.705;266;-300;-305.0;73;72.9;-21;-21.2;29.0;0.0;
15/06/2019 01:21:34;100;0;206.11;17;-19.67;-5.99;126.7;10.30;69677;5128.276;-12826.705;266;-300;-305.0;73;72.9;-21;-20.3;29.0;0.0;
15/06/2019 01:21:54;100;0;207.35;17;-19.92;-6.10;129.2;10.30;69683;5128.276;-12826.705;266;-300;-305.0;73;73.0;-21;-20.3;29.0;0.0;
15/06/2019 01:22:14;100;0;206.71;17;-19.62;-6.03;131.7;10.30;69671;5128.276;-12826.705;266;-300;-305.0;73;72.9;-23;-23.0;29.0;0.0;
15/06/2019 01:22:34;100;0;207.14;17;-20.08;-7.51;134.1;10.20;69662;5128.276;-12826.705;266;-300;-306.9;73;73.0;-22;-22.1;29.0;0.0;
15/06/2019 01:22:54;100;0;205.65;17;-19.48;-6.53;136.5;10.20;69642;5128.276;-12826.705;266;-300;-305.0;73;72.9;-24;-23.9;29.0;0.0;
15/06/2019 01:23:14;100;0;204.50;17;-19.01;-7.92;138.9;10.20;69637;5128.276;-12826.705;266;-300;-305.0;73;72.9;-24;-24.4;29.0;0.0;
15/06/2019 01:23:34;100;0;204.33;17;-19.55;-8.02;141.2;10.10;69613;5128.276;-12826.705;266;-300;-306.9;73;72.9;-24;-24.4;29.0;0.0;
15/06/2019 01:23:54;100;0;206.98;17;-19.38;-8.03;143.5;10.10;69611;5128.276;-12826.705;266;-300;-305.0;73;73.0;-22;-22.1;29.0;0.0;
15/06/2019 01:24:14;100;0;208.90;17;-19.34;-6.55;145.8;10.10;69599;5128.276;-12826.705;266;-300;-305.0;73;72.9;-21;-21.2;29.0;0.0;
15/06/2019 01:24:34;100;0;210.16;17;-19.41;-6.63;148.3;10.10;69588;5128.276;-12826.705;266;-300;-305.0;73;72.9;-21;-21.2;29.0;44.9;
15/06/2019 01:24:54;100;0;210.11;17;-19.43;-6.56;150.5;10.00;69580;5128.276;-12826.705;266;-300;-306.9;73;72.9;-21;-21.2;29.0;42.4;
15/06/2019 01:25:14;100;0;209.84;17;-19.65;-6.61;152.9;10.00;69581;5128.276;-12826.705;266;-300;-305.0;73;73.0;-22;-22.1;29.0;40.0;
15/06/2019 01:25:34;100;0;209.15;17;-19.25;-7.04;155.2;10.00;69567;5128.276;-12826.705;266;-300;-305.0;73;72.9;-22;-22.6;29.0;37.6;
15/06/2019 01:25:54;100;0;211.81;17;-18.98;-7.05;157.7;9.90;69545;5128.276;-12826.705;266;-300;-303.0;73;73.0;-21;-20.8;29.0;35.1;
15/06/2019 01:26:14;100;0;213.53;17;-18.97;-6.12;160.1;9.90;69549;5128.276;-12826.705;266;-300;-305.0;73;73.0;-20;-19.9;29.0;32.6;
15/06/2019 01:26:34;100;0;215.01;17;-18.90;-5.49;162.4;9.90;69544;5128.276;-12826.705;266;-300;-305.0;73;73.0;-20;-19.4;29.0;30.3;
15/06/2019 01:26:54;100;0;215.57;17;-18.72;-5.47;164.8;9.90;69547;5128.276;-12826.705;266;-300;-306.9;73;72.9;-20;-19.0;29.0;27.7;
15/06/2019 01:27:14;100;0;215.75;17;-18.50;-5.42;167.1;9.80;69532;5128.276;-12826.705;266;-300;-306.9;73;72.9;-21;-21.2;29.0;25.4;
15/06/2019 01:27:34;100;0;216.73;17;-18.64;-6.74;169.5;9.80;69528;5128.276;-12826.705;266;-300;-305.0;73;72.9;-20;-19.9;29.0;23.0;
15/06/2019 01:27:54;100;0;215.20;17;-18.68;-5.61;171.6;9.80;69524;5128.276;-12826.705;266;-300;-305.0;73;72.9;-21;-21.2;29.0;20.7;
15/06/2019 01:28:14;100;0;214.59;17;-18.82;-6.70;173.8;9.70;69515;5128.276;-12826.705;266;-300;-305.0;73;72.9;-22;-22.1;29.0;18.6;
15/06/2019 01:28:34;118;0;214.66;17;-18.85;-7.24;175.9;9.70;69519;5128.276;-12826.705;266;150;-291.1;57;56.6;0;0.9;29.0;16.4;
15/06/2019 01:28:44;118;0;159.14;17;2.27;3.89;176.8;9.70;69424;5128.276;-12826.705;266;150;-134.7;57;57.1;0;0.5;28.5;16.4;
15/06/2019 01:28:54;118;0;161.79;17;19.54;3.55;176.5;9.70;69220;5128.276;-12826.705;266;150;19.8;57;57.1;0;0.5;28.5;-1.0;
15/06/2019 01:29:04;118;0;161.36;17;23.85;3.69;175.6;9.70;68954;5128.276;-12826.705;266;150;156.4;57;56.9;0;0.9;28.5;-1.0;
15/06/2019 01:29:14;118;0;208.31;17;24.70;4.41;174.4;9.70;68743;5128.276;-12826.705;266;150;156.4;57;56.9;0;0.9;29.0;-1.0;
15/06/2019 01:29:24;118;0;208.79;17;26.92;3.85;172.8;9.70;68758;5128.276;-12826.705;266;150;158.4;57;56.9;0;0.9;29.0;-1.0;
15/06/2019 01:29:34;117;0;210.11;17;27.78;3.64;170.8;9.70;68753;5128.276;-12826.705;266;150;156.4;57;56.9;0;0.9;29.0;-1.0;
15/06/2019 01:29:54;117;0;208.50;17;27.88;3.85;166.5;9.60;68753;5128.276;-12826.705;266;150;156.4;57;56.9;25;24.8;29.0;-1.0;
15/06/2019 01:30:14;117;0;217.07;17;27.56;15.89;161.7;9.60;68755;5128.276;-12826.705;266;150;156.4;57;56.9;19;18.5;29.0;-1.0;
15/06/2019 01:30:34;117;0;218.77;17;28.02;12.13;157.2;9.60;68749;5128.276;-12826.705;266;150;156.4;57;56.9;19;18.1;29.0;-1.0;
15/06/2019 01:30:54;117;0;226.02;17;28.02;12.13;152.5;9.60;68760;5128.276;-12826.705;266;150;156.4;57;56.9;15;14.4;29.0;-1.0;
15/06/2019 01:31:14;117;0;230.31;17;28.23;10.18;147.7;9.50;68750;5128.276;-12826.705;266;150;156.4;57;56.9;15;14.4;29.0;-1.0;
15/06/2019 01:31:34;117;0;236.72;17;28.34;10.21;142.7;9.50;68749;5128.276;-12826.705;266;150;156.4;57;56.9;13;12.6;29.1;-1.0;
15/06/2019 01:31:54;117;0;238.75;17;27.35;8.99;138.0;9.50;68761;5128.276;-12826.705;266;150;158.4;57;56.9;14;14.0;29.0;-1.0;
15/06/2019 01:32:14;117;0;243.14;17;26.81;10.33;133.8;9.50;68776;5128.276;-12826.705;266;150;156.4;57;56.9;12;12.2;29.0;-1.0;
15/06/2019 01:32:34;117;0;244.93;17;26.46;8.62;129.7;9.40;68792;5128.276;-12826.705;266;150;156.4;57;56.9;13;13.1;29.0;-1.0;
15/06/2019 01:32:54;117;0;246.92;17;26.55;10.08;125.5;9.40;68802;5128.276;-12826.705;266;150;156.4;57;56.9;13;14.0;29.0;-1.0;
15/06/2019 01:33:14;117;0;247.47;17;26.20;9.95;121.3;9.40;68801;5128.276;-12826.705;266;150;156.4;57;56.9;13;14.0;29.0;-1.0;
15/06/2019 01:33:34;117;0;255.22;17;25.18;10.06;117.4;9.40;68814;5128.276;-12826.705;266;150;156.4;57;56.9;13;14.0;29.0;-1.0;
15/06/2019 01:33:54;117;0;260.00;17;24.82;9.84;113.8;9.40;68827;5128.276;-12826.705;266;150;156.4;57;56.9;9;9.0;29.0;-1.0;
15/06/2019 01:34:14;117;0;259.13;17;25.39;7.31;110.1;9.40;68841;5128.276;-12826.705;266;150;158.4;57;56.9;10;9.9;29.0;-1.0;
15/06/2019 01:34:34;117;0;264.27;17;24.63;8.52;106.5;9.40;68838;5128.276;-12826.705;266;150;156.4;57;56.9;7;7.2;29.0;-1.0;
15/06/2019 01:34:54;117;0;265.21;17;24.59;6.40;103.1;9.40;68846;5128.276;-12826.705;266;150;156.4;57;56.9;7;6.8;29.0;-1.0;
15/06/2019 01:35:14;117;0;266.12;17;24.79;6.41;99.6;9.40;68847;5128.276;-12826.705;266;150;156.4;57;56.9;7;6.8;29.0;-1.0;
15/06/2019 01:35:34;117;0;261.94;17;25.55;6.38;96.1;9.40;68843;5128.276;-12826.705;266;150;156.4;57;56.9;10;9.9;29.0;-1.0;
15/06/2019 01:35:54;117;0;255.64;17;24.84;8.69;92.3;9.40;68857;5128.276;-12826.705;266;150;156.4;57;56.9;13;13.1;29.0;-1.0;
15/06/2019 01:36:14;117;0;258.28;17;23.45;9.59;89.0;9.40;68857;5128.276;-12826.705;266;150;158.4;57;56.9;9;8.6;29.0;-1.0;
15/06/2019 01:36:34;117;0;253.78;17;23.70;7.11;86.0;9.40;68874;5128.276;-12826.705;266;150;156.4;57;56.9;12;12.2;29.0;-1.0;
15/06/2019 01:36:54;117;0;257.94;17;23.00;9.36;83.0;9.40;68884;5128.276;-12826.705;266;150;158.4;57;56.9;8;7.7;29.0;-1.0;
15/06/2019 01:37:14;117;0;266.84;17;22.09;6.59;80.2;9.40;68874;5128.276;-12826.705;266;150;156.4;57;56.9;2;1.8;29.0;-1.0;
15/06/2019 01:37:34;117;0;265.35;17;22.37;3.74;77.5;9.40;68884;5128.276;-12826.705;266;150;158.4;57;56.9;4;4.1;29.0;-1.0;
15/06/2019 01:37:54;117;0;264.64;17;22.23;5.52;74.9;9.40;68879;5128.276;-12826.705;266;150;158.4;57;56.9;5;5.0;29.0;-1.0;
15/06/2019 01:38:14;117;0;261.31;17;21.81;5.71;72.3;9.40;68895;5128.276;-12826.705;266;150;158.4;57;56.9;6;5.9;29.0;-1.0;
15/06/2019 01:38:34;117;0;261.56;17;21.40;6.33;69.8;9.40;68891;5128.276;-12826.705;266;150;154.5;57;56.9;5;5.0;29.0;-1.0;
15/06/2019 01:38:54;117;0;268.35;17;21.22;5.28;67.5;9.40;68902;5128.276;-12826.705;266;150;158.4;57;56.9;1;0.9;29.0;-1.0;
15/06/2019 01:39:14;117;0;267.44;17;21.32;3.31;65.0;9.40;68899;5128.276;-12826.705;266;150;156.4;57;56.9;2;1.8;29.0;-1.0;
15/06/2019 01:39:34;117;0;265.07;17;20.79;4.51;62.7;9.40;68910;5128.276;-12826.705;266;150;156.4;57;56.9;3;3.2;29.0;-1.0;
15/06/2019 01:39:54;117;0;260.86;17;20.84;5.04;60.4;9.40;68918;5128.276;-12826.705;266;150;156.4;57;56.9;5;5.0;29.0;-1.0;
15/06/2019 01:40:14;117;0;262.71;17;20.25;5.78;58.0;9.40;68918;5128.276;-12826.705;266;150;156.4;57;56.9;2;1.8;29.0;-1.0;
15/06/2019 01:40:34;117;0;261.79;17;20.11;3.82;55.6;9.40;68926;5128.276;-12826.705;266;150;156.4;57;56.9;2;1.4;29.1;-1.0;
15/06/2019 01:40:54;117;0;258.90;17;20.07;3.90;53.4;9.40;68946;5128.276;-12826.705;266;150;156.4;57;56.9;3;3.2;29.0;-1.0;
15/06/2019 01:41:14;117;0;260.77;17;19.99;5.08;51.2;9.40;68946;5128.276;-12826.705;266;150;158.4;57;56.9;1;0.9;29.0;-1.0;
15/06/2019 01:41:34;117;0;259.32;17;19.93;3.39;48.9;9.50;68954;5128.276;-12826.705;266;150;156.4;57;57.1;1;0.5;29.0;-1.0;
15/06/2019 01:41:54;117;0;258.14;17;20.02;3.35;46.6;9.50;68972;5128.276;-12826.705;266;150;156.4;57;56.9;1;0.5;29.0;-1.0;
15/06/2019 01:42:14;117;0;258.38;17;19.56;3.40;44.2;9.50;68963;5128.276;-12826.705;266;150;158.4;57;56.9;1;0.5;29.0;-1.0;
15/06/2019 01:42:34;117;0;258.31;17;19.43;3.37;42.1;9.50;68971;5128.276;-12826.705;266;150;156.4;57;57.1;0;-0.5;29.0;-1.0;
15/06/2019 01:42:54;117;0;255.90;17;19.34;2.82;39.7;9.50;68968;5128.276;-12826.705;266;150;156.4;57;56.9;2;1.8;29.0;-1.0;
15/06/2019 01:43:14;117;0;256.18;17;18.76;4.18;37.5;9.50;68979;5128.276;-12826.705;266;150;156.4;57;56.9;0;-0.5;29.0;-1.0;
15/06/2019 01:43:34;117;0;249.71;17;18.90;2.73;35.5;9.50;68992;5128.276;-12826.705;266;150;156.4;57;56.9;0;-0.9;29.0;-1.0;
15/06/2019 01:43:54;117;0;249.43;17;18.45;2.80;33.5;9.60;69011;5128.276;-12826.705;266;150;156.4;57;56.9;0;-0.9;29.0;-1.0;
15/06/2019 01:44:14;117;0;248.73;17;18.82;2.80;31.5;9.60;69011;5128.276;-12826.705;266;150;158.4;57;56.9;0;-0.9;29.0;-1.0;
15/06/2019 01:44:34;117;0;248.58;17;18.36;2.78;29.3;9.60;69029;5128.276;-12826.705;266;150;156.4;57;56.9;0;-0.9;29.0;-1.0;
15/06/2019 01:44:54;117;0;245.69;17;17.86;2.81;27.3;9.60;69042;5128.276;-12826.705;266;150;158.4;57;56.9;3;3.2;29.0;-1.0;
15/06/2019 01:45:14;117;0;247.10;17;17.35;5.36;25.5;9.60;69071;5128.276;-12826.705;266;150;158.4;57;56.9;2;1.8;29.0;-1.0;
15/06/2019 01:45:34;117;0;252.73;17;17.01;3.74;23.8;9.60;69092;5128.276;-12826.705;266;150;158.4;57;56.9;2;0.9;29.0;-1.0;
15/06/2019 01:45:54;117;0;248.16;17;16.75;3.68;22.1;9.70;69116;5128.276;-12826.705;266;150;156.4;57;56.9;2;0.9;29.0;-1.0;
15/06/2019 01:46:14;117;0;246.33;17;16.87;3.76;20.2;9.70;69142;5128.276;-12826.705;266;150;158.4;57;57.1;2;0.9;29.0;-1.0;
15/06/2019 01:46:34;117;0;246.44;17;16.47;3.78;18.5;9.70;69157;5128.276;-12826.705;266;150;158.4;57;56.9;2;0.9;29.0;-1.0;
15/06/2019 01:46:54;117;0;247.76;17;16.45;3.76;16.8;9.80;69188;5128.276;-12826.705;266;150;156.4;57;57.1;2;1.4;29.0;-1.0;
15/06/2019 01:47:14;117;0;243.23;17;16.29;3.73;15.1;9.80;69219;5128.276;-12826.705;266;150;158.4;57;56.9;4;4.1;29.0;-1.0;
15/06/2019 01:47:34;117;0;242.00;17;16.36;5.66;13.4;9.80;69244;5128.276;-12826.705;266;150;158.4;57;56.9;5;5.0;29.0;-1.0;
15/06/2019 01:47:54;117;0;247.57;17;15.56;6.04;11.7;9.90;69254;5128.276;-12826.705;266;150;156.4;57;56.9;1;0.9;29.0;-1.0;
