Timestamp;NavState;SecurityLevel;Heading;Declination;Pitch;Roll;Depth;Temperature;Pa;Lat;Lon;DesiredH;BallastCmd;BallastPos;LinCmd;LinPos;AngCmd;AngPos;Voltage;Altitude;
16/06/2019 16:39:09;117;0;30.50;17;16.44;3.68;3.5;10.60;69502;5125.617;-12838.252;54;150;158.4;57;57.1;-1;-0.9;28.7;-1.0;
16/06/2019 16:39:19;110;0;30.71;17;15.58;3.09;2.6;10.60;69507;5125.617;-12838.252;54;-300;41.6;73;73.3;0;0.9;28.7;-1.0;
16/06/2019 16:39:29;110;0;42.06;17;-10.17;4.43;2.1;10.70;69780;5125.617;-12838.252;54;-300;-118.8;73;72.9;0;1.4;28.6;-1.0;
16/06/2019 16:39:39;110;0;34.43;17;-24.24;4.91;2.7;10.70;70003;5125.617;-12838.252;54;-300;-299.0;73;72.9;0;1.4;28.6;-1.0;
16/06/2019 16:39:49;110;0;29.61;17;-26.29;3.68;4.0;10.70;70315;5125.617;-12838.252;54;-300;-308.9;73;72.9;0;0.9;28.6;-1.0;
16/06/2019 16:39:59;110;0;15.24;17;-28.23;4.54;5.7;10.80;70309;5125.617;-12838.252;54;-300;-310.9;73;72.9;0;0.9;28.7;-1.0;
16/06/2019 16:40:09;100;0;15.14;17;-26.99;3.70;7.7;10.80;70315;5125.617;-12838.252;54;-300;-308.9;73;72.9;0;0.9;28.6;-1.0;
16/06/2019 16:40:29;100;0;12.40;17;-26.78;4.13;12.1;10.80;70315;5125.617;-12838.252;54;-300;-310.9;73;72.9;-9;-9.0;28.6;0.0;
16/06/2019 16:40:49;100;0;7.85;17;-26.51;-0.58;17.0;10.90;70306;5125.617;-12838.252;54;-300;-308.9;73;72.9;-10;-10.4;28.6;0.0;
16/06/2019 16:41:09;100;0;3.94;17;-25.54;-1.12;21.5;10.90;70270;5125.617;-12838.252;54;-300;-310.9;73;72.9;-10;-10.4;28.7;0.0;
16/06/2019 16:41:29;100;0;357.27;17;-25.02;-1.49;25.9;11.00;70237;5125.617;-12838.252;54;-300;-310.9;73;72.9;-12;-12.2;28.7;0.0;
16/06/2019 16:41:49;100;0;350.51;17;-25.11;-2.46;30.2;11.00;70180;5125.617;-12838.252;54;-300;-308.9;73;72.9;-16;-16.2;28.7;0.0;
16/06/2019 16:42:09;100;0;347.51;17;-24.63;-3.99;34.5;11.00;70138;5125.617;-12838.252;54;-300;-308.9;73;72.9;-17;-17.1;28.7;0.0;
16/06/2019 16:42:29;100;0;348.80;17;-24.51;-4.50;38.8;11.00;70111;5125.617;-12838.252;54;-300;-310.9;73;72.9;-17;-17.6;28.7;0.0;
16/06/2019 16:42:49;100;0;349.14;17;-24.88;-4.38;43.0;11.00;70081;5125.617;-12838.252;54;-300;-310.9;73;72.9;-17;-17.6;28.7;0.0;
16/06/2019 16:43:10;100;0;353.88;17;-24.31;-4.59;47.1;11.00;70062;5125.617;-12838.252;54;-300;-310.9;73;72.9;-16;-15.8;28.7;0.0;
16/06/2019 16:43:30;100;0;355.02;17;-23.92;-3.27;51.1;10.90;70022;5125.617;-12838.252;54;-300;-310.9;73;72.9;-16;-15.3;28.7;0.0;
16/06/2019 16:43:50;100;0;347.67;17;-24.46;-3.46;55.0;11.00;70005;5125.617;-12838.252;54;-300;-310.9;73;72.9;-23;-23.5;28.7;0.0;
16/06/2019 16:44:10;100;0;346.75;17;-24.42;-7.37;58.8;10.90;69980;5125.617;-12838.252;54;-300;-308.9;73;72.9;-24;-23.9;28.7;0.0;
16/06/2019 16:44:30;100;0;347.43;17;-24.34;-7.67;62.7;10.90;69954;5125.617;-12838.252;54;-300;-310.9;73;72.9;-25;-24.8;28.7;0.0;
16/06/2019 16:44:50;100;0;349.66;17;-24.18;-8.19;66.5;10.90;69952;5125.617;-12838.252;54;-300;-308.9;73;72.9;-23;-23.0;28.7;0.0;
16/06/2019 16:45:10;100;0;350.12;17;-23.44;-6.72;70.3;10.90;69920;5125.617;-12838.252;54;-300;-310.9;73;72.9;-23;-22.6;28.7;0.0;
16/06/2019 16:45:30;100;0;345.60;17;-23.57;-6.75;73.9;10.90;69905;5125.617;-12838.252;54;-300;-308.9;73;72.9;-26;-26.6;28.7;0.0;
16/06/2019 16:45:50;100;0;347.95;17;-23.32;-9.09;77.4;10.90;69886;5125.617;-12838.252;54;-300;-308.9;73;72.9;-24;-23.9;28.7;0.0;
16/06/2019 16:46:10;100;0;348.55;17;-23.40;-7.22;80.7;10.80;69868;5125.617;-12838.252;54;-300;-310.9;73;72.9;-24;-23.0;28.7;0.0;
16/06/2019 16:46:30;100;0;354.58;17;-23.00;-7.28;84.0;10.80;69853;5125.617;-12838.252;54;-300;-308.9;73;72.9;-20;-19.9;28.7;0.0;
16/06/2019 16:46:50;100;0;357.84;17;-22.54;-5.18;87.4;10.80;69837;5125.617;-12838.252;54;-300;-308.9;73;72.9;-20;-19.0;28.7;0.0;
16/06/2019 16:47:10;100;0;353.74;17;-22.42;-5.25;90.6;10.80;69833;5125.617;-12838.252;54;-300;-310.9;73;72.9;-23;-23.0;28.7;0.0;
16/06/2019 16:47:30;100;0;353.70;17;-22.75;-7.39;94.0;10.70;69819;5125.617;-12838.252;54;-300;-308.9;73;72.9;-23;-23.5;28.7;0.0;
16/06/2019 16:47:50;100;0;351.04;17;-22.36;-7.41;97.3;10.70;69809;5125.617;-12838.252;54;-300;-310.9;73;72.9;-24;-23.9;28.7;0.0;
16/06/2019 16:48:10;100;0;354.02;17;-22.18;-7.86;100.5;10.70;69797;5125.617;-12838.252;54;-300;-310.9;73;72.9;-22;-22.1;28.7;0.0;
16/06/2019 16:48:30;100;0;358.84;17;-21.65;-6.40;103.5;10.70;69787;5125.617;-12838.252;54;-300;-308.9;73;72.9;-20;-19.4;28.7;0.0;
16/06/2019 16:48:50;100;0;1.06;17;-21.50;-5.14;106.5;10.70;69787;5125.617;-12838.252;54;-300;-308.9;73;72.9;-19;-19.0;28.7;0.0;
16/06/2019 16:49:10;100;0;2.54;17;-20.81;-5.09;109.3;10.60;69771;5125.617;-12838.252;54;-300;-310.9;73;72.9;-20;-20.3;28.7;0.0;
16/06/2019 16:49:30;100;0;10.96;17;-21.53;-6.11;112.0;10.60;69761;5125.617;-12838.252;54;-300;-308.9;73;72.9;-16;-15.8;28.7;0.0;
16/06/2019 16:49:50;100;0;14.65;17;-21.41;-3.66;114.6;10.60;69755;5125.617;-12838.252;54;-300;-308.9;73;72.9;-16;-14.9;28.7;0.0;
16/06/2019 16:50:10;100;0;17.21;17;-20.97;-3.34;117.2;10.60;69739;5125.617;-12838.252;54;-300;-310.9;73;72.9;-16;-14.9;28.7;0.0;
16/06/2019 16:50:30;100;0;21.31;17;-19.71;-3.38;119.8;10.50;69733;5125.617;-12838.252;54;-300;-308.9;73;72.9;-15;-14.9;28.7;0.0;
16/06/2019 16:50:50;100;0;20.74;17;-19.64;-3.44;122.3;10.50;69720;5125.617;-12838.252;54;-300;-308.9;73;72.7;-17;-17.1;28.7;0.0;
16/06/2019 16:51:10;100;0;27.62;17;-19.65;-4.76;124.7;10.50;69713;5125.617;-12838.252;54;-300;-308.9;73;72.7;-13;-12.6;28.7;0.0;
16/06/2019 16:51:30;100;0;22.28;17;-19.80;-2.28;127.0;10.50;69706;5125.617;-12838.252;54;-300;-308.9;73;72.9;-18;-18.5;28.7;0.0;
16/06/2019 16:51:50;100;0;19.28;17;-19.69;-5.25;129.4;10.40;69693;5125.617;-12838.252;54;-300;-310.9;73;72.9;-19;-19.0;28.7;0.0;
16/06/2019 16:52:10;100;0;17.25;17;-19.47;-5.16;132.0;10.40;69689;5125.617;-12838.252;54;-300;-310.9;73;72.9;-20;-19.9;28.7;0.0;
16/06/2019 16:52:30;100;0;17.06;17;-18.95;-6.00;134.4;10.40;69676;5125.617;-12838.252;54;-300;-308.9;73;72.9;-19;-18.5;28.7;0.0;
16/06/2019 16:52:50;100;0;15.74;17;-19.48;-4.78;136.7;10.40;69678;5125.617;-12838.252;54;-300;-308.9;73;72.9;-20;-19.9;28.7;0.0;
16/06/2019 16:53:10;100;0;16.63;17;-19.34;-5.93;138.9;10.30;69670;5125.617;-12838.252;54;-300;-310.9;73;72.9;-19;-19.0;28.7;0.0;
16/06/2019 16:53:30;100;0;14.06;17;-19.63;-5.16;141.0;10.30;69643;5125.617;-12838.252;54;-300;-310.9;73;72.9;-20;-19.9;28.7;0.0;
16/06/2019 16:53:50;100;0;13.51;17;-19.62;-6.07;143.1;10.30;69640;5125.617;-12838.252;54;-300;-308.9;73;72.7;-20;-20.3;28.7;0.0;
16/06/2019 16:54:10;100;0;10.25;17;-19.31;-5.94;145.3;10.20;69626;5125.617;-12838.252;54;-300;-310.9;73;72.9;-21;-21.2;28.7;0.0;
16/06/2019 16:54:30;100;0;11.37;17;-19.21;-6.79;147.5;10.20;69619;5125.617;-12838.252;54;-300;-308.9;73;72.9;-20;-19.9;28.6;0.0;
16/06/2019 16:54:50;100;0;10.25;17;-18.99;-5.62;149.8;10.20;69617;5125.617;-12838.252;54;-300;-310.9;73;72.9;-20;-19.4;28.7;0.0;
16/06/2019 16:55:10;100;0;7.50;17;-18.84;-5.64;151.9;10.10;69589;5125.617;-12838.252;54;-300;-310.9;73;72.7;-22;-22.6;28.6;0.0;
16/06/2019 16:55:30;100;0;8.58;17;-18.82;-7.27;154.0;10.10;69580;5125.617;-12838.252;54;-300;-308.9;73;72.9;-20;-19.9;28.6;0.0;
16/06/2019 16:55:50;100;0;9.32;17;-18.45;-5.51;156.1;10.10;69569;5125.617;-12838.252;54;-300;-308.9;73;72.9;-20;-19.0;28.7;0.0;
16/06/2019 16:56:10;100;0;9.51;17;-18.57;-5.53;158.3;10.10;69558;5125.617;-12838.252;54;-300;-310.9;73;72.9;-20;-19.0;28.7;0.0;
16/06/2019 16:56:30;100;0;8.25;17;-18.61;-5.49;160.3;10.00;69547;5125.617;-12838.252;54;-300;-310.9;73;72.9;-20;-19.0;28.7;0.0;
16/06/2019 16:56:50;100;0;7.06;17;-18.55;-5.47;162.5;10.00;69547;5125.617;-12838.252;54;-300;-310.9;73;72.9;-21;-21.2;28.6;0.0;
16/06/2019 16:57:10;100;0;8.44;17;-18.69;-6.61;164.6;9.90;69534;5125.617;-12838.252;54;-300;-310.9;73;72.9;-20;-19.9;28.7;0.0;
16/06/2019 16:57:30;100;0;8.61;17;-18.67;-5.59;166.6;9.90;69519;5125.617;-12838.252;54;-300;-308.9;73;72.9;-20;-19.4;28.7;0.0;
16/06/2019 16:57:50;100;0;8.79;17;-18.34;-5.59;168.7;9.90;69514;5125.617;-12838.252;54;-300;-310.9;73;72.9;-20;-19.4;28.7;43.0;
16/06/2019 16:58:10;100;0;9.41;17;-18.29;-5.77;170.8;9.90;69513;5125.617;-12838.252;54;-300;-310.9;73;72.9;-20;-19.4;28.6;40.8;
16/06/2019 16:58:30;100;0;8.59;17;-18.65;-5.58;172.8;9.80;69505;5125.617;-12838.252;54;-300;-310.9;73;72.9;-20;-19.4;28.7;38.7;
16/06/2019 16:58:50;100;0;9.63;17;-18.19;-5.63;175.0;9.80;69504;5125.617;-12838.252;54;-300;-308.9;73;72.9;-20;-19.4;28.7;36.5;
16/06/2019 16:59:10;100;0;9.95;17;-18.20;-5.59;177.1;9.70;69489;5125.617;-12838.252;54;-300;-310.9;73;72.9;-20;-19.4;28.7;34.3;
16/06/2019 16:59:30;100;0;10.38;17;-18.87;-5.70;179.2;9.70;69486;5125.617;-12838.252;54;-300;-308.9;73;72.9;-19;-19.0;28.7;32.3;
16/06/2019 16:59:50;100;0;10.55;17;-18.24;-4.98;181.4;9.70;69485;5125.617;-12838.252;54;-300;-310.9;73;72.9;-19;-18.1;28.6;29.9;
16/06/2019 17:00:10;100;0;10.34;17;-18.32;-5.06;183.5;9.70;69476;5125.617;-12838.252;54;-300;-308.9;73;72.9;-20;-19.9;28.7;27.9;
16/06/2019 17:00:30;100;0;10.56;17;-18.54;-6.10;185.6;9.60;69475;5125.617;-12838.252;54;-300;-308.9;73;72.9;-20;-20.3;28.7;25.6;
16/06/2019 17:00:50;100;0;11.07;17;-18.30;-6.01;187.8;9.60;69472;5125.617;-12838.252;54;-300;-310.9;73;72.9;-19;-19.0;28.7;23.5;
16/06/2019 17:01:10;100;0;10.00;17;-18.70;-5.07;189.8;9.60;69470;5125.617;-12838.252;54;-300;-308.9;73;72.9;-20;-19.9;28.7;21.1;
16/06/2019 17:01:30;100;0;11.26;17;-18.05;-6.06;192.1;9.60;69470;5125.617;-12838.252;54;-300;-310.9;73;72.9;-19;-19.0;28.7;19.0;
16/06/2019 17:01:50;118;0;11.39;17;-18.72;-5.11;194.1;9.50;69465;5125.617;-12838.252;54;150;-297.0;57;56.8;0;0.5;28.7;16.6;
16/06/2019 17:02:00;118;0;44.69;17;2.27;3.72;195.0;9.50;69378;5125.617;-12838.252;54;150;-138.6;57;57.1;0;0.5;28.0;16.6;
16/06/2019 17:02:10;118;0;43.00;17;19.48;3.52;194.7;9.50;69164;5125.617;-12838.252;54;150;17.8;57;57.1;0;0.5;28.1;-1.0;
16/06/2019 17:02:20;118;0;40.93;17;23.84;3.62;194.1;9.50;68912;5125.617;-12838.252;54;150;156.4;57;57.1;0;0.5;28.1;-1.0;
16/06/2019 17:02:30;118;0;6.55;17;24.81;4.59;192.9;9.50;68705;5125.617;-12838.252;54;150;156.4;57;57.1;0;0.5;28.7;-1.0;
16/06/2019 17:02:40;118;0;7.57;17;27.05;3.75;191.3;9.50;68723;5125.617;-12838.252;54;150;156.4;57;57.1;0;0.5;28.6;-1.0;
16/06/2019 17:02:50;117;0;6.21;17;27.93;3.95;189.4;9.40;68705;5125.617;-12838.252;54;150;156.4;57;56.9;0;0.5;28.6;-1.0;
16/06/2019 17:03:10;117;0;5.59;17;28.19;3.78;185.2;9.50;68720;5125.617;-12838.252;54;150;156.4;57;57.1;23;23.0;28.6;-1.0;
16/06/2019 17:03:30;117;0;13.55;17;28.11;14.95;180.3;9.40;68699;5125.617;-12838.252;54;150;156.4;57;56.9;17;17.1;28.6;-1.0;
16/06/2019 17:03:50;117;0;18.22;17;28.15;11.26;175.8;9.40;68704;5125.617;-12838.252;54;150;156.4;57;56.9;15;14.9;28.7;-1.0;
16/06/2019 17:04:10;117;0;22.06;17;28.21;10.07;171.4;9.40;68696;5125.617;-12838.252;54;150;156.4;57;57.1;14;14.0;28.7;-1.0;
16/06/2019 17:04:30;117;0;27.11;17;28.19;9.49;166.8;9.30;68696;5125.617;-12838.252;54;150;156.4;57;57.1;13;13.1;28.7;-1.0;
16/06/2019 17:04:50;117;0;30.95;17;28.26;9.60;162.4;9.30;68696;5125.617;-12838.252;54;150;156.4;57;56.9;13;13.1;28.7;-1.0;
16/06/2019 17:05:10;117;0;37.59;17;28.12;9.42;158.0;9.30;68688;5125.617;-12838.252;54;150;160.4;57;57.1;13;13.1;28.7;-1.0;
16/06/2019 17:05:30;117;0;40.35;17;27.86;9.56;153.5;9.30;68694;5125.617;-12838.252;54;150;156.4;57;56.9;11;10.8;28.7;-1.0;
16/06/2019 17:05:50;117;0;50.88;17;27.61;8.11;149.2;9.20;68698;5125.617;-12838.252;54;150;156.4;57;57.1;6;5.9;28.7;-1.0;
16/06/2019 17:06:10;117;0;60.40;17;27.53;5.82;144.8;9.20;68702;5125.617;-12838.252;54;150;156.4;57;56.9;2;1.8;28.7;-1.0;
16/06/2019 17:06:30;117;0;70.64;17;27.60;3.64;140.8;9.20;68716;5125.617;-12838.252;54;150;156.4;57;57.1;0;-0.5;28.7;-1.0;
16/06/2019 17:06:50;117;0;70.20;17;27.75;2.74;136.4;9.20;68727;5125.617;-12838.252;54;150;156.4;57;57.1;2;1.8;28.7;-1.0;
16/06/2019 17:07:10;117;0;68.20;17;26.21;4.36;132.1;9.20;68730;5125.617;-12838.252;54;150;156.4;57;56.9;4;4.1;28.7;-1.0;
16/06/2019 17:07:30;117;0;62.85;17;25.81;5.20;128.5;9.20;68749;5125.617;-12838.252;54;150;156.4;57;56.9;8;8.1;28.7;-1.0;
16/06/2019 17:07:50;117;0;68.22;17;25.67;7.52;125.1;9.20;68753;5125.617;-12838.252;54;150;156.4;57;56.9;3;3.2;28.7;-1.0;
16/06/2019 17:08:10;117;0;61.84;17;26.13;4.39;121.3;9.20;68770;5125.617;-12838.252;54;150;156.4;57;57.1;7;7.2;28.7;-1.0;
16/06/2019 17:08:30;117;0;52.38;17;26.03;7.10;117.6;9.20;68771;5125.617;-12838.252;54;150;158.4;57;57.1;10;10.4;28.7;-1.0;
16/06/2019 17:08:50;117;0;44.32;17;26.52;8.84;113.7;9.20;68771;5125.617;-12838.252;54;150;158.4;57;56.9;13;13.1;28.7;-1.0;
16/06/2019 17:09:10;117;0;40.90;17;26.35;10.16;109.5;9.20;68790;5125.617;-12838.252;54;150;158.4;57;57.1;12;12.2;28.6;-1.0;
16/06/2019 17:09:30;117;0;30.24;17;24.85;8.88;105.8;9.20;68796;5125.617;-12838.252;54;150;158.4;57;57.1;12;11.3;28.7;-1.0;
16/06/2019 17:09:50;117;0;28.23;17;24.21;8.86;102.3;9.20;68803;5125.617;-12838.252;54;150;160.4;57;56.9;14;14.0;28.7;-1.0;
16/06/2019 17:10:10;117;0;28.18;17;23.85;10.48;98.9;9.20;68814;5125.617;-12838.252;54;150;158.4;57;57.1;13;13.1;28.7;-1.0;
16/06/2019 17:10:30;117;0;34.72;17;22.31;9.11;95.4;9.20;68823;5125.617;-12838.252;54;150;156.4;57;56.9;9;9.0;28.7;-1.0;
16/06/2019 17:10:50;117;0;42.97;17;22.18;7.45;92.4;9.20;68820;5125.617;-12838.252;54;150;156.4;57;56.9;9;8.6;28.6;-1.0;
16/06/2019 17:11:10;117;0;51.49;17;22.15;7.25;89.3;9.20;68838;5125.617;-12838.252;54;150;156.4;57;56.9;1;0.9;28.7;-1.0;
16/06/2019 17:11:30;117;0;46.73;17;22.78;3.58;86.2;9.20;68843;5125.617;-12838.252;54;150;158.4;57;57.1;6;5.9;28.7;-1.0;
16/06/2019 17:11:50;117;0;47.56;17;22.21;6.52;82.9;9.20;68857;5125.617;-12838.252;54;150;158.4;57;57.1;5;4.5;28.7;-1.0;
16/06/2019 17:12:10;117;0;51.23;17;21.74;5.14;79.7;9.20;68851;5125.617;-12838.252;54;150;158.4;57;57.1;3;2.7;28.7;-1.0;
16/06/2019 17:12:30;117;0;59.22;17;20.99;4.15;76.7;9.20;68865;5125.617;-12838.252;54;150;156.4;57;56.9;0;0.0;28.7;-1.0;
16/06/2019 17:12:50;117;0;60.21;17;21.01;2.91;73.9;9.20;68882;5125.617;-12838.252;54;150;158.4;57;57.1;0;-0.5;28.7;-1.0;
16/06/2019 17:13:10;117;0;62.46;17;20.37;2.94;71.2;9.20;68887;5125.617;-12838.252;54;150;158.4;57;57.2;0;-0.5;28.7;-1.0;
16/06/2019 17:13:30;117;0;60.11;17;20.55;2.89;68.6;9.20;68894;5125.617;-12838.252;54;150;158.4;57;57.1;0;-0.5;28.7;-1.0;
16/06/2019 17:13:50;117;0;57.10;17;20.30;2.88;65.9;9.20;68914;5125.617;-12838.252;54;150;158.4;57;56.9;2;1.8;28.7;-1.0;
16/06/2019 17:14:10;117;0;53.92;17;20.18;4.32;63.1;9.20;68911;5125.617;-12838.252;54;150;158.4;57;57.1;3;3.6;28.7;-1.0;
16/06/2019 17:14:30;117;0;57.32;17;19.62;5.05;60.3;9.30;68921;5125.617;-12838.252;54;150;158.4;57;57.1;0;0.0;28.7;-1.0;
16/06/2019 17:14:50;117;0;60.57;17;19.52;3.07;57.7;9.30;68944;5125.617;-12838.252;54;150;158.4;57;57.1;-2;-1.8;28.6;-1.0;
16/06/2019 17:15:10;117;0;65.99;17;19.26;2.11;55.3;9.30;68955;5125.617;-12838.252;54;150;158.4;57;56.9;-5;-5.0;28.6;-1.0;
16/06/2019 17:15:30;117;0;67.60;17;19.66;0.35;53.0;9.30;68973;5125.617;-12838.252;54;150;158.4;57;57.1;-5;-5.9;28.6;-1.0;
16/06/2019 17:15:51;117;0;65.08;17;19.19;0.29;50.7;9.30;68977;5125.617;-12838.252;54;150;158.4;57;57.1;-4;-4.1;28.6;-1.0;
16/06/2019 17:16:11;117;0;63.80;17;19.37;1.60;48.4;9.40;68990;5125.617;-12838.252;54;150;158.4;57;57.1;-3;-3.2;28.7;-1.0;
16/06/2019 17:16:31;117;0;62.81;17;19.27;1.57;46.0;9.40;69005;5125.617;-12838.252;54;150;156.4;57;57.1;-4;-4.1;28.7;-1.0;
16/06/2019 17:16:51;117;0;57.56;17;19.36;1.13;43.8;9.40;68996;5125.617;-12838.252;54;150;158.4;57;57.1;-2;-1.4;28.6;-1.0;
16/06/2019 17:17:11;117;0;54.61;17;19.27;2.74;41.5;9.40;69008;5125.617;-12838.252;54;150;158.4;57;57.1;-2;-0.9;28.7;-1.0;
16/06/2019 17:17:31;117;0;46.72;17;19.27;2.79;39.3;9.40;69005;5125.617;-12838.252;54;150;156.4;57;57.1;0;0.5;28.6;-1.0;
16/06/2019 17:17:51;117;0;45.04;17;19.18;3.62;37.1;9.40;69021;5125.617;-12838.252;54;150;156.4;57;57.1;0;0.5;28.6;-1.0;
16/06/2019 17:18:11;117;0;45.81;17;18.66;3.54;34.8;9.50;69029;5125.617;-12838.252;54;150;160.4;57;57.1;-2;-1.8;28.7;-1.0;
16/06/2019 17:18:31;117;0;44.42;17;18.74;1.94;32.7;9.50;69043;5125.617;-12838.252;54;150;156.4;57;57.1;-2;-2.7;28.7;-1.0;
16/06/2019 17:18:51;117;0;39.14;17;18.20;2.11;30.5;9.50;69061;5125.617;-12838.252;54;150;156.4;57;56.9;0;0.0;28.7;-1.0;
16/06/2019 17:19:11;117;0;33.24;17;18.40;3.28;28.5;9.50;69074;5125.617;-12838.252;54;150;158.4;57;57.1;0;0.5;28.7;-1.0;
16/06/2019 17:19:31;117;0;29.98;17;17.71;3.40;26.5;9.60;69106;5125.617;-12838.252;54;150;158.4;57;57.1;2;1.8;28.7;-1.0;
16/06/2019 17:19:51;117;0;33.95;17;17.23;4.32;24.7;9.60;69116;5125.617;-12838.252;54;150;158.4;57;56.9;-1;-1.4;28.7;-1.0;
16/06/2019 17:20:11;117;0;37.33;17;17.47;2.38;22.8;9.60;69130;5125.617;-12838.252;54;150;156.4;57;57.1;-1;-1.8;28.7;-1.0;
16/06/2019 17:20:31;117;0;26.50;17;17.35;2.17;21.1;9.60;69148;5125.617;-12838.252;54;150;158.4;57;57.1;3;3.6;28.7;-1.0;
16/06/2019 17:20:51;117;0;24.64;17;16.45;5.37;19.4;9.70;69187;5125.617;-12838.252;54;150;156.4;57;57.1;3;4.1;28.7;-1.0;
16/06/2019 17:21:11;117;0;35.52;17;16.60;5.53;17.7;9.70;69218;5125.617;-12838.252;54;150;158.4;57;57.1;-3;-3.6;28.7;-1.0;
16/06/2019 17:21:31;117;0;33.93;17;15.96;1.32;16.1;9.80;69255;5125.617;-12838.252;54;150;158.4;57;57.1;0;0.0;28.7;-1.0;
16/06/2019 17:21:51;117;0;35.28;17;15.54;3.76;14.5;9.80;69289;5125.617;-12838.252;54;150;158.4;57;57.1;-1;-0.9;28.7;-1.0;
16/06/2019 17:22:11;117;0;34.32;17;15.84;2.49;13.0;9.90;69316;5125.617;-12838.252;54;150;158.4;57;56.9;0;0.0;28.7;-1.0;
16/06/2019 17:22:31;117;0;30.79;17;15.93;3.81;11.6;9.90;69344;5125.617;-12838.252;54;150;158.4;57;57.1;2;2.3;28.7;-1.0;
16/06/2019 17:22:51;117;0;33.57;17;15.39;4.55;10.1;10.00;69373;5125.617;-12838.252;54;150;158.4;57;57.1;0;-0.5;28.7;-1.0;
