Timestamp;NavState;SecurityLevel;Heading;Declination;Pitch;Roll;Depth;Temperature;Pa;Lat;Lon;DesiredH;BallastCmd;BallastPos;LinCmd;LinPos;AngCmd;AngPos;Voltage;Altitude;
16/06/2019 18:20:13;117;0;40.61;17;15.57;1.96;4.6;10.50;69516;5126.320;-12837.351;61;150;158.4;57;57.1;-1;-0.9;28.7;-1.0;
16/06/2019 18:20:23;110;0;39.59;17;15.75;2.67;3.7;10.60;69515;5126.320;-12837.351;61;-300;17.8;73;73.3;0;0.0;28.7;-1.0;
16/06/2019 18:20:33;110;0;44.77;17;-11.63;3.75;3.4;10.60;69851;5126.320;-12837.351;61;-300;-174.3;73;72.7;0;0.0;28.6;-1.0;
16/06/2019 18:20:43;110;0;40.38;17;-25.33;3.72;4.1;10.60;70103;5126.320;-12837.351;61;-300;-301.0;73;72.7;0;0.0;28.5;-1.0;
16/06/2019 18:20:53;110;0;28.41;17;-28.16;3.93;5.5;10.70;70307;5126.320;-12837.351;61;-300;-303.0;73;72.9;0;0.0;28.6;-1.0;
16/06/2019 18:21:03;100;0;21.69;17;-28.76;3.85;7.4;10.70;70302;5126.320;-12837.351;61;-300;-303.0;73;72.7;0;0.0;28.6;-1.0;
16/06/2019 18:21:23;100;0;20.64;17;-26.86;3.63;12.0;10.80;70309;5126.320;-12837.351;61;-300;-303.0;73;72.7;-10;-9.9;28.7;0.0;
16/06/2019 18:21:43;100;0;18.13;17;-25.77;-1.25;17.1;10.80;70289;5126.320;-12837.351;61;-300;-301.0;73;72.7;-9;-9.0;28.7;0.0;
16/06/2019 18:22:03;100;0;9.01;17;-25.42;-0.28;21.7;10.90;70283;5126.320;-12837.351;61;-300;-303.0;73;72.7;-13;-13.5;28.6;0.0;
16/06/2019 18:22:23;100;0;7.60;17;-25.21;-2.75;25.9;10.90;70228;5126.320;-12837.351;61;-300;-301.0;73;72.7;-12;-12.2;28.6;0.0;
16/06/2019 18:22:43;100;0;4.83;17;-25.07;-1.71;30.1;10.90;70169;5126.320;-12837.351;61;-300;-305.0;73;72.7;-12;-11.3;28.6;0.0;
16/06/2019 18:23:03;100;0;4.14;17;-23.86;-1.78;34.2;10.90;70123;5126.320;-12837.351;61;-300;-303.0;73;72.7;-11;-10.4;28.7;0.0;
16/06/2019 18:23:23;100;0;359.89;17;-23.90;-1.00;38.1;10.90;70071;5126.320;-12837.351;61;-300;-303.0;73;72.7;-14;-14.0;28.7;0.0;
16/06/2019 18:23:43;100;0;357.65;17;-24.38;-3.13;41.8;10.90;70035;5126.320;-12837.351;61;-300;-303.0;73;72.7;-16;-16.2;28.6;0.0;
16/06/2019 18:24:03;100;0;358.07;17;-24.01;-4.09;45.4;10.90;70001;5126.320;-12837.351;61;-300;-303.0;73;72.7;-16;-16.7;28.7;0.0;
16/06/2019 18:24:23;100;0;356.06;17;-24.64;-4.17;49.1;10.90;69980;5126.320;-12837.351;61;-300;-301.0;73;72.7;-19;-19.0;28.7;0.0;
16/06/2019 18:24:43;100;0;354.31;17;-24.21;-5.51;53.0;10.90;69959;5126.320;-12837.351;61;-300;-303.0;73;72.7;-21;-21.7;28.7;0.0;
16/06/2019 18:25:03;100;0;355.68;17;-24.08;-6.63;56.6;10.80;69937;5126.320;-12837.351;61;-300;-303.0;73;72.7;-22;-22.1;28.6;0.0;
16/06/2019 18:25:23;100;0;358.66;17;-24.39;-6.85;60.2;10.80;69927;5126.320;-12837.351;61;-300;-303.0;73;72.7;-22;-22.6;28.7;0.0;
16/06/2019 18:25:43;100;0;355.75;17;-24.13;-7.01;63.9;10.80;69898;5126.320;-12837.351;61;-300;-303.0;73;72.7;-25;-25.3;28.7;0.0;
16/06/2019 18:26:03;100;0;359.32;17;-23.17;-8.38;67.5;10.80;69877;5126.320;-12837.351;61;-300;-303.0;73;72.7;-22;-22.1;28.6;0.0;
16/06/2019 18:26:23;100;0;358.97;17;-23.21;-6.39;71.0;10.80;69864;5126.320;-12837.351;61;-300;-303.0;73;72.7;-23;-23.0;28.6;0.0;
16/06/2019 18:26:43;100;0;357.09;17;-23.14;-7.43;74.2;10.80;69850;5126.320;-12837.351;61;-300;-303.0;73;72.7;-24;-23.9;28.6;0.0;
16/06/2019 18:27:03;100;0;355.31;17;-22.92;-7.93;77.6;10.70;69835;5126.320;-12837.351;61;-300;-303.0;73;72.9;-25;-24.8;28.7;0.0;
16/06/2019 18:27:23;100;0;354.84;17;-23.05;-8.23;80.8;10.70;69820;5126.320;-12837.351;61;-300;-303.0;73;72.7;-25;-24.8;28.7;0.0;
16/06/2019 18:27:43;100;0;1.28;17;-22.93;-8.61;83.9;10.70;69806;5126.320;-12837.351;61;-300;-303.0;73;72.7;-21;-20.8;28.7;0.0;
16/06/2019 18:28:03;100;0;1.38;17;-22.79;-5.88;86.9;10.70;69804;5126.320;-12837.351;61;-300;-303.0;73;72.7;-22;-22.6;28.7;0.0;
16/06/2019 18:28:23;100;0;1.33;17;-22.49;-7.28;89.8;10.70;69802;5126.320;-12837.351;61;-300;-303.0;73;72.7;-22;-23.0;28.6;0.0;
16/06/2019 18:28:43;100;0;3.22;17;-22.22;-7.31;92.7;10.60;69785;5126.320;-12837.351;61;-300;-303.0;73;72.7;-21;-21.2;28.7;0.0;
16/06/2019 18:29:03;100;0;6.71;17;-21.99;-6.00;95.7;10.60;69780;5126.320;-12837.351;61;-300;-303.0;73;72.7;-20;-19.4;28.7;0.0;
16/06/2019 18:29:23;100;0;5.04;17;-22.24;-5.13;98.7;10.60;69773;5126.320;-12837.351;61;-300;-305.0;73;72.7;-22;-22.1;28.7;0.0;
16/06/2019 18:29:43;100;0;5.87;17;-21.79;-7.04;101.8;10.60;69760;5126.320;-12837.351;61;-300;-303.0;73;72.7;-22;-22.6;28.6;0.0;
16/06/2019 18:30:03;100;0;9.35;17;-21.98;-7.16;104.9;10.60;69762;5126.320;-12837.351;61;-300;-303.0;73;72.7;-20;-19.9;28.7;0.0;
16/06/2019 18:30:23;100;0;10.06;17;-21.66;-5.28;107.9;10.60;69751;5126.320;-12837.351;61;-300;-303.0;73;72.7;-20;-19.0;28.7;0.0;
16/06/2019 18:30:43;100;0;12.79;17;-21.75;-5.41;110.8;10.50;69748;5126.320;-12837.351;61;-300;-303.0;73;72.7;-19;-19.0;28.7;0.0;
16/06/2019 18:31:03;100;0;16.29;17;-21.01;-5.27;114.1;10.50;69724;5126.320;-12837.351;61;-300;-303.0;73;72.7;-18;-17.6;28.7;0.0;
16/06/2019 18:31:23;100;0;16.34;17;-20.88;-4.39;117.1;10.50;69717;5126.320;-12837.351;61;-300;-303.0;73;72.7;-19;-19.0;28.7;0.0;
16/06/2019 18:31:43;100;0;15.29;17;-20.27;-5.50;120.0;10.50;69721;5126.320;-12837.351;61;-300;-303.0;73;72.7;-20;-20.3;28.6;0.0;
16/06/2019 18:32:03;100;0;18.85;17;-20.31;-6.16;122.8;10.40;69708;5126.320;-12837.351;61;-300;-303.0;73;72.7;-18;-17.6;28.7;0.0;
16/06/2019 18:32:23;100;0;24.23;17;-20.29;-4.60;125.5;10.40;69704;5126.320;-12837.351;61;-300;-303.0;73;72.7;-15;-14.9;28.6;0.0;
16/06/2019 18:32:43;100;0;25.16;17;-20.13;-3.25;128.1;10.40;69691;5126.320;-12837.351;61;-300;-303.0;73;72.7;-16;-16.2;28.6;0.0;
16/06/2019 18:33:03;100;0;27.18;17;-20.02;-4.28;130.7;10.40;69684;5126.320;-12837.351;61;-300;-303.0;73;72.7;-16;-16.7;28.6;0.0;
16/06/2019 18:33:23;100;0;22.62;17;-20.19;-4.33;133.4;10.30;69677;5126.320;-12837.351;61;-300;-303.0;73;72.7;-20;-19.9;28.6;0.0;
16/06/2019 18:33:43;100;0;19.56;17;-19.83;-5.88;136.0;10.30;69672;5126.320;-12837.351;61;-300;-303.0;73;72.7;-21;-21.2;28.6;0.0;
16/06/2019 18:34:03;100;0;14.86;17;-19.94;-6.76;138.5;10.30;69666;5126.320;-12837.351;61;-300;-303.0;73;72.6;-23;-23.0;28.6;0.0;
16/06/2019 18:34:23;100;0;11.52;17;-19.70;-7.58;141.2;10.30;69657;5126.320;-12837.351;61;-300;-303.0;73;72.7;-23;-23.5;28.7;0.0;
16/06/2019 18:34:43;100;0;13.55;17;-19.14;-7.58;143.4;10.20;69639;5126.320;-12837.351;61;-300;-303.0;73;72.7;-21;-21.2;28.7;0.0;
16/06/2019 18:35:03;100;0;13.42;17;-18.55;-6.05;145.9;10.20;69634;5126.320;-12837.351;61;-300;-303.0;73;72.7;-21;-20.3;28.7;0.0;
16/06/2019 18:35:23;100;0;13.58;17;-18.50;-6.08;148.0;10.20;69620;5126.320;-12837.351;61;-300;-301.0;73;72.7;-21;-20.3;28.7;0.0;
16/06/2019 18:35:43;100;0;17.57;17;-18.78;-6.29;150.1;10.20;69606;5126.320;-12837.351;61;-300;-303.0;73;72.7;-18;-18.1;28.7;0.0;
16/06/2019 18:36:03;100;0;18.90;17;-18.90;-4.75;152.0;10.10;69596;5126.320;-12837.351;61;-300;-305.0;73;72.7;-18;-17.1;28.7;0.0;
16/06/2019 18:36:23;100;0;18.83;17;-18.79;-4.66;154.0;10.10;69581;5126.320;-12837.351;61;-300;-306.9;73;72.7;-19;-19.4;28.7;0.0;
16/06/2019 18:36:43;100;0;19.99;17;-18.89;-5.56;155.9;10.10;69572;5126.320;-12837.351;61;-300;-303.0;73;72.7;-19;-19.9;28.7;0.0;
16/06/2019 18:37:03;100;0;18.48;17;-19.74;-5.70;157.9;10.00;69560;5126.320;-12837.351;61;-300;-305.0;73;72.7;-20;-19.9;28.7;0.0;
16/06/2019 18:37:23;100;0;17.88;17;-19.43;-5.66;159.7;10.00;69550;5126.320;-12837.351;61;-300;-303.0;73;72.7;-20;-19.9;28.6;0.0;
16/06/2019 18:37:43;100;0;15.80;17;-18.50;-5.70;161.7;10.00;69539;5126.320;-12837.351;61;-300;-303.0;73;72.7;-21;-21.2;28.7;0.0;
16/06/2019 18:38:03;100;0;16.07;17;-18.85;-6.51;163.6;9.90;69529;5126.320;-12837.351;61;-300;-303.0;73;72.7;-20;-19.9;28.7;0.0;
16/06/2019 18:38:23;100;0;14.90;17;-18.37;-5.53;165.6;9.90;69516;5126.320;-12837.351;61;-300;-303.0;73;72.7;-21;-21.2;28.7;44.9;
16/06/2019 18:38:43;100;0;15.15;17;-18.55;-6.72;167.6;9.90;69515;5126.320;-12837.351;61;-300;-303.0;73;72.7;-20;-19.9;28.7;43.1;
16/06/2019 18:39:03;100;0;14.56;17;-18.29;-5.65;169.7;9.80;69509;5126.320;-12837.351;61;-300;-303.0;73;72.7;-21;-21.2;28.7;41.2;
16/06/2019 18:39:23;100;0;14.39;17;-18.60;-6.71;171.7;9.80;69495;5126.320;-12837.351;61;-300;-303.0;73;72.7;-20;-19.9;28.6;39.1;
16/06/2019 18:39:43;100;0;15.07;17;-18.21;-5.62;173.6;9.80;69502;5126.320;-12837.351;61;-300;-303.0;73;72.7;-20;-19.4;28.7;37.1;
16/06/2019 18:40:04;100;0;15.76;17;-18.23;-5.62;175.7;9.70;69484;5126.320;-12837.351;61;-300;-303.0;73;72.7;-20;-19.4;28.6;34.7;
16/06/2019 18:40:24;100;0;16.30;17;-18.31;-5.69;177.6;9.70;69478;5126.320;-12837.351;61;-300;-303.0;73;72.7;-19;-19.0;28.6;32.6;
16/06/2019 18:40:44;100;0;16.09;17;-18.32;-5.02;179.7;9.70;69466;5126.320;-12837.351;61;-300;-303.0;73;72.7;-20;-19.9;28.6;30.4;
16/06/2019 18:41:04;100;0;17.20;17;-18.30;-6.08;181.7;9.70;69469;5126.320;-12837.351;61;-300;-301.0;73;72.7;-19;-18.5;28.7;28.5;
16/06/2019 18:41:24;100;0;17.56;17;-18.10;-5.05;183.8;9.60;69475;5126.320;-12837.351;61;-300;-305.0;73;72.7;-19;-18.1;28.7;26.4;
16/06/2019 18:41:44;100;0;17.15;17;-18.44;-5.04;185.8;9.60;69464;5126.320;-12837.351;61;-300;-303.0;73;72.7;-20;-19.9;28.7;24.2;
16/06/2019 18:42:04;100;0;17.61;17;-18.24;-6.09;187.8;9.60;69456;5126.320;-12837.351;61;-300;-303.0;73;72.7;-20;-20.3;28.7;22.1;
16/06/2019 18:42:24;100;0;18.83;17;-18.26;-6.05;189.8;9.50;69454;5126.320;-12837.351;61;-300;-303.0;73;72.7;-19;-19.0;28.7;20.1;
16/06/2019 18:42:44;100;0;19.17;17;-17.77;-5.20;191.8;9.50;69451;5126.320;-12837.351;61;-300;-303.0;73;72.7;-19;-18.5;28.6;18.0;
16/06/2019 18:43:04;118;0;18.88;17;-18.41;-5.21;193.8;9.50;69449;5126.320;-12837.351;61;150;-291.1;57;56.6;0;0.5;28.7;15.8;
16/06/2019 18:43:14;118;0;49.39;17;2.86;3.77;194.6;9.50;69375;5126.320;-12837.351;61;150;-132.7;57;57.1;0;0.5;28.1;15.8;
16/06/2019 18:43:24;118;0;47.97;17;20.34;3.39;194.4;9.50;69162;5126.320;-12837.351;61;150;21.8;57;57.1;0;0.5;28.0;-1.0;
16/06/2019 18:43:34;118;0;46.00;17;23.67;3.55;193.5;9.50;68904;5126.320;-12837.351;61;150;156.4;57;57.1;0;0.5;28.0;-1.0;
16/06/2019 18:43:44;118;0;15.72;17;24.20;4.28;192.3;9.50;68691;5126.320;-12837.351;61;150;156.4;57;57.1;0;0.5;28.6;-1.0;
16/06/2019 18:43:54;118;0;16.09;17;26.85;3.63;190.7;9.40;68708;5126.320;-12837.351;61;150;156.4;57;57.1;0;0.5;28.6;-1.0;
16/06/2019 18:44:04;117;0;16.23;17;27.68;3.66;188.8;9.40;68719;5126.320;-12837.351;61;150;156.4;57;57.1;0;0.5;28.6;-1.0;
16/06/2019 18:44:24;117;0;14.56;17;27.99;3.76;184.6;9.40;68703;5126.320;-12837.351;61;150;156.4;57;57.1;22;22.1;28.6;-1.0;
16/06/2019 18:44:44;117;0;18.91;17;27.80;14.58;179.7;9.40;68701;5126.320;-12837.351;61;150;156.4;57;57.1;19;19.0;28.7;-1.0;
16/06/2019 18:45:04;117;0;25.80;17;27.92;12.00;175.2;9.40;68700;5126.320;-12837.351;61;150;156.4;57;57.1;15;14.9;28.6;-1.0;
16/06/2019 18:45:24;117;0;32.61;17;27.87;10.05;170.6;9.30;68689;5126.320;-12837.351;61;150;158.4;57;57.1;13;13.1;28.6;-1.0;
16/06/2019 18:45:44;117;0;42.07;17;27.64;9.07;166.0;9.30;68685;5126.320;-12837.351;61;150;156.4;57;57.1;9;8.6;28.7;-1.0;
16/06/2019 18:46:04;117;0;48.68;17;27.90;7.34;161.5;9.30;68687;5126.320;-12837.351;61;150;156.4;57;57.1;9;8.1;28.6;-1.0;
16/06/2019 18:46:24;117;0;59.92;17;28.20;7.15;156.9;9.20;68681;5126.320;-12837.351;61;150;158.4;57;57.1;4;4.1;28.6;-1.0;
16/06/2019 18:46:44;117;0;66.65;17;28.48;4.83;152.1;9.20;68700;5126.320;-12837.351;61;150;156.4;57;57.1;3;2.7;28.6;-1.0;
16/06/2019 18:47:04;117;0;64.23;17;28.60;4.43;147.4;9.20;68704;5126.320;-12837.351;61;150;158.4;57;57.2;6;5.9;28.6;-1.0;
16/06/2019 18:47:24;117;0;60.60;17;27.31;6.45;142.5;9.20;68711;5126.320;-12837.351;61;150;156.4;57;57.1;9;9.0;28.7;-1.0;
16/06/2019 18:47:44;117;0;62.59;17;26.09;7.99;138.2;9.20;68716;5126.320;-12837.351;61;150;158.4;57;57.1;7;7.2;28.7;-1.0;
16/06/2019 18:48:04;117;0;70.84;17;25.11;6.26;134.6;9.20;68736;5126.320;-12837.351;61;150;156.4;57;57.1;2;1.8;28.6;-1.0;
16/06/2019 18:48:24;117;0;74.06;17;25.08;3.63;130.9;9.20;68754;5126.320;-12837.351;61;150;156.4;57;57.1;1;0.5;28.6;-1.0;
16/06/2019 18:48:44;117;0;69.34;17;25.15;3.03;127.4;9.20;68753;5126.320;-12837.351;61;150;156.4;57;57.1;5;5.0;28.6;-1.0;
16/06/2019 18:49:04;117;0;63.08;17;25.25;6.03;124.0;9.20;68771;5126.320;-12837.351;61;150;158.4;57;57.1;8;8.1;28.7;-1.0;
16/06/2019 18:49:24;117;0;55.27;17;25.66;7.68;120.5;9.20;68772;5126.320;-12837.351;61;150;158.4;57;57.2;10;9.9;28.6;-1.0;
16/06/2019 18:49:44;117;0;57.32;17;24.95;8.23;117.1;9.20;68779;5126.320;-12837.351;61;150;158.4;57;57.1;7;6.8;28.6;-1.0;
16/06/2019 18:50:04;117;0;55.00;17;24.47;6.48;113.8;9.20;68788;5126.320;-12837.351;61;150;156.4;57;57.2;7;6.8;28.6;-1.0;
16/06/2019 18:50:24;117;0;49.88;17;24.05;6.44;110.7;9.20;68799;5126.320;-12837.351;61;150;158.4;57;57.1;9;9.5;28.7;-1.0;
16/06/2019 18:50:44;117;0;45.48;17;24.25;8.16;107.9;9.20;68808;5126.320;-12837.351;61;150;158.4;57;57.1;10;9.9;28.6;-1.0;
16/06/2019 18:51:04;117;0;49.05;17;24.17;8.22;104.8;9.20;68809;5126.320;-12837.351;61;150;158.4;57;57.1;6;5.9;28.7;-1.0;
16/06/2019 18:51:24;117;0;47.58;17;23.38;5.86;101.5;9.20;68822;5126.320;-12837.351;61;150;158.4;57;57.1;7;7.7;28.6;-1.0;
16/06/2019 18:51:44;117;0;49.47;17;22.61;7.15;98.7;9.20;68812;5126.320;-12837.351;61;150;158.4;57;57.1;5;5.0;28.7;-1.0;
16/06/2019 18:52:04;117;0;48.68;17;23.33;5.34;95.9;9.20;68827;5126.320;-12837.351;61;150;158.4;57;57.1;6;5.9;28.7;-1.0;
16/06/2019 18:52:24;117;0;53.50;17;22.38;6.33;92.9;9.20;68833;5126.320;-12837.351;61;150;158.4;57;57.1;3;3.2;28.7;-1.0;
16/06/2019 18:52:44;117;0;53.65;17;22.34;4.27;90.1;9.20;68841;5126.320;-12837.351;61;150;158.4;57;57.1;3;2.7;28.7;-1.0;
16/06/2019 18:53:04;117;0;55.93;17;22.04;4.33;87.4;9.20;68857;5126.320;-12837.351;61;150;158.4;57;57.2;2;1.8;28.6;-1.0;
16/06/2019 18:53:24;117;0;61.24;17;22.22;3.74;84.7;9.20;68847;5126.320;-12837.351;61;150;156.4;57;57.1;0;-0.5;28.7;-1.0;
16/06/2019 18:53:44;117;0;58.15;17;21.90;2.81;82.0;9.20;68855;5126.320;-12837.351;61;150;158.4;57;57.1;1;0.9;28.6;-1.0;
16/06/2019 18:54:04;117;0;56.10;17;21.76;3.90;79.3;9.20;68855;5126.320;-12837.351;61;150;156.4;57;57.1;2;1.8;28.7;-1.0;
16/06/2019 18:54:24;117;0;56.04;17;21.39;4.39;76.6;9.20;68868;5126.320;-12837.351;61;150;156.4;57;57.1;1;0.9;28.6;-1.0;
16/06/2019 18:54:44;117;0;56.72;17;21.28;3.31;74.0;9.20;68864;5126.320;-12837.351;61;150;158.4;57;57.1;1;0.5;28.7;-1.0;
16/06/2019 18:55:04;117;0;56.38;17;21.27;3.39;71.3;9.20;68873;5126.320;-12837.351;61;150;156.4;57;57.1;0;-0.5;28.7;-1.0;
16/06/2019 18:55:24;117;0;57.20;17;20.62;2.72;68.7;9.20;68882;5126.320;-12837.351;61;150;158.4;57;57.1;0;-0.9;28.7;-1.0;
16/06/2019 18:55:44;117;0;58.38;17;20.17;2.80;66.2;9.20;68884;5126.320;-12837.351;61;150;158.4;57;57.1;-1;-0.9;28.6;-1.0;
16/06/2019 18:56:04;117;0;58.87;17;19.98;2.69;63.8;9.20;68900;5126.320;-12837.351;61;150;156.4;57;57.1;-1;-0.9;28.6;-1.0;
16/06/2019 18:56:24;117;0;52.31;17;19.56;2.81;61.4;9.30;68918;5126.320;-12837.351;61;150;156.4;57;57.1;1;0.9;28.7;-1.0;
16/06/2019 18:56:44;117;0;47.55;17;19.68;3.99;59.1;9.30;68916;5126.320;-12837.351;61;150;158.4;57;57.1;3;3.2;28.6;-1.0;
16/06/2019 18:57:04;117;0;48.06;17;19.63;5.24;56.7;9.30;68927;5126.320;-12837.351;61;150;158.4;57;57.1;0;0.0;28.7;-1.0;
16/06/2019 18:57:24;117;0;52.00;17;19.51;2.80;54.3;9.30;68935;5126.320;-12837.351;61;150;156.4;57;57.1;-1;-0.9;28.7;-1.0;
16/06/2019 18:57:44;117;0;52.09;17;19.08;2.44;51.8;9.30;68948;5126.320;-12837.351;61;150;158.4;57;57.2;-2;-1.8;28.6;-1.0;
16/06/2019 18:58:04;117;0;51.61;17;19.10;2.32;49.5;9.30;68947;5126.320;-12837.351;61;150;156.4;57;57.1;-1;-0.9;28.7;-1.0;
16/06/2019 18:58:24;117;0;59.13;17;18.79;2.96;47.2;9.30;68965;5126.320;-12837.351;61;150;156.4;57;57.1;-6;-6.3;28.6;-1.0;
16/06/2019 18:58:44;117;0;56.77;17;19.13;0.01;45.0;9.40;68976;5126.320;-12837.351;61;150;160.4;57;57.1;-4;-3.6;28.7;-1.0;
16/06/2019 18:59:04;117;0;55.29;17;19.18;1.87;42.8;9.40;68977;5126.320;-12837.351;61;150;158.4;57;57.1;-3;-3.2;28.6;-1.0;
16/06/2019 18:59:24;117;0;53.44;17;19.16;1.90;40.4;9.40;68984;5126.320;-12837.351;61;150;158.4;57;57.1;-3;-2.7;28.6;-1.0;
16/06/2019 18:59:44;117;0;46.74;17;18.93;1.83;38.3;9.40;68997;5126.320;-12837.351;61;150;156.4;57;57.1;0;0.0;28.6;-1.0;
16/06/2019 19:00:04;117;0;45.87;17;18.55;3.71;36.2;9.40;69008;5126.320;-12837.351;61;150;158.4;57;57.1;0;0.9;28.6;-1.0;
16/06/2019 19:00:24;117;0;49.59;17;18.47;3.55;34.2;9.40;69021;5126.320;-12837.351;61;150;158.4;57;57.2;-3;-3.2;28.7;-1.0;
16/06/2019 19:00:44;117;0;40.44;17;17.79;1.39;32.2;9.50;69032;5126.320;-12837.351;61;150;158.4;57;57.1;-3;-3.6;28.7;-1.0;
16/06/2019 19:01:04;117;0;36.25;17;17.56;1.43;30.4;9.50;69069;5126.320;-12837.351;61;150;158.4;57;57.1;2;1.8;28.6;-1.0;
16/06/2019 19:01:24;117;0;32.71;17;16.82;4.34;28.6;9.50;69090;5126.320;-12837.351;61;150;158.4;57;57.2;3;3.6;28.7;-1.0;
16/06/2019 19:01:44;117;0;32.68;17;16.97;5.22;26.8;9.60;69115;5126.320;-12837.351;61;150;158.4;57;57.1;2;1.8;28.7;-1.0;
16/06/2019 19:02:04;117;0;37.08;17;16.84;3.85;25.0;9.60;69136;5126.320;-12837.351;61;150;156.4;57;57.1;0;0.0;28.7;-1.0;
16/06/2019 19:02:24;117;0;33.74;17;16.69;2.89;23.2;9.60;69154;5126.320;-12837.351;61;150;158.4;57;57.1;2;1.8;28.6;-1.0;
16/06/2019 19:02:44;117;0;33.97;17;15.98;4.40;21.6;9.70;69172;5126.320;-12837.351;61;150;158.4;57;57.1;2;2.3;28.6;-1.0;
16/06/2019 19:03:04;117;0;24.69;17;16.29;4.32;20.0;9.70;69205;5126.320;-12837.351;61;150;156.4;57;57.1;7;7.7;28.7;-1.0;
16/06/2019 19:03:24;117;0;33.06;17;15.44;7.51;18.4;9.70;69229;5126.320;-12837.351;61;150;156.4;57;57.2;1;0.9;28.7;-1.0;
16/06/2019 19:03:44;117;0;38.09;17;16.09;3.49;16.8;9.80;69252;5126.320;-12837.351;61;150;156.4;57;57.1;0;0.0;28.6;-1.0;
16/06/2019 19:04:04;117;0;41.83;17;15.99;3.42;15.2;9.80;69283;5126.320;-12837.351;61;150;158.4;57;57.1;0;0.5;28.6;-1.0;
16/06/2019 19:04:24;117;0;47.66;17;15.43;3.40;13.5;9.90;69313;5126.320;-12837.351;61;150;158.4;57;57.1;0;0.5;28.6;-1.0;
16/06/2019 19:04:44;117;0;47.36;17;15.75;3.36;12.1;9.90;69336;5126.320;-12837.351;61;150;156.4;57;57.1;-1;-0.9;28.6;-1.0;
16/06/2019 19:05:04;117;0;42.87;17;15.72;2.26;10.7;10.00;69359;5126.320;-12837.351;61;150;158.4;57;57.1;-1;-1.8;28.6;-1.0;
