Timestamp;NavState;SecurityLevel;Heading;Declination;Pitch;Roll;Depth;Temperature;Pa;Lat;Lon;DesiredH;BallastCmd;BallastPos;LinCmd;LinPos;AngCmd;AngPos;Voltage;Altitude;
15/06/2019 21:33:40;117;0;268.26;17;16.37;4.59;9.1;10.50;69442;5122.995;-12838.476;294;150;158.4;57;57.1;2;1.8;28.8;-1.0;
15/06/2019 21:33:50;110;0;269.65;17;15.62;3.72;8.3;10.60;69454;5122.995;-12838.476;294;-300;-53.5;73;73.3;0;-0.5;28.9;-1.0;
15/06/2019 21:34:00;110;0;281.02;17;-9.51;3.51;7.8;10.60;69957;5122.995;-12838.476;294;-300;-301.0;73;72.9;0;-0.5;28.7;-1.0;
15/06/2019 21:34:10;110;0;283.85;17;-23.31;3.75;8.6;10.60;70261;5122.995;-12838.476;294;-300;-303.0;73;73.0;0;-0.5;28.8;-1.0;
15/06/2019 21:34:20;100;0;281.13;17;-27.13;3.52;10.2;10.60;70242;5122.995;-12838.476;294;-300;-303.0;73;73.0;0;-0.5;28.8;-1.0;
15/06/2019 21:34:40;100;0;275.94;17;-26.98;3.47;14.4;10.70;70244;5122.995;-12838.476;294;-300;-305.0;73;73.0;1;0.9;28.8;0.0;
15/06/2019 21:35:00;100;0;270.35;17;-26.22;4.50;18.8;10.80;70242;5122.995;-12838.476;294;-300;-305.0;73;73.0;-3;-3.2;28.9;0.0;
15/06/2019 21:35:20;100;0;265.40;17;-25.81;2.14;22.9;10.80;70217;5122.995;-12838.476;294;-300;-303.0;73;73.0;-6;-5.9;28.9;0.0;
15/06/2019 21:35:40;100;0;252.80;17;-25.59;0.58;27.1;10.80;70165;5122.995;-12838.476;294;-300;-305.0;73;73.0;-13;-13.1;28.9;0.0;
15/06/2019 21:36:00;100;0;250.82;17;-25.52;-2.62;31.3;10.80;70117;5122.995;-12838.476;294;-300;-305.0;73;72.9;-12;-12.2;28.8;0.0;
15/06/2019 21:36:20;100;0;243.08;17;-24.65;-1.78;35.4;10.80;70090;5122.995;-12838.476;294;-300;-305.0;73;73.0;-15;-14.9;28.8;0.0;
15/06/2019 21:36:40;100;0;237.71;17;-25.69;-3.39;39.2;10.80;70053;5122.995;-12838.476;294;-300;-305.0;73;73.0;-17;-17.1;28.8;0.0;
15/06/2019 21:37:01;100;0;237.60;17;-25.15;-4.56;43.4;10.80;70035;5122.995;-12838.476;294;-300;-306.9;73;73.0;-15;-14.9;28.8;0.0;
15/06/2019 21:37:21;100;0;236.18;17;-24.08;-2.76;47.7;10.80;70016;5122.995;-12838.476;294;-300;-305.0;73;73.0;-15;-14.0;28.9;0.0;
15/06/2019 21:37:41;100;0;231.57;17;-24.64;-2.86;51.6;10.80;69994;5122.995;-12838.476;294;-300;-303.0;73;72.9;-19;-19.0;28.8;0.0;
15/06/2019 21:38:01;100;0;228.42;17;-25.28;-5.33;55.5;10.80;69979;5122.995;-12838.476;294;-300;-306.9;73;73.0;-21;-21.2;28.8;0.0;
15/06/2019 21:38:21;100;0;224.73;17;-24.89;-6.31;59.6;10.80;69968;5122.995;-12838.476;294;-300;-305.0;73;73.0;-25;-24.8;28.8;0.0;
15/06/2019 21:38:41;100;0;224.07;17;-24.73;-8.16;63.6;10.80;69954;5122.995;-12838.476;294;-300;-305.0;73;73.0;-25;-25.3;28.8;0.0;
15/06/2019 21:39:01;100;0;225.23;17;-24.89;-8.24;67.4;10.80;69950;5122.995;-12838.476;294;-300;-305.0;73;73.0;-25;-25.3;28.8;0.0;
15/06/2019 21:39:21;100;0;222.14;17;-25.19;-8.30;71.3;10.80;69940;5122.995;-12838.476;294;-300;-305.0;73;73.0;-27;-27.1;28.8;0.0;
15/06/2019 21:39:41;100;0;224.51;17;-24.65;-9.28;75.1;10.80;69928;5122.995;-12838.476;294;-300;-305.0;73;73.0;-25;-24.8;28.8;0.0;
15/06/2019 21:40:01;100;0;222.32;17;-24.83;-7.50;78.9;10.80;69925;5122.995;-12838.476;294;-300;-305.0;73;73.0;-26;-26.6;28.8;0.0;
15/06/2019 21:40:21;100;0;217.42;17;-24.54;-9.20;82.7;10.70;69905;5122.995;-12838.476;294;-300;-305.0;73;72.9;-29;-28.9;28.8;0.0;
15/06/2019 21:40:41;100;0;211.86;17;-25.11;-9.90;86.4;10.70;69889;5122.995;-12838.476;294;-300;-305.0;73;73.0;-31;-31.1;28.9;0.0;
15/06/2019 21:41:01;100;0;202.55;17;-25.33;-11.20;90.2;10.70;69862;5122.995;-12838.476;294;-300;-303.0;73;72.9;-34;-34.3;28.8;0.0;
15/06/2019 21:41:21;100;0;206.68;17;-23.72;-12.64;94.0;10.70;69855;5122.995;-12838.476;294;-300;-305.0;73;73.0;-30;-29.8;28.9;0.0;
15/06/2019 21:41:41;100;0;220.63;17;-22.85;-10.15;97.4;10.70;69842;5122.995;-12838.476;294;-300;-305.0;73;73.0;-21;-21.2;28.8;0.0;
15/06/2019 21:42:01;100;0;233.32;17;-22.99;-6.17;100.5;10.70;69839;5122.995;-12838.476;294;-300;-305.0;73;73.0;-16;-15.8;28.9;0.0;
15/06/2019 21:42:21;100;0;237.95;17;-22.73;-3.54;103.5;10.60;69810;5122.995;-12838.476;294;-300;-305.0;73;72.9;-17;-17.1;28.9;0.0;
15/06/2019 21:42:41;100;0;244.98;17;-22.51;-4.92;106.4;10.60;69798;5122.995;-12838.476;294;-300;-303.0;73;73.0;-15;-14.9;28.8;0.0;
15/06/2019 21:43:01;100;0;250.04;17;-21.76;-3.21;109.4;10.60;69784;5122.995;-12838.476;294;-300;-305.0;73;73.0;-15;-14.4;28.8;0.0;
15/06/2019 21:43:21;100;0;251.96;17;-21.86;-3.16;112.1;10.60;69777;5122.995;-12838.476;294;-300;-303.0;73;73.0;-17;-17.1;28.9;0.0;
15/06/2019 21:43:41;100;0;247.95;17;-21.53;-4.75;115.0;10.60;69773;5122.995;-12838.476;294;-300;-305.0;73;73.0;-20;-20.3;28.8;0.0;
15/06/2019 21:44:01;100;0;255.83;17;-20.87;-6.10;118.0;10.50;69755;5122.995;-12838.476;294;-300;-305.0;73;73.0;-16;-15.8;28.9;0.0;
15/06/2019 21:44:21;100;0;249.46;17;-20.07;-3.52;120.8;10.50;69739;5122.995;-12838.476;294;-300;-305.0;73;72.9;-21;-21.2;28.9;0.0;
15/06/2019 21:44:41;100;0;248.62;17;-20.24;-6.41;123.5;10.50;69717;5122.995;-12838.476;294;-300;-305.0;73;73.0;-21;-21.2;28.8;0.0;
15/06/2019 21:45:01;100;0;244.13;17;-20.10;-6.53;126.3;10.50;69709;5122.995;-12838.476;294;-300;-305.0;73;73.0;-23;-23.0;28.9;0.0;
15/06/2019 21:45:21;100;0;243.69;17;-19.73;-7.54;128.9;10.40;69705;5122.995;-12838.476;294;-300;-305.0;73;72.9;-22;-21.7;28.9;0.0;
15/06/2019 21:45:41;100;0;244.29;17;-19.94;-6.43;131.4;10.40;69693;5122.995;-12838.476;294;-300;-305.0;73;73.0;-21;-21.2;28.9;0.0;
15/06/2019 21:46:01;100;0;243.43;17;-19.95;-6.45;133.9;10.40;69678;5122.995;-12838.476;294;-300;-305.0;73;73.0;-22;-22.6;28.8;0.0;
15/06/2019 21:46:21;100;0;241.80;17;-19.58;-7.24;136.4;10.40;69674;5122.995;-12838.476;294;-300;-305.0;73;73.0;-23;-23.0;28.8;0.0;
15/06/2019 21:46:41;100;0;241.26;17;-19.74;-7.25;138.8;10.30;69666;5122.995;-12838.476;294;-300;-305.0;73;72.9;-22;-21.7;28.8;0.0;
15/06/2019 21:47:01;100;0;242.97;17;-19.46;-6.34;141.2;10.30;69663;5122.995;-12838.476;294;-300;-305.0;73;72.9;-21;-21.2;28.9;0.0;
15/06/2019 21:47:21;100;0;243.69;17;-19.76;-6.37;143.5;10.30;69650;5122.995;-12838.476;294;-300;-305.0;73;72.9;-21;-20.8;28.8;0.0;
15/06/2019 21:47:41;100;0;244.36;17;-19.80;-6.37;145.8;10.30;69649;5122.995;-12838.476;294;-300;-305.0;73;72.9;-20;-19.9;28.9;0.0;
15/06/2019 21:48:01;100;0;244.71;17;-19.79;-5.59;147.9;10.20;69640;5122.995;-12838.476;294;-300;-303.0;73;72.9;-21;-21.2;28.8;0.0;
15/06/2019 21:48:21;100;0;247.32;17;-19.78;-6.63;150.1;10.20;69636;5122.995;-12838.476;294;-300;-305.0;73;73.0;-19;-18.5;28.8;0.0;
15/06/2019 21:48:41;100;0;248.72;17;-19.82;-4.86;152.3;10.20;69626;5122.995;-12838.476;294;-300;-305.0;73;73.0;-19;-17.6;28.8;0.0;
15/06/2019 21:49:01;100;0;246.80;17;-19.51;-4.84;154.5;10.20;69637;5122.995;-12838.476;294;-300;-305.0;73;72.9;-21;-21.2;28.8;0.0;
15/06/2019 21:49:21;100;0;247.43;17;-19.75;-6.81;156.5;10.10;69611;5122.995;-12838.476;294;-300;-303.0;73;73.0;-20;-19.9;28.8;0.0;
15/06/2019 21:49:41;100;0;245.86;17;-19.67;-5.65;158.8;10.10;69602;5122.995;-12838.476;294;-300;-305.0;73;73.0;-21;-21.2;28.8;0.0;
15/06/2019 21:50:01;100;0;243.86;17;-19.02;-6.70;161.1;10.10;69595;5122.995;-12838.476;294;-300;-305.0;73;73.0;-22;-22.1;28.8;0.0;
15/06/2019 21:50:21;100;0;243.63;17;-18.88;-7.17;163.4;10.00;69598;5122.995;-12838.476;294;-300;-305.0;73;73.0;-22;-22.6;28.8;0.0;
15/06/2019 21:50:41;100;0;244.29;17;-18.74;-7.18;165.7;10.00;69581;5122.995;-12838.476;294;-300;-305.0;73;73.0;-21;-20.8;28.8;0.0;
15/06/2019 21:51:01;100;0;244.15;17;-18.78;-6.02;168.2;10.00;69588;5122.995;-12838.476;294;-300;-305.0;73;73.0;-21;-20.3;28.8;0.0;
15/06/2019 21:51:21;100;0;246.78;17;-18.84;-6.01;170.4;9.90;69568;5122.995;-12838.476;294;-300;-305.0;73;73.0;-20;-19.9;28.9;0.0;
15/06/2019 21:51:41;100;0;248.62;17;-18.80;-5.54;172.8;9.90;69561;5122.995;-12838.476;294;-300;-305.0;73;73.0;-19;-19.0;28.9;43.5;
15/06/2019 21:52:01;100;0;252.00;17;-18.68;-5.73;174.9;9.90;69548;5122.995;-12838.476;294;-300;-305.0;73;73.0;-18;-18.1;28.9;41.1;
15/06/2019 21:52:21;100;0;258.28;17;-19.03;-4.73;177.0;9.90;69543;5122.995;-12838.476;294;-300;-305.0;73;73.0;-15;-14.9;28.9;39.1;
15/06/2019 21:52:41;100;0;259.10;17;-18.75;-3.18;179.1;9.90;69536;5122.995;-12838.476;294;-300;-305.0;73;72.9;-16;-15.8;28.9;37.0;
15/06/2019 21:53:01;100;0;260.62;17;-19.30;-4.02;181.0;9.80;69522;5122.995;-12838.476;294;-300;-305.0;73;72.9;-16;-16.2;28.9;35.1;
15/06/2019 21:53:21;100;0;267.35;17;-18.81;-3.86;183.0;9.80;69516;5122.995;-12838.476;294;-300;-305.0;73;73.0;-13;-12.6;28.8;33.0;
15/06/2019 21:53:41;100;0;271.16;17;-18.82;-2.09;184.8;9.70;69507;5122.995;-12838.476;294;-300;-305.0;73;73.0;-12;-12.2;28.8;31.1;
15/06/2019 21:54:01;100;0;268.36;17;-18.73;-1.97;186.7;9.70;69511;5122.995;-12838.476;294;-300;-303.0;73;72.9;-16;-15.8;28.9;29.2;
15/06/2019 21:54:21;100;0;272.27;17;-18.75;-4.36;188.5;9.70;69487;5122.995;-12838.476;294;-300;-305.0;73;72.9;-14;-14.0;28.9;27.2;
15/06/2019 21:54:41;100;0;277.17;17;-18.44;-2.62;190.5;9.70;69496;5122.995;-12838.476;294;-300;-305.0;73;72.9;-14;-13.1;28.8;25.3;
15/06/2019 21:55:01;100;0;275.72;17;-18.83;-2.54;192.5;9.60;69495;5122.995;-12838.476;294;-300;-305.0;73;73.0;-14;-13.1;28.8;23.3;
15/06/2019 21:55:21;100;0;275.02;17;-18.67;-2.78;194.3;9.60;69488;5122.995;-12838.476;294;-300;-303.0;73;73.0;-14;-13.1;28.9;21.3;
15/06/2019 21:55:41;100;0;273.41;17;-18.89;-2.88;196.4;9.60;69480;5122.995;-12838.476;294;-300;-303.0;73;72.9;-16;-15.8;28.8;19.1;
15/06/2019 21:56:01;118;0;272.26;17;-18.89;-4.23;198.7;9.50;69479;5122.995;-12838.476;294;150;-291.1;57;56.8;0;0.5;28.9;16.9;
15/06/2019 21:56:11;118;0;249.24;17;2.28;3.75;199.6;9.60;69403;5122.995;-12838.476;294;150;-134.7;57;57.1;0;0.5;28.3;16.9;
15/06/2019 21:56:21;118;0;259.75;17;19.44;3.54;199.3;9.50;69189;5122.995;-12838.476;294;150;19.8;57;57.1;0;0.5;28.2;-1.0;
15/06/2019 21:56:31;118;0;236.65;17;24.29;3.53;198.6;9.50;68932;5122.995;-12838.476;294;150;156.4;57;57.1;0;0.5;28.2;-1.0;
15/06/2019 21:56:41;118;0;254.88;17;24.14;4.29;197.5;9.50;68729;5122.995;-12838.476;294;150;154.5;57;57.1;0;0.5;28.8;-1.0;
15/06/2019 21:56:51;118;0;253.74;17;26.18;3.44;196.0;9.50;68732;5122.995;-12838.476;294;150;156.4;57;57.1;0;0.5;28.8;-1.0;
15/06/2019 21:57:01;117;0;249.07;17;28.05;3.33;194.1;9.50;68725;5122.995;-12838.476;294;150;156.4;57;57.1;0;0.5;28.8;-1.0;
15/06/2019 21:57:21;117;0;241.80;17;28.45;3.79;190.2;9.50;68731;5122.995;-12838.476;294;150;156.4;57;57.1;34;33.8;28.8;-1.0;
15/06/2019 21:57:41;117;0;246.20;17;27.67;19.80;185.7;9.50;68732;5122.995;-12838.476;294;150;156.4;57;57.1;25;24.8;28.8;-1.0;
15/06/2019 21:58:01;117;0;252.18;17;28.09;14.46;181.4;9.40;68727;5122.995;-12838.476;294;150;156.4;57;57.1;19;18.5;28.8;-1.0;
15/06/2019 21:58:21;117;0;255.61;17;28.18;11.75;177.0;9.40;68720;5122.995;-12838.476;294;150;156.4;57;57.1;18;18.1;28.8;-1.0;
15/06/2019 21:58:41;117;0;249.29;17;28.76;11.46;172.2;9.40;68716;5122.995;-12838.476;294;150;156.4;57;57.1;22;22.1;28.8;-1.0;
15/06/2019 21:59:01;117;0;255.72;17;27.75;14.06;167.7;9.30;68730;5122.995;-12838.476;294;150;156.4;57;57.1;17;17.1;28.8;-1.0;
15/06/2019 21:59:21;117;0;259.00;17;27.40;10.73;163.6;9.30;68736;5122.995;-12838.476;294;150;156.4;57;57.1;16;15.8;28.8;-1.0;
15/06/2019 21:59:41;117;0;260.17;17;27.17;10.03;159.6;9.30;68743;5122.995;-12838.476;294;150;156.4;57;57.1;16;15.3;28.8;-1.0;
15/06/2019 22:00:01;117;0;264.85;17;27.49;10.10;155.8;9.30;68733;5122.995;-12838.476;294;150;154.5;57;57.1;15;14.9;28.8;-1.0;
15/06/2019 22:00:21;117;0;272.53;17;26.99;10.05;151.8;9.30;68759;5122.995;-12838.476;294;150;156.4;57;57.1;11;10.4;28.8;-1.0;
15/06/2019 22:00:41;117;0;277.82;17;27.21;7.45;147.6;9.30;68750;5122.995;-12838.476;294;150;158.4;57;57.1;11;9.9;28.8;-1.0;
15/06/2019 22:01:01;117;0;285.06;17;27.21;7.52;143.4;9.30;68761;5122.995;-12838.476;294;150;156.4;57;57.1;8;8.1;28.8;-1.0;
15/06/2019 22:01:21;117;0;286.58;17;26.71;6.32;139.2;9.20;68767;5122.995;-12838.476;294;150;156.4;57;57.1;9;9.0;28.8;-1.0;
15/06/2019 22:01:41;117;0;290.00;17;26.41;7.61;135.1;9.20;68777;5122.995;-12838.476;294;150;156.4;57;57.1;8;7.7;28.8;-1.0;
15/06/2019 22:02:01;117;0;292.13;17;26.49;6.37;131.3;9.20;68769;5122.995;-12838.476;294;150;156.4;57;57.1;8;7.2;28.8;-1.0;
15/06/2019 22:02:21;117;0;293.23;17;26.04;6.41;127.4;9.20;68774;5122.995;-12838.476;294;150;156.4;57;57.2;7;7.2;28.8;-1.0;
15/06/2019 22:02:41;117;0;293.51;17;25.68;6.23;123.6;9.20;68781;5122.995;-12838.476;294;150;156.4;57;57.1;8;8.1;28.8;-1.0;
15/06/2019 22:03:01;117;0;287.77;17;25.56;7.23;119.9;9.20;68783;5122.995;-12838.476;294;150;156.4;57;57.1;11;10.8;28.9;-1.0;
15/06/2019 22:03:21;117;0;281.83;17;24.91;8.72;116.4;9.20;68794;5122.995;-12838.476;294;150;156.4;57;57.1;13;13.1;28.8;-1.0;
15/06/2019 22:03:41;117;0;289.67;17;23.90;9.61;113.2;9.20;68804;5122.995;-12838.476;294;150;156.4;57;57.1;7;7.2;28.8;-1.0;
15/06/2019 22:04:01;117;0;291.90;17;24.15;6.12;109.8;9.20;68810;5122.995;-12838.476;294;150;154.5;57;57.1;6;5.4;28.8;-1.0;
15/06/2019 22:04:21;117;0;284.99;17;24.34;5.42;106.4;9.20;68838;5122.995;-12838.476;294;150;158.4;57;57.2;10;9.9;28.8;-1.0;
15/06/2019 22:04:41;117;0;292.35;17;23.15;8.33;102.9;9.20;68844;5122.995;-12838.476;294;150;156.4;57;57.1;4;3.6;28.8;-1.0;
15/06/2019 22:05:01;117;0;292.37;17;22.71;4.54;99.6;9.20;68858;5122.995;-12838.476;294;150;156.4;57;57.1;4;3.2;28.8;-1.0;
15/06/2019 22:05:21;117;0;293.61;17;21.87;4.52;96.4;9.20;68871;5122.995;-12838.476;294;150;156.4;57;57.1;4;3.2;28.8;-1.0;
15/06/2019 22:05:41;117;0;295.94;17;20.32;4.41;93.5;9.20;68884;5122.995;-12838.476;294;150;156.4;57;57.1;2;1.4;28.8;-1.0;
15/06/2019 22:06:01;117;0;293.85;17;19.60;3.17;91.0;9.20;68889;5122.995;-12838.476;294;150;158.4;57;57.1;4;4.5;28.8;-1.0;
15/06/2019 22:06:21;117;0;292.08;17;20.35;5.53;88.8;9.20;68890;5122.995;-12838.476;294;150;156.4;57;57.1;3;2.7;28.9;-1.0;
15/06/2019 22:06:41;117;0;293.58;17;20.08;3.94;86.7;9.20;68899;5122.995;-12838.476;294;150;156.4;57;57.1;2;1.8;28.8;-1.0;
15/06/2019 22:07:01;117;0;298.68;17;19.85;3.45;84.7;9.30;68916;5122.995;-12838.476;294;150;156.4;57;57.1;0;0.0;28.8;-1.0;
15/06/2019 22:07:21;117;0;299.80;17;19.76;2.49;82.6;9.30;68935;5122.995;-12838.476;294;150;156.4;57;57.1;-1;-0.9;28.9;-1.0;
15/06/2019 22:07:41;117;0;303.00;17;19.38;2.25;80.3;9.30;68930;5122.995;-12838.476;294;150;156.4;57;57.1;-2;-1.8;28.8;-1.0;
15/06/2019 22:08:01;117;0;304.45;17;19.14;1.66;78.1;9.30;68950;5122.995;-12838.476;294;150;156.4;57;57.1;-3;-3.2;28.8;-1.0;
15/06/2019 22:08:22;117;0;301.62;17;19.28;1.07;76.0;9.30;68964;5122.995;-12838.476;294;150;156.4;57;57.1;-1;-0.5;28.9;-1.0;
15/06/2019 22:08:42;117;0;303.67;17;19.39;2.99;73.9;9.30;68979;5122.995;-12838.476;294;150;156.4;57;57.1;-3;-3.2;28.8;-1.0;
15/06/2019 22:09:02;117;0;303.20;17;19.28;1.25;71.7;9.30;68979;5122.995;-12838.476;294;150;156.4;57;57.1;-3;-3.6;28.8;-1.0;
15/06/2019 22:09:22;117;0;300.76;17;19.12;1.28;69.7;9.40;68991;5122.995;-12838.476;294;150;156.4;57;57.1;-2;-1.8;28.8;-1.0;
15/06/2019 22:09:42;117;0;299.63;17;19.26;2.41;67.5;9.40;69001;5122.995;-12838.476;294;150;156.4;57;57.1;-3;-3.2;28.9;-1.0;
15/06/2019 22:10:02;117;0;298.21;17;19.06;1.24;65.4;9.40;69007;5122.995;-12838.476;294;150;156.4;57;57.1;-3;-3.6;28.8;-1.0;
15/06/2019 22:10:22;117;0;296.34;17;19.19;1.24;63.4;9.40;69011;5122.995;-12838.476;294;150;156.4;57;57.1;-3;-3.6;28.9;-1.0;
15/06/2019 22:10:42;117;0;293.87;17;19.46;1.15;61.2;9.40;69021;5122.995;-12838.476;294;150;156.4;57;57.1;-2;-1.8;28.8;-1.0;
15/06/2019 22:11:02;117;0;295.22;17;19.37;2.41;59.2;9.50;69021;5122.995;-12838.476;294;150;156.4;57;57.1;-5;-5.4;28.8;-1.0;
15/06/2019 22:11:22;117;0;292.09;17;19.34;0.21;56.9;9.50;69027;5122.995;-12838.476;294;150;156.4;57;57.2;-4;-4.1;28.8;-1.0;
15/06/2019 22:11:42;117;0;291.90;17;18.98;1.56;54.9;9.50;69040;5122.995;-12838.476;294;150;156.4;57;57.1;-4;-3.2;28.8;-1.0;
15/06/2019 22:12:02;117;0;290.98;17;18.98;1.60;52.9;9.50;69036;5122.995;-12838.476;294;150;156.4;57;57.1;-5;-5.0;28.8;-1.0;
15/06/2019 22:12:22;117;0;289.92;17;18.82;0.59;50.8;9.50;69039;5122.995;-12838.476;294;150;156.4;57;57.1;-5;-5.4;28.8;-1.0;
15/06/2019 22:12:42;117;0;285.24;17;18.75;0.57;48.9;9.60;69055;5122.995;-12838.476;294;150;156.4;57;57.1;-4;-4.1;28.8;-1.0;
15/06/2019 22:13:02;117;0;279.36;17;18.63;1.49;46.8;9.60;69055;5122.995;-12838.476;294;150;156.4;57;57.1;-1;-0.9;28.8;-1.0;
15/06/2019 22:13:22;117;0;274.87;17;18.75;3.09;44.8;9.60;69070;5122.995;-12838.476;294;150;156.4;57;57.1;-1;-0.5;28.8;-1.0;
15/06/2019 22:13:42;117;0;269.34;17;18.60;3.05;42.9;9.60;69076;5122.995;-12838.476;294;150;154.5;57;57.1;0;0.0;28.8;-1.0;
15/06/2019 22:14:02;117;0;270.85;17;18.46;3.38;41.0;9.60;69077;5122.995;-12838.476;294;150;156.4;57;57.1;-1;-0.9;28.8;-1.0;
15/06/2019 22:14:22;117;0;273.79;17;18.42;2.62;39.1;9.60;69093;5122.995;-12838.476;294;150;158.4;57;57.2;-3;-3.2;28.8;-1.0;
15/06/2019 22:14:42;117;0;279.05;17;18.34;1.34;37.0;9.70;69106;5122.995;-12838.476;294;150;156.4;57;57.1;-3;-3.6;28.8;-1.0;
15/06/2019 22:15:02;117;0;280.50;17;18.02;1.31;34.9;9.70;69107;5122.995;-12838.476;294;150;156.4;57;57.1;-5;-5.0;28.8;-1.0;
15/06/2019 22:15:22;117;0;273.53;17;17.93;0.61;32.8;9.70;69121;5122.995;-12838.476;294;150;156.4;57;57.1;-5;-5.4;28.9;-1.0;
15/06/2019 22:15:42;117;0;264.13;17;17.92;0.56;31.0;9.70;69136;5122.995;-12838.476;294;150;158.4;57;57.1;3;3.2;28.8;-1.0;
15/06/2019 22:16:02;117;0;271.70;17;17.00;5.12;29.3;9.80;69162;5122.995;-12838.476;294;150;158.4;57;57.1;-2;-2.3;28.9;-1.0;
15/06/2019 22:16:22;117;0;277.20;17;16.50;1.91;27.7;9.80;69180;5122.995;-12838.476;294;150;156.4;57;57.1;-2;-2.7;28.9;-1.0;
15/06/2019 22:16:42;117;0;272.31;17;16.29;1.90;26.0;9.80;69214;5122.995;-12838.476;294;150;156.4;57;57.1;-1;-0.9;28.8;-1.0;
15/06/2019 22:17:02;117;0;269.31;17;16.19;3.22;24.3;9.90;69253;5122.995;-12838.476;294;150;156.4;57;57.1;0;0.0;28.8;-1.0;
15/06/2019 22:17:22;117;0;266.11;17;16.31;3.92;22.5;9.90;69272;5122.995;-12838.476;294;150;156.4;57;57.1;1;0.9;28.8;-1.0;
15/06/2019 22:17:42;117;0;259.17;17;16.00;3.59;20.9;9.90;69316;5122.995;-12838.476;294;150;158.4;57;57.1;5;5.0;28.9;-1.0;
15/06/2019 22:18:02;117;0;255.81;17;16.09;5.93;19.3;10.00;69340;5122.995;-12838.476;294;150;156.4;57;57.1;6;5.9;28.8;-1.0;
15/06/2019 22:18:22;117;0;252.21;17;16.23;6.72;17.8;10.00;69363;5122.995;-12838.476;294;150;156.4;57;57.1;7;7.2;28.8;-1.0;
15/06/2019 22:18:42;117;0;252.58;17;15.89;7.30;16.3;10.10;69378;5122.995;-12838.476;294;150;156.4;57;57.1;6;5.4;28.8;-1.0;
15/06/2019 22:19:02;117;0;252.40;17;15.68;5.80;14.8;10.10;69411;5122.995;-12838.476;294;150;158.4;57;57.1;6;5.0;28.8;-1.0;
15/06/2019 22:19:22;117;0;255.50;17;15.76;5.94;13.3;10.20;69429;5122.995;-12838.476;294;150;156.4;57;57.1;4;3.6;28.8;-1.0;
15/06/2019 22:19:42;117;0;258.40;17;15.69;4.94;11.8;10.20;69442;5122.995;-12838.476;294;150;156.4;57;57.1;3;3.2;28.8;-1.0;
15/06/2019 22:20:02;117;0;261.79;17;15.64;5.07;10.1;10.30;69467;5122.995;-12838.476;294;150;156.4;57;57.1;3;3.2;28.8;-1.0;
