Timestamp;NavState;SecurityLevel;Heading;Declination;Pitch;Roll;Depth;Temperature;Pa;Lat;Lon;DesiredH;BallastCmd;BallastPos;LinCmd;LinPos;AngCmd;AngPos;Voltage;Altitude;
15/06/2019 17:12:39;117;0;272.73;17;15.92;2.76;8.8;10.20;69416;5123.616;-12837.242;277;150;156.4;57;56.9;-1;-0.9;28.9;-1.0;
15/06/2019 17:12:49;115;0;273.80;17;15.78;2.75;8.0;10.30;69438;5123.616;-12837.242;277;500;170.3;100;100.3;0;0.9;28.9;-1.0;
15/06/2019 17:12:59;115;0;275.27;17;-26.16;4.01;7.3;10.30;69364;5123.616;-12837.242;277;500;318.8;100;100.0;0;0.9;28.5;-1.0;
15/06/2019 17:13:09;115;0;291.48;17;-65.94;2.33;8.0;10.30;69168;5123.616;-12837.242;277;500;471.3;100;99.9;0;0.9;28.5;-1.0;
15/06/2019 17:13:19;115;0;286.92;17;-57.71;4.08;6.8;10.30;68915;5123.616;-12837.242;277;500;506.9;100;100.0;0;0.9;28.5;-1.0;
15/06/2019 17:13:29;115;0;284.51;17;-30.16;3.10;3.9;10.40;68886;5123.616;-12837.242;277;500;506.9;100;100.0;0;0.9;28.9;-1.0;
15/06/2019 17:13:39;116;0;284.93;17;-36.82;-0.42;1.4;10.40;68906;5123.616;-12837.242;277;500;508.9;100;100.0;0;0.5;28.9;-1.0;
15/06/2019 17:13:59;116;0;201.87;17;-14.29;3.01;1.4;10.50;68923;5123.664;-12837.567;277;500;506.9;100;99.9;0;0.5;28.9;-1.0;
15/06/2019 17:14:19;116;0;164.14;17;-18.73;2.34;1.4;10.60;68950;5123.664;-12837.566;277;500;508.9;100;99.9;0;0.9;28.8;-1.0;
15/06/2019 17:14:39;116;0;163.79;17;-21.64;2.75;1.4;10.70;68968;5123.663;-12837.564;276;500;510.9;100;99.9;0;0.9;28.9;-1.0;
15/06/2019 17:14:59;116;0;153.40;17;-20.89;3.12;1.3;10.80;68978;5123.661;-12837.555;276;500;508.9;100;99.9;0;0.9;28.9;-1.0;
15/06/2019 17:16:00;116;0;121.68;17;-18.64;4.15;1.3;11.30;69005;5123.661;-12837.555;276;500;506.9;100;99.9;0;0.9;28.8;-1.0;
15/06/2019 17:16:20;116;0;116.92;17;-21.57;0.32;1.3;11.50;69021;5123.660;-12837.553;276;500;506.9;100;99.9;0;0.9;28.9;-1.0;
15/06/2019 17:16:40;116;0;109.74;17;-18.82;-2.83;1.4;11.60;69039;5123.673;-12837.545;276;500;510.9;100;99.9;0;0.9;28.9;-1.0;
15/06/2019 17:17:01;116;0;115.61;17;-21.47;1.33;1.3;11.80;69038;5123.679;-12837.540;276;500;508.9;100;99.9;0;0.9;28.7;-1.0;
15/06/2019 17:17:21;116;0;113.54;17;-20.09;4.81;1.3;11.90;69051;5123.693;-12837.535;276;500;508.9;100;99.9;0;0.5;28.8;-1.0;
15/06/2019 17:17:41;116;0;111.73;17;-20.38;4.73;1.4;12.10;69064;5123.671;-12837.541;276;500;506.9;100;99.9;0;0.9;28.9;-1.0;
15/06/2019 17:18:01;116;0;114.28;17;-17.83;5.90;1.3;12.30;69064;5123.647;-12837.631;276;500;508.9;100;99.9;0;0.9;28.9;-1.0;
15/06/2019 17:19:01;116;0;104.75;17;-20.26;3.87;1.4;12.80;69097;5123.647;-12837.630;276;500;510.9;100;99.7;0;0.9;28.9;-1.0;
15/06/2019 17:19:21;116;0;106.23;17;-19.29;2.27;1.4;13.00;69094;5123.647;-12837.631;276;500;508.9;100;99.9;0;0.5;28.8;-1.0;
15/06/2019 17:19:41;116;0;103.86;17;-19.95;5.04;1.3;13.10;69104;5123.647;-12837.631;276;500;508.9;100;99.9;0;0.9;28.8;-1.0;
15/06/2019 17:20:01;116;0;106.81;17;-20.54;2.98;1.4;13.20;69107;5123.647;-12837.631;276;500;508.9;100;99.9;0;0.9;28.7;-1.0;
15/06/2019 17:20:21;116;0;109.90;17;-20.39;2.15;1.3;13.30;69118;5123.650;-12837.641;276;500;508.9;100;99.9;0;0.9;28.8;-1.0;
15/06/2019 17:20:41;116;0;111.76;17;-22.23;3.69;1.4;13.50;69128;5123.651;-12837.608;276;500;508.9;100;99.9;0;0.9;28.8;-1.0;
15/06/2019 17:21:01;116;0;123.87;17;-18.80;4.35;1.3;13.60;69119;5123.650;-12837.607;276;500;508.9;100;99.9;0;0.9;28.8;-1.0;
15/06/2019 17:21:21;116;0;127.40;17;-21.71;2.11;1.4;13.80;69152;5123.647;-12837.620;276;500;508.9;100;99.9;0;0.9;28.8;-1.0;
15/06/2019 17:21:41;116;0;131.23;17;-18.59;4.44;1.3;14.00;69142;5123.651;-12837.535;276;500;508.9;100;99.9;0;0.9;28.9;-1.0;
15/06/2019 17:22:42;116;0;148.26;17;-19.82;5.45;1.4;14.40;69150;5123.651;-12837.537;276;500;508.9;100;99.9;0;0.5;28.8;-1.0;
15/06/2019 17:23:02;116;0;150.39;17;-19.87;5.67;1.4;14.50;69164;5123.651;-12837.528;276;500;508.9;100;99.9;0;0.9;28.9;-1.0;
15/06/2019 17:23:22;116;0;145.28;17;-20.22;2.74;1.4;14.60;69174;5123.657;-12837.495;276;500;508.9;100;100.0;0;0.5;28.8;-1.0;
15/06/2019 17:23:42;116;0;153.30;17;-19.46;2.95;1.4;14.70;69172;5123.648;-12837.494;276;500;508.9;100;99.9;0;0.5;28.9;-1.0;
15/06/2019 17:24:02;110;0;151.44;17;-20.69;1.70;1.4;14.70;69171;5123.648;-12837.494;276;-300;405.9;100;99.9;0;0.9;28.9;-1.0;
15/06/2019 17:24:12;110;0;141.66;17;-21.76;6.30;1.4;14.80;69427;5123.648;-12837.494;276;-300;255.4;100;99.9;0;0.9;28.9;-1.0;
15/06/2019 17:24:22;110;0;144.00;17;-27.61;7.20;1.6;14.80;69627;5123.648;-12837.494;276;-300;101.0;100;99.9;0;0.5;28.8;-1.0;
15/06/2019 17:24:32;110;0;140.96;17;-51.28;4.73;2.1;14.80;69873;5123.648;-12837.494;276;-300;-73.3;100;100.0;0;0.9;28.7;-1.0;
15/06/2019 17:24:42;110;0;133.13;17;-62.21;7.76;2.8;14.80;70156;5123.648;-12837.494;276;-300;-263.4;93;92.8;0;0.9;28.8;-1.0;
15/06/2019 17:24:52;110;0;131.70;17;-54.50;2.52;3.9;14.80;70489;5123.648;-12837.494;276;-300;-303.0;76;76.0;0;0.5;28.8;-1.0;
15/06/2019 17:25:02;110;0;138.56;17;-42.74;3.08;6.4;14.80;70508;5123.648;-12837.494;276;-300;-303.0;73;73.0;0;0.9;28.8;-1.0;
15/06/2019 17:25:12;100;0;133.86;17;-32.32;4.01;9.0;14.80;70511;5123.648;-12837.494;276;-300;-301.0;73;72.9;0;0.9;28.9;-1.0;
15/06/2019 17:25:32;100;0;138.24;17;-27.48;4.15;13.6;14.80;70482;5123.648;-12837.494;276;-300;-297.0;73;72.7;-45;-45.1;28.9;0.0;
15/06/2019 17:25:52;100;0;158.07;17;-25.96;-17.71;18.4;14.70;70441;5123.648;-12837.494;276;-300;-297.0;73;72.7;-45;-45.1;28.9;0.0;
15/06/2019 17:26:12;100;0;166.27;17;-26.43;-17.29;22.3;14.70;70388;5123.648;-12837.494;276;-300;-297.0;73;72.7;-36;-36.1;28.9;0.0;
15/06/2019 17:26:32;100;0;168.88;17;-26.25;-12.70;26.5;14.60;70328;5123.648;-12837.494;276;-300;-297.0;73;72.7;-34;-33.4;28.9;0.0;
15/06/2019 17:26:52;100;0;174.09;17;-25.10;-11.48;30.6;14.50;70271;5123.648;-12837.494;276;-300;-297.0;73;72.7;-30;-29.8;28.9;0.0;
15/06/2019 17:27:12;100;0;174.39;17;-25.22;-9.80;34.3;14.40;70217;5123.648;-12837.494;276;-300;-295.0;73;72.7;-31;-31.6;28.9;0.0;
15/06/2019 17:27:32;100;0;169.94;17;-25.51;-11.07;38.0;14.40;70182;5123.648;-12837.494;276;-300;-297.0;73;72.7;-34;-33.8;28.9;0.0;
15/06/2019 17:27:52;100;0;165.16;17;-25.78;-12.24;41.7;14.30;70147;5123.648;-12837.494;276;-300;-297.0;73;72.7;-35;-35.6;28.9;0.0;
15/06/2019 17:28:12;100;0;169.37;17;-25.07;-13.14;45.5;14.20;70128;5123.648;-12837.494;276;-300;-295.0;73;72.7;-32;-31.6;28.9;0.0;
15/06/2019 17:28:32;100;0;172.31;17;-25.11;-10.56;49.2;14.10;70112;5123.648;-12837.494;276;-300;-297.0;73;72.7;-30;-29.8;28.9;0.0;
15/06/2019 17:28:52;100;0;170.61;17;-24.87;-9.71;52.9;14.00;70094;5123.648;-12837.494;276;-300;-297.0;73;72.7;-32;-32.0;28.9;0.0;
15/06/2019 17:29:12;100;0;170.78;17;-25.27;-11.49;56.6;13.90;70069;5123.648;-12837.494;276;-300;-295.0;73;72.7;-32;-32.5;28.9;0.0;
15/06/2019 17:29:32;100;0;168.61;17;-24.82;-11.43;60.4;13.90;70051;5123.648;-12837.494;276;-300;-297.0;73;72.9;-33;-32.9;28.9;0.0;
15/06/2019 17:29:52;100;0;175.78;17;-24.28;-11.91;64.0;13.80;70027;5123.648;-12837.494;276;-300;-295.0;73;72.7;-29;-28.9;28.9;0.0;
15/06/2019 17:30:12;100;0;183.16;17;-23.87;-9.55;67.6;13.70;70021;5123.648;-12837.494;276;-300;-297.0;73;72.7;-25;-24.8;28.9;0.0;
15/06/2019 17:30:32;100;0;184.36;17;-24.14;-7.58;71.0;13.60;69992;5123.648;-12837.494;276;-300;-297.0;73;72.7;-27;-27.1;28.9;0.0;
15/06/2019 17:30:52;100;0;186.04;17;-24.05;-9.24;74.4;13.50;69979;5123.648;-12837.494;276;-300;-295.0;73;72.7;-27;-27.5;28.9;0.0;
15/06/2019 17:31:12;100;0;192.10;17;-23.95;-9.34;77.7;13.40;69978;5123.648;-12837.494;276;-300;-297.0;73;72.7;-24;-23.9;28.9;0.0;
15/06/2019 17:31:32;100;0;188.74;17;-22.65;-7.26;81.0;13.40;69949;5123.648;-12837.494;276;-300;-295.0;73;72.7;-28;-28.0;28.9;0.0;
15/06/2019 17:31:52;100;0;188.78;17;-23.02;-9.90;84.0;13.30;69942;5123.648;-12837.494;276;-300;-295.0;73;72.7;-28;-28.4;28.9;0.0;
15/06/2019 17:32:12;100;0;178.73;17;-23.60;-9.74;86.9;13.20;69915;5123.648;-12837.494;276;-300;-295.0;73;72.7;-34;-33.8;28.9;0.0;
15/06/2019 17:32:32;100;0;173.07;17;-22.49;-12.46;90.1;13.10;69912;5123.648;-12837.494;276;-300;-295.0;73;72.9;-35;-35.6;28.9;0.0;
15/06/2019 17:32:52;100;0;173.58;17;-22.00;-13.26;93.0;13.10;69898;5123.648;-12837.494;276;-300;-295.0;73;72.7;-33;-32.9;28.9;0.0;
15/06/2019 17:33:12;100;0;172.93;17;-22.36;-11.52;95.7;13.00;69885;5123.648;-12837.494;276;-300;-297.0;73;72.7;-33;-32.5;28.9;0.0;
15/06/2019 17:33:32;100;0;174.25;17;-22.21;-11.54;98.4;12.90;69874;5123.648;-12837.494;276;-300;-295.0;73;72.7;-31;-31.1;28.9;0.0;
15/06/2019 17:33:52;100;0;178.79;17;-22.08;-10.67;101.1;12.90;69870;5123.648;-12837.494;276;-300;-295.0;73;72.7;-29;-28.9;28.9;0.0;
15/06/2019 17:34:12;100;0;177.57;17;-22.16;-9.77;103.8;12.80;69857;5123.648;-12837.494;276;-300;-295.0;73;72.7;-30;-29.8;28.9;0.0;
15/06/2019 17:34:32;100;0;178.33;17;-21.64;-10.53;106.7;12.70;69847;5123.648;-12837.494;276;-300;-295.0;73;72.7;-30;-30.2;28.8;0.0;
15/06/2019 17:34:52;100;0;176.67;17;-21.64;-10.56;109.6;12.70;69843;5123.648;-12837.494;276;-300;-295.0;73;72.7;-31;-31.6;28.9;0.0;
15/06/2019 17:35:12;100;0;179.72;17;-22.05;-11.56;112.3;12.60;69826;5123.648;-12837.494;276;-300;-295.0;73;72.7;-29;-28.9;28.9;0.0;
15/06/2019 17:35:32;100;0;187.45;17;-21.04;-9.72;115.0;12.50;69819;5123.648;-12837.494;276;-300;-295.0;73;72.7;-25;-24.8;28.9;0.0;
15/06/2019 17:35:52;100;0;191.31;17;-20.95;-7.95;117.5;12.50;69813;5123.648;-12837.494;276;-300;-293.1;73;72.7;-25;-24.4;28.9;0.0;
15/06/2019 17:36:12;100;0;196.79;17;-20.65;-8.07;120.1;12.40;69803;5123.648;-12837.494;276;-300;-295.0;73;72.7;-23;-23.0;28.9;0.0;
15/06/2019 17:36:32;100;0;198.07;17;-21.20;-7.06;122.4;12.40;69796;5123.648;-12837.494;276;-300;-295.0;73;72.7;-24;-23.9;28.9;0.0;
15/06/2019 17:36:52;100;0;202.17;17;-20.92;-8.05;124.8;12.30;69789;5123.648;-12837.494;276;-300;-295.0;73;72.7;-23;-23.0;28.9;0.0;
15/06/2019 17:37:12;100;0;210.29;17;-20.90;-7.13;126.9;12.20;69781;5123.648;-12837.494;276;-300;-295.0;73;72.7;-20;-19.4;28.9;0.0;
15/06/2019 17:37:32;100;0;201.56;17;-20.19;-5.33;129.1;12.20;69758;5123.648;-12837.494;276;-300;-293.1;73;72.7;-27;-27.5;28.9;0.0;
15/06/2019 17:37:52;100;0;197.06;17;-19.59;-9.61;131.5;12.10;69738;5123.648;-12837.494;276;-300;-295.0;73;72.7;-29;-28.9;28.9;0.0;
15/06/2019 17:38:12;100;0;198.92;17;-19.30;-10.45;133.9;12.00;69738;5123.648;-12837.494;276;-300;-295.0;73;72.7;-27;-27.1;28.9;0.0;
15/06/2019 17:38:32;100;0;197.54;17;-19.50;-8.92;136.3;12.00;69727;5123.648;-12837.494;276;-300;-295.0;73;72.7;-27;-26.6;28.9;0.0;
15/06/2019 17:38:53;100;0;198.98;17;-20.39;-8.94;138.5;11.90;69717;5123.648;-12837.494;276;-300;-295.0;73;72.7;-26;-26.2;28.9;0.0;
15/06/2019 17:39:13;100;0;203.59;17;-19.79;-9.11;140.9;11.80;69708;5123.648;-12837.494;276;-300;-293.1;73;72.7;-24;-23.9;28.9;0.0;
15/06/2019 17:39:33;100;0;208.43;17;-19.91;-7.45;143.1;11.80;69710;5123.648;-12837.494;276;-300;-295.0;73;72.7;-22;-22.1;28.8;0.0;
15/06/2019 17:39:53;100;0;209.06;17;-19.04;-6.57;145.6;11.70;69694;5123.648;-12837.494;276;-300;-295.0;73;72.7;-23;-23.5;28.9;0.0;
15/06/2019 17:40:13;100;0;213.59;17;-19.21;-7.81;147.9;11.70;69691;5123.648;-12837.494;276;-300;-295.0;73;72.7;-21;-20.8;28.9;0.0;
15/06/2019 17:40:33;100;0;218.23;17;-19.04;-5.99;150.1;11.60;69674;5123.648;-12837.494;276;-300;-293.1;73;72.7;-19;-19.0;28.9;0.0;
15/06/2019 17:40:53;100;0;223.99;17;-19.30;-5.25;152.3;11.50;69667;5123.648;-12837.494;276;-300;-295.0;73;72.7;-18;-18.1;28.9;0.0;
15/06/2019 17:41:13;100;0;219.36;17;-18.96;-4.45;154.6;11.50;69656;5123.648;-12837.494;276;-300;-293.1;73;72.6;-22;-22.1;28.9;0.0;
15/06/2019 17:41:33;100;0;216.59;17;-19.04;-7.01;156.8;11.40;69640;5123.648;-12837.494;276;-300;-293.1;73;72.7;-24;-24.4;28.9;0.0;
15/06/2019 17:41:53;100;0;213.45;17;-19.07;-8.14;159.0;11.40;69638;5123.648;-12837.494;276;-300;-293.1;73;72.7;-25;-24.8;28.9;0.0;
15/06/2019 17:42:13;100;0;210.38;17;-19.07;-8.17;161.3;11.30;69628;5123.648;-12837.494;276;-300;-293.1;73;72.7;-26;-26.2;28.9;0.0;
15/06/2019 17:42:33;100;0;214.17;17;-18.75;-9.07;163.5;11.30;69620;5123.648;-12837.494;276;-300;-295.0;73;72.7;-23;-23.0;28.9;0.0;
15/06/2019 17:42:53;100;0;217.50;17;-18.79;-6.96;165.6;11.20;69621;5123.648;-12837.494;276;-300;-293.1;73;72.6;-21;-20.8;28.9;0.0;
15/06/2019 17:43:13;100;0;219.22;17;-18.87;-5.84;167.8;11.20;69604;5123.648;-12837.494;276;-300;-293.1;73;72.7;-21;-19.9;28.9;44.4;
15/06/2019 17:43:33;100;0;217.56;17;-18.67;-5.78;170.0;11.10;69595;5123.648;-12837.494;276;-300;-293.1;73;72.7;-23;-23.0;28.9;42.1;
15/06/2019 17:43:53;100;0;214.44;17;-18.87;-7.59;172.1;11.00;69601;5123.648;-12837.494;276;-300;-293.1;73;72.7;-24;-24.4;28.9;39.9;
15/06/2019 17:44:13;100;0;213.24;17;-19.11;-8.16;174.2;11.00;69581;5123.648;-12837.494;276;-300;-293.1;73;72.7;-24;-24.4;28.9;37.8;
15/06/2019 17:44:33;100;0;214.53;17;-19.05;-8.26;176.2;11.00;69578;5123.648;-12837.494;276;-300;-295.0;73;72.7;-23;-23.0;28.9;35.7;
15/06/2019 17:44:53;100;0;214.70;17;-18.90;-6.99;178.2;10.90;69567;5123.648;-12837.494;276;-300;-295.0;73;72.7;-23;-22.1;28.9;33.6;
15/06/2019 17:45:13;100;0;215.35;17;-18.91;-7.04;180.3;10.80;69564;5123.648;-12837.494;276;-300;-293.1;73;72.7;-23;-22.1;28.9;31.6;
15/06/2019 17:45:33;100;0;217.73;17;-18.85;-7.08;182.3;10.80;69550;5123.648;-12837.494;276;-300;-293.1;73;72.7;-22;-22.1;28.9;29.7;
15/06/2019 17:45:53;100;0;219.20;17;-18.76;-6.96;184.3;10.70;69540;5123.648;-12837.494;276;-300;-295.0;73;72.7;-21;-21.2;28.9;27.5;
15/06/2019 17:46:13;100;0;221.20;17;-18.86;-6.10;186.2;10.70;69526;5123.648;-12837.494;276;-300;-295.0;73;72.7;-21;-20.3;28.9;25.5;
15/06/2019 17:46:33;100;0;222.47;17;-18.99;-6.18;188.3;10.60;69535;5123.648;-12837.494;276;-300;-293.1;73;72.7;-21;-20.3;28.9;23.5;
15/06/2019 17:46:53;100;0;223.53;17;-19.24;-5.89;190.1;10.60;69529;5123.648;-12837.494;276;-300;-293.1;73;72.7;-21;-20.3;28.9;21.6;
15/06/2019 17:47:13;100;0;227.09;17;-18.62;-6.15;192.1;10.60;69526;5123.648;-12837.494;276;-300;-293.1;73;72.7;-19;-19.0;28.9;19.5;
15/06/2019 17:47:33;118;0;225.41;17;-18.68;-5.82;194.0;10.50;69517;5123.648;-12837.494;276;150;-279.2;57;56.9;0;0.5;28.9;17.5;
15/06/2019 17:47:43;118;0;161.69;17;3.18;3.75;194.9;10.50;69445;5123.648;-12837.494;276;150;-122.8;57;57.1;0;0.5;28.3;17.5;
15/06/2019 17:47:53;118;0;165.08;17;20.14;3.58;194.6;10.50;69233;5123.648;-12837.494;276;150;33.7;57;57.1;0;0.5;28.3;-1.0;
15/06/2019 17:48:03;118;0;167.22;17;24.84;3.61;193.7;10.50;68975;5123.648;-12837.494;276;150;154.5;57;57.1;0;0.5;28.3;-1.0;
15/06/2019 17:48:13;118;0;216.05;17;24.14;3.00;192.4;10.50;68799;5123.648;-12837.494;276;150;156.4;57;57.1;0;0.5;28.9;-1.0;
15/06/2019 17:48:23;118;0;216.00;17;26.48;3.65;190.8;10.40;68802;5123.648;-12837.494;276;150;156.4;57;57.1;0;0.5;28.9;-1.0;
15/06/2019 17:48:33;117;0;215.75;17;27.83;3.62;188.9;10.40;68796;5123.648;-12837.494;276;150;156.4;57;57.1;0;0.5;28.9;-1.0;
15/06/2019 17:48:53;117;0;213.60;17;28.19;3.77;184.6;10.40;68791;5123.648;-12837.494;276;150;156.4;57;57.1;28;28.0;28.9;-1.0;
15/06/2019 17:49:13;117;0;224.42;17;27.78;17.72;179.4;10.30;68780;5123.648;-12837.494;276;150;156.4;57;57.1;20;19.9;28.9;-1.0;
15/06/2019 17:49:33;117;0;233.15;17;27.71;13.02;174.9;10.30;68777;5123.648;-12837.494;276;150;156.4;57;57.1;15;14.9;28.9;-1.0;
15/06/2019 17:49:53;117;0;241.98;17;27.35;9.87;170.4;10.30;68794;5123.648;-12837.494;276;150;156.4;57;57.1;13;12.6;28.8;-1.0;
15/06/2019 17:50:13;117;0;245.02;17;27.71;9.24;166.0;10.20;68792;5123.648;-12837.494;276;150;156.4;57;57.1;13;12.6;28.9;-1.0;
15/06/2019 17:50:33;117;0;247.85;17;27.41;9.16;161.8;10.20;68792;5123.648;-12837.494;276;150;156.4;57;57.1;14;14.0;28.9;-1.0;
15/06/2019 17:50:53;117;0;253.84;17;27.16;10.36;157.7;10.10;68789;5123.648;-12837.494;276;150;158.4;57;57.1;12;12.2;28.9;-1.0;
15/06/2019 17:51:13;117;0;258.03;17;27.18;8.73;153.7;10.10;68804;5123.648;-12837.494;276;150;156.4;57;57.1;12;11.7;28.9;-1.0;
15/06/2019 17:51:33;117;0;258.94;17;27.32;8.72;149.4;10.10;68802;5123.648;-12837.494;276;150;156.4;57;57.1;12;11.7;28.8;-1.0;
15/06/2019 17:51:53;117;0;258.83;17;27.49;8.89;145.0;10.00;68799;5123.648;-12837.494;276;150;156.4;57;57.1;12;11.7;28.8;-1.0;
15/06/2019 17:52:13;117;0;258.56;17;26.99;8.83;140.8;10.00;68807;5123.648;-12837.494;276;150;156.4;57;57.1;12;11.7;28.9;-1.0;
15/06/2019 17:52:33;117;0;260.28;17;26.56;8.85;136.5;10.00;68819;5123.648;-12837.494;276;150;158.4;57;57.1;12;11.7;28.9;-1.0;
15/06/2019 17:52:53;117;0;262.57;17;26.45;8.95;132.6;10.00;68819;5123.648;-12837.494;276;150;158.4;57;57.1;13;13.5;28.9;-1.0;
15/06/2019 17:53:13;117;0;265.05;17;25.92;9.91;128.7;9.90;68814;5123.648;-12837.494;276;150;158.4;57;57.1;11;10.8;28.9;-1.0;
15/06/2019 17:53:33;117;0;269.01;17;26.15;8.14;124.7;9.90;68827;5123.648;-12837.494;276;150;156.4;57;57.1;9;8.6;28.9;-1.0;
15/06/2019 17:53:53;117;0;274.81;17;25.44;7.08;120.8;9.90;68851;5123.648;-12837.494;276;150;156.4;57;57.1;7;6.8;28.9;-1.0;
15/06/2019 17:54:13;117;0;282.21;17;25.22;6.31;116.8;9.90;68855;5123.648;-12837.494;276;150;158.4;57;57.1;3;3.2;28.8;-1.0;
15/06/2019 17:54:33;117;0;288.71;17;24.91;4.08;113.1;9.90;68856;5123.648;-12837.494;276;150;156.4;57;57.1;2;1.8;28.9;-1.0;
15/06/2019 17:54:53;117;0;288.71;17;24.31;3.54;109.6;9.90;68860;5123.648;-12837.494;276;150;158.4;57;57.1;3;3.2;28.9;-1.0;
15/06/2019 17:55:13;117;0;285.14;17;24.00;4.96;106.2;9.90;68877;5123.648;-12837.494;276;150;158.4;57;57.1;5;5.4;28.9;-1.0;
15/06/2019 17:55:33;117;0;281.79;17;23.82;6.20;103.0;9.90;68884;5123.648;-12837.494;276;150;158.4;57;57.1;7;7.2;28.9;-1.0;
15/06/2019 17:55:53;117;0;291.33;17;23.33;6.89;99.8;9.80;68885;5123.648;-12837.494;276;150;158.4;57;57.1;0;0.0;28.8;-1.0;
15/06/2019 17:56:13;117;0;290.63;17;23.55;2.91;96.7;9.80;68897;5123.648;-12837.494;276;150;156.4;57;57.1;2;1.8;28.9;-1.0;
15/06/2019 17:56:33;117;0;294.11;17;23.34;4.39;93.6;9.80;68890;5123.648;-12837.494;276;150;158.4;57;57.1;0;0.0;28.9;-1.0;
15/06/2019 17:56:53;117;0;295.87;17;23.37;2.95;90.5;9.80;68893;5123.648;-12837.494;276;150;158.4;57;57.1;0;0.0;28.9;-1.0;
15/06/2019 17:57:13;117;0;284.84;17;23.25;2.47;87.4;9.80;68901;5123.648;-12837.494;276;150;156.4;57;57.1;6;5.9;28.9;-1.0;
15/06/2019 17:57:33;117;0;279.16;17;22.40;6.42;84.4;9.80;68907;5123.648;-12837.494;276;150;156.4;57;57.1;6;6.8;28.9;-1.0;
15/06/2019 17:57:53;117;0;286.34;17;21.79;6.49;81.6;9.80;68916;5123.648;-12837.494;276;150;158.4;57;57.1;0;-0.5;28.9;-1.0;
15/06/2019 17:58:13;117;0;291.18;17;21.40;2.69;78.8;9.80;68919;5123.648;-12837.494;276;150;158.4;57;57.1;-2;-2.3;28.9;-1.0;
15/06/2019 17:58:33;117;0;289.18;17;21.24;1.86;76.2;9.80;68921;5123.648;-12837.494;276;150;156.4;57;57.1;-1;-0.9;28.9;-1.0;
15/06/2019 17:58:53;117;0;281.83;17;21.05;3.31;73.5;9.80;68937;5123.648;-12837.494;276;150;158.4;57;57.1;2;2.3;28.9;-1.0;
15/06/2019 17:59:13;117;0;277.51;17;20.78;4.69;71.0;9.80;68948;5123.648;-12837.494;276;150;158.4;57;57.1;3;3.2;28.9;-1.0;
15/06/2019 17:59:33;117;0;282.08;17;20.67;5.16;68.4;9.80;68952;5123.648;-12837.494;276;150;158.4;57;57.1;-1;-0.9;28.9;-1.0;
15/06/2019 17:59:53;117;0;282.35;17;20.72;2.58;65.8;9.80;68949;5123.648;-12837.494;276;150;158.4;57;57.1;-2;-1.8;28.9;-1.0;
15/06/2019 18:00:13;117;0;276.53;17;20.13;2.02;63.3;9.80;68956;5123.648;-12837.494;276;150;158.4;57;57.1;0;0.0;28.9;-1.0;
15/06/2019 18:00:33;117;0;274.14;17;20.22;3.49;61.0;9.80;68966;5123.648;-12837.494;276;150;158.4;57;57.1;0;0.5;28.9;-1.0;
15/06/2019 18:00:53;117;0;273.09;17;19.75;3.44;58.6;9.80;68979;5123.648;-12837.494;276;150;158.4;57;57.1;0;0.5;28.9;-1.0;
15/06/2019 18:01:13;117;0;273.99;17;19.51;3.48;56.4;9.80;68992;5123.648;-12837.494;276;150;158.4;57;57.1;-1;-0.9;28.9;-1.0;
15/06/2019 18:01:33;117;0;270.82;17;19.39;2.48;54.3;9.80;68992;5123.648;-12837.494;276;150;158.4;57;57.1;0;0.0;28.9;-1.0;
15/06/2019 18:01:53;117;0;268.42;17;19.37;3.34;52.2;9.80;69008;5123.648;-12837.494;276;150;158.4;57;57.1;0;0.5;28.9;-1.0;
15/06/2019 18:02:13;117;0;267.29;17;19.20;3.39;50.0;9.90;69005;5123.648;-12837.494;276;150;156.4;57;57.1;-1;-0.9;28.9;-1.0;
15/06/2019 18:02:33;117;0;269.55;17;19.06;2.70;48.0;9.90;69029;5123.648;-12837.494;276;150;156.4;57;57.1;-3;-3.2;28.9;-1.0;
15/06/2019 18:02:53;117;0;268.37;17;19.27;1.42;45.9;9.90;69028;5123.648;-12837.494;276;150;156.4;57;57.1;-2;-1.8;28.9;-1.0;
15/06/2019 18:03:13;117;0;268.16;17;19.08;2.67;43.8;9.90;69025;5123.648;-12837.494;276;150;158.4;57;57.1;-3;-3.2;28.8;-1.0;
15/06/2019 18:03:33;117;0;264.87;17;19.17;1.45;41.7;9.90;69043;5123.648;-12837.494;276;150;156.4;57;57.1;-1;-0.9;28.9;-1.0;
15/06/2019 18:03:53;117;0;265.01;17;18.85;3.05;39.6;9.90;69057;5123.648;-12837.494;276;150;156.4;57;57.1;-2;-2.3;28.9;-1.0;
15/06/2019 18:04:13;117;0;264.94;17;18.73;1.82;37.7;9.90;69054;5123.648;-12837.494;276;150;158.4;57;57.1;-2;-2.7;28.9;-1.0;
15/06/2019 18:04:33;117;0;265.55;17;18.83;1.87;35.7;9.90;69066;5123.648;-12837.494;276;150;156.4;57;57.1;-3;-3.2;28.9;-1.0;
15/06/2019 18:04:53;117;0;262.78;17;18.80;1.32;33.8;9.90;69067;5123.648;-12837.494;276;150;158.4;57;57.1;-2;-1.8;28.9;-1.0;
15/06/2019 18:05:13;117;0;263.41;17;18.66;2.79;31.8;9.90;69075;5123.648;-12837.494;276;150;156.4;57;57.1;-3;-3.2;28.9;-1.0;
15/06/2019 18:05:33;117;0;263.88;17;18.62;1.46;29.8;9.90;69075;5123.648;-12837.494;276;150;158.4;57;57.1;-3;-3.6;28.9;-1.0;
15/06/2019 18:05:53;117;0;259.11;17;18.28;1.30;27.8;10.00;69101;5123.648;-12837.494;276;150;156.4;57;57.1;-3;-3.6;28.9;-1.0;
15/06/2019 18:06:13;117;0;253.54;17;18.18;1.46;25.7;10.00;69103;5123.648;-12837.494;276;150;156.4;57;57.1;0;0.0;28.9;-1.0;
15/06/2019 18:06:33;117;0;253.62;17;18.03;3.60;23.8;10.00;69122;5123.648;-12837.494;276;150;158.4;57;57.1;0;0.9;28.9;-1.0;
15/06/2019 18:06:53;117;0;251.42;17;17.91;3.64;21.7;10.00;69141;5123.648;-12837.494;276;150;158.4;57;57.1;0;0.5;28.9;-1.0;
15/06/2019 18:07:13;117;0;248.32;17;17.84;3.56;19.7;10.10;69153;5123.648;-12837.494;276;150;158.4;57;57.1;1;0.9;28.9;-1.0;
15/06/2019 18:07:33;117;0;250.37;17;17.16;3.89;17.8;10.10;69158;5123.648;-12837.494;276;150;158.4;57;57.1;0;0.0;28.9;-1.0;
15/06/2019 18:07:53;117;0;255.10;17;16.77;3.18;16.1;10.10;69184;5123.648;-12837.494;276;150;158.4;57;57.1;-2;-1.8;28.9;-1.0;
15/06/2019 18:08:13;117;0;254.69;17;16.21;2.13;14.4;10.10;69225;5123.648;-12837.494;276;150;158.4;57;57.1;-1;-0.9;28.9;-1.0;
15/06/2019 18:08:33;117;0;248.38;17;16.49;2.95;12.5;10.20;69260;5123.648;-12837.494;276;150;158.4;57;57.1;2;1.8;28.9;-1.0;
15/06/2019 18:08:53;117;0;243.39;17;16.20;4.54;10.7;10.20;69296;5123.648;-12837.494;276;150;158.4;57;57.1;5;5.0;28.9;-1.0;
