Timestamp;NavState;SecurityLevel;Heading;Declination;Pitch;Roll;Depth;Temperature;Pa;Lat;Lon;DesiredH;BallastCmd;BallastPos;LinCmd;LinPos;AngCmd;AngPos;Voltage;Altitude;
14/06/2019 22:04:26;117;0;218.48;17;16.30;2.40;13.8;10.70;69334;5130.310;-12824.790;227;150;158.4;57;56.9;-3;-3.2;29.1;-1.0;
14/06/2019 22:04:36;110;0;217.29;17;15.60;1.59;12.9;10.70;69333;5130.310;-12824.790;227;-300;31.7;73;73.3;0;0.5;29.1;-1.0;
14/06/2019 22:04:46;110;0;224.87;17;-10.63;4.06;12.4;10.70;69629;5130.310;-12824.790;227;-300;-140.6;73;73.0;0;0.5;29.0;-1.0;
14/06/2019 22:04:56;110;0;232.09;17;-24.48;4.40;13.0;10.70;69857;5130.310;-12824.790;227;-300;-301.0;73;73.0;0;0.9;29.0;-1.0;
14/06/2019 22:05:06;110;0;222.71;17;-26.41;3.92;14.3;10.70;70116;5130.310;-12824.790;227;-300;-301.0;73;73.0;0;0.9;29.0;-1.0;
14/06/2019 22:05:16;100;0;216.85;17;-27.66;4.00;16.1;10.70;70097;5130.310;-12824.790;227;-300;-301.0;73;73.0;0;0.5;29.1;-1.0;
14/06/2019 22:05:36;100;0;209.11;17;-26.74;3.81;20.0;10.80;70116;5130.310;-12824.790;227;-300;-303.0;73;73.0;0;0.9;29.0;0.0;
14/06/2019 22:05:56;100;0;203.49;17;-25.69;3.82;24.5;10.80;70098;5130.310;-12824.790;227;-300;-303.0;73;73.0;-3;-3.2;29.1;0.0;
14/06/2019 22:06:16;100;0;202.54;17;-24.60;2.02;28.8;10.80;70066;5130.310;-12824.790;227;-300;-303.0;73;73.0;-2;-1.8;29.0;0.0;
14/06/2019 22:06:36;100;0;195.40;17;-24.98;3.03;32.6;10.80;70041;5130.310;-12824.790;227;-300;-303.0;73;73.0;-6;-5.9;29.1;0.0;
14/06/2019 22:06:56;100;0;185.87;17;-24.68;0.58;36.5;10.80;69993;5130.310;-12824.790;227;-300;-301.0;73;73.0;-10;-9.9;29.1;0.0;
14/06/2019 22:07:16;100;0;178.78;17;-25.10;-1.21;40.3;10.80;69979;5130.310;-12824.790;227;-300;-301.0;73;73.0;-12;-12.2;29.0;0.0;
14/06/2019 22:07:36;100;0;177.46;17;-24.54;-2.32;44.3;10.80;69956;5130.310;-12824.790;227;-300;-301.0;73;73.0;-11;-10.8;29.1;0.0;
14/06/2019 22:07:56;100;0;171.57;17;-24.36;-1.24;48.1;10.80;69937;5130.310;-12824.790;227;-300;-303.0;73;73.0;-13;-13.5;29.1;0.0;
14/06/2019 22:08:16;100;0;168.61;17;-24.91;-2.76;51.8;10.80;69923;5130.310;-12824.790;227;-300;-303.0;73;73.0;-13;-14.0;29.0;0.0;
14/06/2019 22:08:36;100;0;168.54;17;-24.91;-2.76;55.5;10.80;69916;5130.310;-12824.790;227;-300;-303.0;73;73.0;-13;-13.5;29.1;0.0;
14/06/2019 22:08:56;100;0;164.92;17;-24.00;-2.95;59.3;10.80;69901;5130.310;-12824.790;227;-300;-301.0;73;73.0;-16;-15.8;29.1;0.0;
14/06/2019 22:09:16;100;0;158.83;17;-24.25;-3.77;63.0;10.70;69889;5130.310;-12824.790;227;-300;-301.0;73;73.0;-20;-19.9;29.0;0.0;
14/06/2019 22:09:36;100;0;152.25;17;-24.74;-5.83;66.6;10.70;69881;5130.310;-12824.790;227;-300;-303.0;73;73.0;-24;-23.9;29.0;0.0;
14/06/2019 22:09:56;100;0;151.68;17;-24.83;-7.79;70.1;10.70;69866;5130.310;-12824.790;227;-300;-301.0;73;73.0;-25;-24.8;29.0;0.0;
14/06/2019 22:10:16;100;0;155.31;17;-23.81;-8.23;73.8;10.70;69870;5130.310;-12824.790;227;-300;-301.0;73;73.0;-24;-23.5;29.1;0.0;
14/06/2019 22:10:36;100;0;153.06;17;-24.32;-7.15;77.2;10.70;69855;5130.310;-12824.790;227;-300;-303.0;73;73.0;-26;-26.2;29.1;0.0;
14/06/2019 22:10:56;100;0;158.67;17;-23.37;-8.81;80.7;10.70;69839;5130.310;-12824.790;227;-300;-303.0;73;72.9;-23;-23.0;29.0;0.0;
14/06/2019 22:11:16;100;0;159.53;17;-22.73;-6.81;84.1;10.70;69835;5130.310;-12824.790;227;-300;-301.0;73;73.0;-23;-22.1;29.1;0.0;
14/06/2019 22:11:36;100;0;154.92;17;-22.76;-6.67;87.4;10.60;69827;5130.310;-12824.790;227;-300;-303.0;73;73.0;-27;-27.1;29.0;0.0;
14/06/2019 22:11:56;100;0;151.19;17;-22.84;-9.34;90.7;10.60;69808;5130.310;-12824.790;227;-300;-303.0;73;73.0;-28;-28.0;29.0;0.0;
14/06/2019 22:12:16;100;0;147.26;17;-22.11;-9.86;94.0;10.60;69799;5130.310;-12824.790;227;-300;-303.0;73;73.0;-29;-29.3;29.1;0.0;
14/06/2019 22:12:36;100;0;147.77;17;-21.97;-10.38;96.9;10.60;69788;5130.310;-12824.790;227;-300;-301.0;73;73.0;-28;-28.0;29.1;0.0;
14/06/2019 22:12:56;100;0;156.09;17;-21.67;-9.46;99.8;10.60;69776;5130.310;-12824.790;227;-300;-303.0;73;73.0;-22;-22.1;29.1;0.0;
14/06/2019 22:13:16;100;0;159.03;17;-21.01;-6.53;102.7;10.50;69768;5130.310;-12824.790;227;-300;-303.0;73;72.9;-22;-21.7;29.0;0.0;
14/06/2019 22:13:36;100;0;158.62;17;-21.06;-6.52;105.5;10.50;69761;5130.310;-12824.790;227;-300;-301.0;73;73.0;-24;-23.9;29.0;0.0;
14/06/2019 22:13:56;100;0;163.58;17;-21.02;-7.98;108.1;10.50;69748;5130.310;-12824.790;227;-300;-303.0;73;73.0;-21;-20.8;29.0;0.0;
14/06/2019 22:14:16;100;0;164.77;17;-20.62;-5.81;110.8;10.50;69745;5130.310;-12824.790;227;-300;-301.0;73;73.0;-22;-22.6;29.1;0.0;
14/06/2019 22:14:36;100;0;166.36;17;-20.69;-7.27;113.5;10.50;69740;5130.310;-12824.790;227;-300;-301.0;73;73.0;-22;-23.0;29.1;0.0;
14/06/2019 22:14:57;100;0;165.48;17;-20.11;-7.18;116.1;10.50;69725;5130.310;-12824.790;227;-300;-303.0;73;73.0;-23;-23.0;29.1;0.0;
14/06/2019 22:15:17;100;0;161.16;17;-20.48;-7.19;118.6;10.40;69718;5130.310;-12824.790;227;-300;-301.0;73;73.0;-25;-24.8;29.0;0.0;
14/06/2019 22:15:37;100;0;160.28;17;-20.19;-8.31;121.0;10.40;69706;5130.310;-12824.790;227;-300;-303.0;73;73.0;-25;-25.3;29.0;0.0;
14/06/2019 22:15:57;100;0;159.57;17;-20.33;-8.33;123.4;10.40;69694;5130.310;-12824.790;227;-300;-303.0;73;73.0;-25;-25.3;29.1;0.0;
14/06/2019 22:16:17;100;0;159.54;17;-19.91;-8.29;125.8;10.40;69694;5130.310;-12824.790;227;-300;-301.0;73;73.0;-25;-25.3;29.1;0.0;
14/06/2019 22:16:37;100;0;156.35;17;-20.18;-8.41;128.1;10.30;69681;5130.310;-12824.790;227;-300;-301.0;73;72.9;-26;-26.2;29.1;0.0;
14/06/2019 22:16:57;100;0;155.60;17;-19.87;-9.18;130.4;10.30;69674;5130.310;-12824.790;227;-300;-303.0;73;73.0;-26;-26.6;29.1;0.0;
14/06/2019 22:17:17;100;0;152.19;17;-20.53;-9.26;132.6;10.30;69669;5130.310;-12824.790;227;-300;-303.0;73;73.0;-28;-28.0;29.1;0.0;
14/06/2019 22:17:37;100;0;156.56;17;-19.72;-10.06;134.7;10.30;69654;5130.310;-12824.790;227;-300;-301.0;73;73.0;-24;-23.5;29.0;0.0;
14/06/2019 22:17:57;100;0;159.73;17;-19.54;-7.40;136.9;10.20;69634;5130.310;-12824.790;227;-300;-301.0;73;73.0;-23;-23.0;29.0;0.0;
14/06/2019 22:18:17;100;0;162.65;17;-19.51;-7.32;139.0;10.20;69631;5130.310;-12824.790;227;-300;-305.0;73;73.0;-22;-21.7;29.1;0.0;
14/06/2019 22:18:37;100;0;160.47;17;-19.86;-6.40;141.2;10.20;69617;5130.310;-12824.790;227;-300;-303.0;73;73.0;-24;-23.9;29.0;44.5;
14/06/2019 22:18:57;100;0;157.79;17;-20.19;-8.02;143.3;10.10;69612;5130.310;-12824.790;227;-300;-303.0;73;72.9;-26;-26.6;29.0;42.4;
14/06/2019 22:19:17;100;0;160.69;17;-19.23;-9.15;145.7;10.10;69591;5130.310;-12824.790;227;-300;-301.0;73;73.0;-24;-23.9;29.0;40.6;
14/06/2019 22:19:37;100;0;163.05;17;-19.04;-7.31;148.1;10.10;69590;5130.310;-12824.790;227;-300;-303.0;73;73.0;-22;-22.1;29.1;37.8;
14/06/2019 22:19:57;100;0;162.18;17;-18.81;-6.43;150.3;10.10;69586;5130.310;-12824.790;227;-300;-303.0;73;73.0;-24;-23.9;29.0;35.2;
14/06/2019 22:20:17;100;0;160.17;17;-19.11;-7.83;152.6;10.00;69577;5130.310;-12824.790;227;-300;-301.0;73;73.0;-25;-24.8;29.1;33.0;
14/06/2019 22:20:37;100;0;161.18;17;-19.22;-8.42;154.9;10.00;69566;5130.310;-12824.790;227;-300;-301.0;73;73.0;-24;-23.9;29.0;30.6;
14/06/2019 22:20:57;100;0;162.63;17;-19.17;-7.53;157.2;10.00;69572;5130.310;-12824.790;227;-300;-301.0;73;73.0;-23;-23.0;29.0;28.2;
14/06/2019 22:21:17;100;0;164.07;17;-19.04;-7.00;159.5;9.90;69545;5130.310;-12824.790;227;-300;-305.0;73;72.9;-23;-22.1;29.0;25.8;
14/06/2019 22:21:37;100;0;165.25;17;-19.12;-7.03;161.7;9.90;69541;5130.310;-12824.790;227;-300;-303.0;73;73.0;-22;-22.1;29.0;23.4;
14/06/2019 22:21:57;100;0;166.29;17;-19.07;-6.98;164.0;9.90;69544;5130.310;-12824.790;227;-300;-303.0;73;73.0;-22;-22.1;29.1;21.2;
14/06/2019 22:22:17;100;0;167.34;17;-19.07;-6.97;166.2;9.90;69530;5130.310;-12824.790;227;-300;-301.0;73;73.0;-22;-22.1;29.1;18.9;
14/06/2019 22:22:37;118;0;168.53;17;-19.06;-6.96;168.4;9.80;69535;5130.310;-12824.790;227;150;-289.1;57;56.8;0;0.9;29.1;16.6;
14/06/2019 22:22:47;118;0;134.80;17;1.73;3.94;169.2;9.80;69437;5130.310;-12824.790;227;150;-130.7;57;56.9;0;0.5;28.5;16.6;
14/06/2019 22:22:57;118;0;134.61;17;19.21;3.55;169.0;9.80;69235;5130.310;-12824.790;227;150;21.8;57;56.9;0;0.5;28.5;-1.0;
14/06/2019 22:23:07;118;0;133.23;17;23.80;3.74;168.1;9.80;68984;5130.310;-12824.790;227;150;156.4;57;56.9;0;0.5;28.5;-1.0;
14/06/2019 22:23:17;118;0;168.88;17;24.71;4.04;166.9;9.80;68775;5130.310;-12824.790;227;150;156.4;57;57.1;0;0.9;29.1;-1.0;
14/06/2019 22:23:27;118;0;168.98;17;27.03;3.75;165.3;9.80;68786;5130.310;-12824.790;227;150;156.4;57;56.9;0;0.5;29.0;-1.0;
14/06/2019 22:23:37;117;0;169.09;17;27.89;3.57;163.4;9.80;68790;5130.310;-12824.790;227;150;156.4;57;56.9;0;0.5;28.9;-1.0;
14/06/2019 22:23:57;117;0;166.54;17;28.27;3.64;159.1;9.80;68790;5130.310;-12824.790;227;150;156.4;57;56.9;23;23.0;29.0;-1.0;
14/06/2019 22:24:17;117;0;175.20;17;27.95;15.12;154.0;9.70;68778;5130.310;-12824.790;227;150;156.4;57;56.9;18;18.1;29.0;-1.0;
14/06/2019 22:24:37;117;0;181.78;17;27.38;11.78;149.5;9.70;68777;5130.310;-12824.790;227;150;156.4;57;56.9;16;15.8;29.0;-1.0;
14/06/2019 22:24:57;117;0;182.29;17;27.53;10.31;145.2;9.70;68775;5130.310;-12824.790;227;150;160.4;57;56.9;18;18.1;29.1;-1.0;
14/06/2019 22:25:17;117;0;192.39;17;27.12;12.43;140.8;9.60;68781;5130.310;-12824.790;227;150;156.4;57;56.9;13;13.1;29.0;-1.0;
14/06/2019 22:25:37;117;0;196.21;17;27.63;9.36;136.4;9.60;68788;5130.310;-12824.790;227;150;156.4;57;57.1;13;12.6;29.1;-1.0;
14/06/2019 22:25:57;117;0;201.72;17;26.90;9.49;131.8;9.60;68796;5130.310;-12824.790;227;150;156.4;57;56.9;12;12.2;29.0;-1.0;
14/06/2019 22:26:17;117;0;212.34;17;26.42;8.66;127.8;9.60;68795;5130.310;-12824.790;227;150;156.4;57;56.9;12;11.3;29.1;-1.0;
14/06/2019 22:26:37;117;0;215.21;17;26.08;8.43;123.9;9.60;68809;5130.310;-12824.790;227;150;156.4;57;56.9;9;9.0;29.0;-1.0;
14/06/2019 22:26:57;117;0;216.93;17;26.14;7.32;120.3;9.60;68828;5130.310;-12824.790;227;150;156.4;57;56.9;10;9.9;29.0;-1.0;
14/06/2019 22:27:17;117;0;222.96;17;25.87;8.49;116.6;9.50;68822;5130.310;-12824.790;227;150;156.4;57;56.9;8;8.1;29.0;-1.0;
14/06/2019 22:27:37;117;0;220.38;17;25.69;6.94;113.0;9.50;68843;5130.310;-12824.790;227;150;156.4;57;57.1;10;9.9;29.0;-1.0;
14/06/2019 22:27:57;117;0;216.34;17;26.01;8.31;109.4;9.50;68846;5130.310;-12824.790;227;150;156.4;57;56.9;13;13.1;29.1;-1.0;
14/06/2019 22:28:17;117;0;214.57;17;25.82;9.91;105.6;9.50;68854;5130.310;-12824.790;227;150;156.4;57;56.9;13;13.5;29.1;-1.0;
14/06/2019 22:28:37;117;0;220.48;17;24.93;9.73;101.9;9.50;68851;5130.310;-12824.790;227;150;156.4;57;56.9;9;9.0;29.1;-1.0;
14/06/2019 22:28:57;117;0;218.52;17;25.36;7.30;98.1;9.50;68861;5130.310;-12824.790;227;150;156.4;57;56.9;10;9.9;29.0;-1.0;
14/06/2019 22:29:17;117;0;221.55;17;24.29;8.56;94.4;9.50;68873;5130.310;-12824.790;227;150;156.4;57;56.9;8;8.1;29.1;-1.0;
14/06/2019 22:29:37;117;0;224.86;17;23.47;6.86;91.0;9.50;68874;5130.310;-12824.790;227;150;156.4;57;56.9;6;5.9;29.0;-1.0;
14/06/2019 22:29:57;117;0;221.29;17;23.18;5.85;87.8;9.50;68893;5130.310;-12824.790;227;150;156.4;57;56.9;9;9.5;29.1;-1.0;
14/06/2019 22:30:17;117;0;222.66;17;22.65;8.16;84.9;9.50;68894;5130.310;-12824.790;227;150;158.4;57;56.9;7;7.2;29.1;-1.0;
14/06/2019 22:30:37;117;0;220.73;17;22.52;6.41;82.0;9.50;68907;5130.310;-12824.790;227;150;156.4;57;56.9;8;8.1;29.0;-1.0;
14/06/2019 22:30:57;117;0;223.88;17;21.99;7.58;79.2;9.50;68907;5130.310;-12824.790;227;150;156.4;57;56.9;6;5.9;29.0;-1.0;
14/06/2019 22:31:17;117;0;216.97;17;22.42;5.94;76.6;9.50;68909;5130.310;-12824.790;227;150;156.4;57;56.9;10;9.9;29.1;-1.0;
14/06/2019 22:31:37;117;0;215.31;17;21.99;8.45;73.9;9.50;68907;5130.310;-12824.790;227;150;156.4;57;56.9;9;9.0;29.0;-1.0;
14/06/2019 22:31:57;117;0;217.09;17;20.83;7.16;71.3;9.50;68921;5130.310;-12824.790;227;150;156.4;57;57.1;7;7.2;29.1;-1.0;
14/06/2019 22:32:17;117;0;217.24;17;20.88;6.47;69.0;9.50;68932;5130.310;-12824.790;227;150;156.4;57;56.9;7;6.8;29.0;-1.0;
14/06/2019 22:32:37;117;0;212.74;17;21.15;6.58;66.6;9.50;68937;5130.310;-12824.790;227;150;158.4;57;56.9;10;10.4;29.0;-1.0;
14/06/2019 22:32:57;117;0;213.64;17;20.51;8.53;64.2;9.50;68948;5130.310;-12824.790;227;150;156.4;57;56.9;8;8.1;29.1;-1.0;
14/06/2019 22:33:17;117;0;215.24;17;20.24;6.95;62.0;9.50;68948;5130.310;-12824.790;227;150;156.4;57;56.9;6;5.9;29.1;-1.0;
14/06/2019 22:33:37;117;0;221.18;17;19.87;5.79;59.7;9.50;68957;5130.310;-12824.790;227;150;156.4;57;56.9;3;3.2;29.1;-1.0;
14/06/2019 22:33:57;117;0;224.75;17;19.95;4.52;57.5;9.50;68963;5130.310;-12824.790;227;150;156.4;57;56.9;2;1.8;29.1;-1.0;
14/06/2019 22:34:17;117;0;226.60;17;19.76;3.59;55.3;9.50;68966;5130.310;-12824.790;227;150;156.4;57;57.1;1;0.9;29.0;-1.0;
14/06/2019 22:34:37;117;0;221.33;17;20.06;3.59;53.1;9.60;68978;5130.310;-12824.790;227;150;156.4;57;56.9;4;4.1;29.0;-1.0;
14/06/2019 22:34:57;117;0;218.02;17;19.81;5.63;50.8;9.60;68978;5130.310;-12824.790;227;150;156.4;57;56.9;5;5.0;29.1;-1.0;
14/06/2019 22:35:17;117;0;220.64;17;19.58;6.24;48.6;9.60;68992;5130.310;-12824.790;227;150;158.4;57;56.9;3;3.2;29.1;-1.0;
14/06/2019 22:35:37;117;0;222.53;17;19.41;4.56;46.4;9.60;69001;5130.310;-12824.790;227;150;158.4;57;56.9;1;0.5;29.0;-1.0;
14/06/2019 22:35:57;117;0;223.17;17;19.07;3.02;44.1;9.60;69007;5130.310;-12824.790;227;150;154.5;57;56.9;1;0.0;29.1;-1.0;
14/06/2019 22:36:17;117;0;222.75;17;19.01;3.14;42.0;9.60;69008;5130.310;-12824.790;227;150;156.4;57;56.9;1;0.0;29.1;-1.0;
14/06/2019 22:36:37;117;0;219.38;17;19.03;3.15;40.0;9.60;69020;5130.310;-12824.790;227;150;156.4;57;56.9;2;1.8;29.0;-1.0;
14/06/2019 22:36:57;117;0;218.86;17;18.72;4.44;38.1;9.60;69040;5130.310;-12824.790;227;150;156.4;57;56.9;2;2.3;29.1;-1.0;
14/06/2019 22:37:17;117;0;224.32;17;18.65;4.63;36.3;9.60;69036;5130.310;-12824.790;227;150;156.4;57;56.9;-1;-1.4;29.1;-1.0;
14/06/2019 22:37:37;117;0;227.59;17;18.74;2.41;34.4;9.60;69049;5130.310;-12824.790;227;150;156.4;57;57.1;-3;-3.2;29.0;-1.0;
14/06/2019 22:37:57;117;0;224.24;17;18.47;1.37;32.4;9.70;69057;5130.310;-12824.790;227;150;156.4;57;56.9;-1;-0.9;29.1;-1.0;
14/06/2019 22:38:17;117;0;226.93;17;18.42;3.26;30.5;9.70;69074;5130.310;-12824.790;227;150;158.4;57;56.9;-2;-1.8;29.0;-1.0;
14/06/2019 22:38:37;117;0;228.94;17;17.97;2.01;28.4;9.70;69091;5130.310;-12824.790;227;150;156.4;57;56.9;-4;-4.1;29.1;-1.0;
14/06/2019 22:38:57;117;0;216.40;17;17.99;0.82;26.4;9.70;69093;5130.310;-12824.790;227;150;156.4;57;56.9;2;2.3;29.0;-1.0;
14/06/2019 22:39:17;117;0;217.27;17;17.29;4.58;24.6;9.70;69121;5130.310;-12824.790;227;150;156.4;57;56.9;0;-0.5;29.0;-1.0;
14/06/2019 22:39:37;117;0;217.53;17;17.23;2.87;22.9;9.80;69132;5130.310;-12824.790;227;150;156.4;57;56.9;-1;-0.9;29.1;-1.0;
14/06/2019 22:39:57;117;0;214.45;17;17.51;2.70;21.3;9.80;69168;5130.310;-12824.790;227;150;158.4;57;56.9;0;0.5;29.1;-1.0;
14/06/2019 22:40:17;117;0;210.31;17;16.62;3.58;19.5;9.80;69183;5130.310;-12824.790;227;150;158.4;57;56.9;0;0.9;29.0;-1.0;
14/06/2019 22:40:37;117;0;210.57;17;16.53;3.61;17.9;9.90;69216;5130.310;-12824.790;227;150;158.4;57;57.1;0;0.9;29.1;-1.0;
14/06/2019 22:40:57;117;0;212.47;17;16.23;3.69;16.2;9.90;69226;5130.310;-12824.790;227;150;156.4;57;56.9;0;0.9;29.0;-1.0;
