Timestamp;NavState;SecurityLevel;Heading;Declination;Pitch;Roll;Depth;Temperature;Pa;Lat;Lon;DesiredH;BallastCmd;BallastPos;LinCmd;LinPos;AngCmd;AngPos;Voltage;Altitude;
14/06/2019 13:27:20;117;0;223.64;17;18.48;-0.85;8.9;10.70;69402;5133.953;-12823.116;212;150;158.4;56;56.2;-11;-10.8;29.1;-1.0;
14/06/2019 13:27:30;110;0;213.81;17;17.47;-2.76;8.2;10.70;69411;5133.953;-12823.116;212;-300;-53.5;73;73.2;0;0.9;29.1;-1.0;
14/06/2019 13:27:40;110;0;197.41;17;-11.64;3.82;7.8;10.70;69909;5133.953;-12823.116;212;-300;-303.0;73;72.7;0;0.9;29.1;-1.0;
14/06/2019 13:27:50;110;0;222.67;17;-24.92;4.11;8.6;10.70;70211;5133.953;-12823.116;212;-300;-305.0;73;72.7;0;0.9;29.1;-1.0;
14/06/2019 13:28:00;100;0;217.51;17;-27.50;4.16;10.4;10.80;70209;5133.953;-12823.116;212;-300;-306.9;73;72.9;0;0.9;29.2;-1.0;
14/06/2019 13:28:20;100;0;200.40;17;-26.01;3.76;14.7;10.80;70206;5133.953;-12823.116;212;-300;-305.0;73;72.9;-2;-2.3;29.1;0.0;
14/06/2019 13:28:40;100;0;184.93;17;-25.80;2.57;19.2;10.90;70194;5133.953;-12823.116;212;-300;-305.0;73;72.9;-2;-2.3;29.1;0.0;
14/06/2019 13:29:00;100;0;179.06;17;-25.81;2.46;23.2;10.90;70165;5133.953;-12823.116;212;-300;-306.9;73;72.9;-5;-5.4;29.1;0.0;
14/06/2019 13:29:20;100;0;172.07;17;-24.30;0.96;27.2;10.90;70109;5133.953;-12823.116;212;-300;-305.0;73;72.9;-7;-7.2;29.1;0.0;
14/06/2019 13:29:40;100;0;161.41;17;-24.55;0.03;30.9;10.90;70070;5133.953;-12823.116;212;-300;-303.0;73;72.9;-11;-11.3;29.1;0.0;
14/06/2019 13:30:00;100;0;149.32;17;-25.03;-1.98;34.6;10.90;70042;5133.953;-12823.116;212;-300;-305.0;73;72.9;-16;-16.2;29.1;0.0;
14/06/2019 13:30:20;100;0;145.74;17;-24.95;-4.08;38.4;10.90;70022;5133.953;-12823.116;212;-300;-305.0;73;72.9;-16;-16.7;29.1;0.0;
14/06/2019 13:30:40;100;0;144.67;17;-25.03;-4.04;42.1;10.80;69990;5133.953;-12823.116;212;-300;-305.0;73;72.9;-16;-16.7;29.1;0.0;
14/06/2019 13:31:00;100;0;144.93;17;-24.74;-3.98;45.8;10.80;69973;5133.953;-12823.116;212;-300;-305.0;73;72.9;-16;-16.7;29.1;0.0;
14/06/2019 13:31:20;100;0;145.85;17;-24.30;-3.99;49.6;10.80;69963;5133.953;-12823.116;212;-300;-305.0;73;72.9;-17;-17.1;29.1;0.0;
14/06/2019 13:31:40;100;0;139.31;17;-24.93;-4.74;53.2;10.80;69942;5133.953;-12823.116;212;-300;-305.0;73;72.7;-22;-22.6;29.1;0.0;
14/06/2019 13:32:00;100;0;136.24;17;-24.40;-6.96;57.0;10.80;69934;5133.953;-12823.116;212;-300;-306.9;73;72.9;-25;-25.3;29.1;0.0;
14/06/2019 13:32:20;100;0;132.71;17;-24.28;-8.33;60.8;10.80;69899;5133.953;-12823.116;212;-300;-305.0;73;72.9;-29;-28.9;29.1;0.0;
14/06/2019 13:32:40;100;0;147.31;17;-23.79;-10.30;64.5;10.70;69899;5133.953;-12823.116;212;-300;-305.0;73;72.9;-20;-19.4;29.2;0.0;
14/06/2019 13:33:00;100;0;144.46;17;-23.45;-5.17;68.0;10.70;69886;5133.953;-12823.116;212;-300;-305.0;73;72.9;-23;-23.0;29.1;0.0;
14/06/2019 13:33:20;100;0;139.42;17;-23.94;-7.12;71.6;10.70;69872;5133.953;-12823.116;212;-300;-306.9;73;72.9;-27;-27.1;29.1;0.0;
14/06/2019 13:33:40;100;0;138.34;17;-23.96;-9.14;75.1;10.70;69870;5133.953;-12823.116;212;-300;-305.0;73;72.9;-27;-27.1;29.1;0.0;
14/06/2019 13:34:00;100;0;130.78;17;-22.59;-9.25;78.7;10.70;69837;5133.953;-12823.116;212;-300;-306.9;73;72.9;-31;-31.1;29.2;0.0;
14/06/2019 13:34:20;100;0;135.66;17;-22.24;-11.08;81.8;10.70;69835;5133.953;-12823.116;212;-300;-305.0;73;72.9;-26;-26.2;29.1;0.0;
14/06/2019 13:34:40;100;0;137.72;17;-22.43;-8.52;84.7;10.70;69840;5133.953;-12823.116;212;-300;-306.9;73;72.7;-25;-24.4;29.1;0.0;
14/06/2019 13:35:00;100;0;143.20;17;-22.42;-7.45;87.6;10.60;69830;5133.953;-12823.116;212;-300;-306.9;73;72.9;-22;-22.1;29.1;0.0;
14/06/2019 13:35:20;100;0;133.32;17;-21.29;-6.34;90.5;10.60;69815;5133.953;-12823.116;212;-300;-305.0;73;72.9;-29;-28.9;29.1;0.0;
14/06/2019 13:35:40;100;0;127.72;17;-21.54;-10.26;93.4;10.60;69810;5133.953;-12823.116;212;-300;-305.0;73;72.9;-31;-31.1;29.1;0.0;
14/06/2019 13:36:00;100;0;131.84;17;-21.40;-11.39;96.2;10.60;69796;5133.953;-12823.116;212;-300;-303.0;73;72.9;-27;-26.6;29.2;0.0;
14/06/2019 13:36:20;100;0;133.66;17;-21.30;-8.70;99.0;10.50;69778;5133.953;-12823.116;212;-300;-305.0;73;72.7;-26;-26.2;29.1;0.0;
14/06/2019 13:36:40;100;0;134.04;17;-21.34;-8.65;101.6;10.50;69767;5133.953;-12823.116;212;-300;-306.9;73;72.9;-26;-26.2;29.1;0.0;
14/06/2019 13:37:00;100;0;132.70;17;-21.01;-8.84;104.4;10.50;69773;5133.953;-12823.116;212;-300;-305.0;73;72.9;-27;-27.1;29.1;0.0;
14/06/2019 13:37:20;100;0;138.92;17;-20.99;-9.66;107.0;10.50;69758;5133.953;-12823.116;212;-300;-306.9;73;72.9;-24;-23.9;29.1;0.0;
14/06/2019 13:37:40;100;0;147.12;17;-20.73;-7.57;109.6;10.50;69762;5133.953;-12823.116;212;-300;-305.0;73;72.9;-20;-19.9;29.2;0.0;
14/06/2019 13:38:00;100;0;141.84;17;-20.54;-5.39;112.1;10.50;69756;5133.953;-12823.116;212;-300;-305.0;73;72.9;-25;-24.8;29.1;0.0;
14/06/2019 13:38:20;100;0;143.67;17;-20.13;-8.43;114.7;10.40;69743;5133.953;-12823.116;212;-300;-306.9;73;72.9;-24;-23.5;29.1;0.0;
14/06/2019 13:38:40;100;0;149.13;17;-20.09;-7.30;117.1;10.40;69736;5133.953;-12823.116;212;-300;-305.0;73;72.9;-21;-21.2;29.1;0.0;
14/06/2019 13:39:00;100;0;149.53;17;-20.13;-6.09;119.6;10.40;69730;5133.953;-12823.116;212;-300;-306.9;73;72.7;-22;-22.6;29.1;0.0;
14/06/2019 13:39:20;100;0;152.34;17;-19.68;-7.17;122.1;10.40;69720;5133.953;-12823.116;212;-300;-305.0;73;72.9;-21;-21.2;29.1;0.0;
14/06/2019 13:39:40;100;0;147.24;17;-19.77;-6.05;124.5;10.30;69714;5133.953;-12823.116;212;-300;-305.0;73;72.9;-25;-25.3;29.1;0.0;
14/06/2019 13:40:00;100;0;142.97;17;-19.90;-8.50;126.9;10.30;69705;5133.953;-12823.116;212;-300;-305.0;73;72.7;-27;-27.1;29.1;0.0;
14/06/2019 13:40:20;100;0;150.61;17;-20.00;-9.85;129.3;10.30;69683;5133.953;-12823.116;212;-300;-305.0;73;72.9;-21;-21.2;29.1;44.1;
14/06/2019 13:40:40;100;0;153.37;17;-18.96;-5.98;131.7;10.30;69668;5133.953;-12823.116;212;-300;-306.9;73;72.9;-21;-20.3;29.1;41.7;
14/06/2019 13:41:00;100;0;152.41;17;-18.74;-6.03;133.9;10.20;69659;5133.953;-12823.116;212;-300;-305.0;73;72.7;-22;-22.6;29.1;39.3;
14/06/2019 13:41:20;100;0;152.16;17;-18.65;-7.23;136.3;10.20;69647;5133.953;-12823.116;212;-300;-306.9;73;72.9;-23;-23.0;29.1;36.9;
14/06/2019 13:41:40;100;0;153.48;17;-19.00;-7.60;138.5;10.20;69637;5133.953;-12823.116;212;-300;-305.0;73;72.9;-22;-22.1;29.1;34.5;
14/06/2019 13:42:00;100;0;152.66;17;-18.97;-6.63;140.8;10.10;69622;5133.953;-12823.116;212;-300;-306.9;73;72.9;-23;-23.0;29.1;32.1;
14/06/2019 13:42:20;100;0;152.36;17;-19.08;-7.61;143.2;10.10;69621;5133.953;-12823.116;212;-300;-306.9;73;72.9;-23;-23.5;29.1;29.8;
14/06/2019 13:42:40;100;0;153.42;17;-20.05;-7.41;145.5;10.10;69617;5133.953;-12823.116;212;-300;-305.0;73;72.9;-22;-21.7;29.1;27.5;
14/06/2019 13:43:00;100;0;152.37;17;-18.68;-6.39;147.9;10.00;69606;5133.953;-12823.116;212;-300;-306.9;73;72.9;-23;-23.0;29.1;24.9;
14/06/2019 13:43:20;100;0;154.10;17;-18.66;-7.54;150.2;10.00;69609;5133.953;-12823.116;212;-300;-306.9;73;72.9;-22;-21.7;29.1;22.6;
14/06/2019 13:43:40;100;0;157.05;17;-18.67;-6.69;152.4;10.00;69597;5133.953;-12823.116;212;-300;-305.0;73;72.7;-20;-19.9;29.1;20.3;
14/06/2019 13:44:00;100;0;156.39;17;-18.66;-5.70;154.6;10.00;69587;5133.953;-12823.116;212;-300;-305.0;73;72.7;-22;-22.6;29.1;18.0;
14/06/2019 13:44:20;118;0;156.54;17;-19.46;-7.31;156.8;9.90;69589;5133.953;-12823.116;212;150;-293.1;56;55.9;0;0.9;29.1;15.8;
14/06/2019 13:44:30;118;0;130.89;17;2.93;4.02;157.6;9.90;69500;5133.953;-12823.116;212;150;-134.7;56;56.2;0;0.5;28.6;15.8;
14/06/2019 13:44:40;118;0;130.84;17;20.78;3.53;157.3;9.90;69289;5133.953;-12823.116;212;150;17.8;56;56.2;0;0.9;28.6;-1.0;
14/06/2019 13:44:50;118;0;129.27;17;25.63;3.67;156.5;9.90;69037;5133.953;-12823.116;212;150;156.4;56;56.2;0;0.5;28.6;-1.0;
14/06/2019 13:45:00;118;0;163.91;17;26.48;4.50;155.2;9.90;68834;5133.953;-12823.116;212;150;156.4;56;56.2;0;0.5;29.1;-1.0;
14/06/2019 13:45:10;118;0;163.63;17;28.85;3.75;153.5;9.90;68841;5133.953;-12823.116;212;150;156.4;56;56.2;0;0.5;29.1;-1.0;
14/06/2019 13:45:20;117;0;163.44;17;29.78;3.68;151.5;9.90;68836;5133.953;-12823.116;212;150;156.4;56;56.2;0;0.5;29.1;-1.0;
14/06/2019 13:45:40;117;0;164.88;17;29.75;4.38;147.0;9.90;68828;5133.953;-12823.116;212;150;156.4;56;56.0;17;17.1;29.1;-1.0;
14/06/2019 13:46:00;117;0;170.16;17;29.93;12.24;142.0;9.80;68827;5133.953;-12823.116;212;150;158.4;56;56.2;16;15.8;29.1;-1.0;
14/06/2019 13:46:20;117;0;175.43;17;29.27;10.37;137.6;9.80;68829;5133.953;-12823.116;212;150;156.4;56;56.2;15;14.9;29.1;-1.0;
14/06/2019 13:46:40;117;0;178.75;17;29.49;10.46;132.9;9.80;68820;5133.953;-12823.116;212;150;156.4;56;56.0;15;14.9;29.1;-1.0;
14/06/2019 13:47:00;117;0;178.27;17;29.48;10.76;128.4;9.80;68827;5133.953;-12823.116;212;150;156.4;56;56.0;16;15.8;29.1;-1.0;
14/06/2019 13:47:20;117;0;190.34;17;28.27;11.37;123.8;9.70;68837;5133.953;-12823.116;212;150;158.4;56;56.0;10;9.9;29.1;-1.0;
14/06/2019 13:47:40;117;0;190.13;17;28.19;7.63;119.6;9.70;68839;5133.953;-12823.116;212;150;156.4;56;56.0;13;13.5;29.1;-1.0;
14/06/2019 13:48:00;117;0;190.48;17;28.32;10.05;115.2;9.70;68852;5133.953;-12823.116;212;150;156.4;56;56.2;14;14.0;29.1;-1.0;
14/06/2019 13:48:20;117;0;194.82;17;27.69;9.92;111.1;9.70;68862;5133.953;-12823.116;212;150;156.4;56;56.2;14;14.0;29.1;-1.0;
14/06/2019 13:48:40;117;0;194.83;17;28.04;10.20;106.9;9.70;68879;5133.953;-12823.116;212;150;156.4;56;56.0;14;14.0;29.1;-1.0;
14/06/2019 13:49:00;117;0;202.34;17;27.26;10.10;102.6;9.70;68882;5133.953;-12823.116;212;150;158.4;56;56.0;10;9.9;29.1;-1.0;
14/06/2019 13:49:20;117;0;202.64;17;27.00;7.60;98.6;9.60;68891;5133.953;-12823.116;212;150;158.4;56;56.2;11;10.8;29.1;-1.0;
14/06/2019 13:49:40;117;0;203.27;17;27.23;9.01;94.8;9.60;68899;5133.953;-12823.116;212;150;158.4;56;56.0;11;11.7;29.1;-1.0;
14/06/2019 13:50:00;117;0;207.59;17;26.36;8.80;91.0;9.60;68890;5133.953;-12823.116;212;150;156.4;56;56.0;9;9.0;29.1;-1.0;
14/06/2019 13:50:20;117;0;210.32;17;25.99;7.25;87.4;9.60;68899;5133.953;-12823.116;212;150;158.4;56;56.0;7;7.2;29.1;-1.0;
14/06/2019 13:50:40;117;0;207.13;17;26.93;6.53;84.1;9.60;68905;5133.953;-12823.116;212;150;158.4;56;56.0;10;9.9;29.1;-1.0;
14/06/2019 13:51:01;117;0;212.78;17;25.38;8.34;80.6;9.60;68912;5133.953;-12823.116;212;150;158.4;56;56.2;6;5.9;29.1;-1.0;
14/06/2019 13:51:21;117;0;215.06;17;25.08;5.76;77.1;9.60;68914;5133.953;-12823.116;212;150;156.4;56;56.2;5;5.0;29.1;-1.0;
14/06/2019 13:51:41;117;0;215.62;17;24.24;5.67;73.6;9.60;68921;5133.953;-12823.116;212;150;158.4;56;56.2;5;5.0;29.1;-1.0;
14/06/2019 13:52:01;117;0;210.87;17;24.11;5.74;70.7;9.60;68930;5133.953;-12823.116;212;150;156.4;56;56.2;8;8.1;29.1;-1.0;
14/06/2019 13:52:21;117;0;213.10;17;23.14;7.53;67.8;9.60;68944;5133.953;-12823.116;212;150;158.4;56;56.2;5;5.0;29.1;-1.0;
14/06/2019 13:52:41;117;0;216.85;17;22.58;5.22;65.0;9.60;68946;5133.953;-12823.116;212;150;158.4;56;56.2;3;3.2;29.2;-1.0;
14/06/2019 13:53:01;117;0;214.92;17;23.61;4.42;62.2;9.60;68938;5133.953;-12823.116;212;150;156.4;56;56.2;4;4.1;29.1;-1.0;
14/06/2019 13:53:21;117;0;212.42;17;23.08;5.42;59.2;9.60;68955;5133.953;-12823.116;212;150;158.4;56;56.0;5;5.0;29.1;-1.0;
14/06/2019 13:53:41;117;0;210.24;17;22.05;6.10;56.3;9.60;68966;5133.953;-12823.116;212;150;158.4;56;56.2;5;5.4;29.1;-1.0;
14/06/2019 13:54:01;117;0;208.89;17;21.80;5.95;53.5;9.60;68973;5133.953;-12823.116;212;150;156.4;56;56.2;5;5.9;29.1;-1.0;
14/06/2019 13:54:21;117;0;210.27;17;21.56;6.02;50.9;9.60;68979;5133.953;-12823.116;212;150;156.4;56;56.0;2;1.8;29.1;-1.0;
14/06/2019 13:54:41;117;0;211.62;17;21.56;3.65;48.4;9.60;68988;5133.953;-12823.116;212;150;158.4;56;56.2;1;0.9;29.1;-1.0;
14/06/2019 13:55:01;117;0;210.61;17;21.38;3.55;45.8;9.60;68994;5133.953;-12823.116;212;150;158.4;56;56.0;1;1.4;29.1;-1.0;
14/06/2019 13:55:21;117;0;210.22;17;21.69;3.77;43.3;9.60;69008;5133.953;-12823.116;212;150;158.4;56;56.2;1;0.9;29.1;-1.0;
14/06/2019 13:55:41;117;0;209.35;17;21.29;3.64;40.6;9.70;69016;5133.953;-12823.116;212;150;156.4;56;56.0;1;1.4;29.1;-1.0;
14/06/2019 13:56:01;117;0;213.56;17;21.13;3.56;38.0;9.70;69028;5133.953;-12823.116;212;150;158.4;56;56.2;-1;-0.9;29.1;-1.0;
14/06/2019 13:56:21;117;0;216.93;17;20.88;2.59;35.5;9.70;69033;5133.953;-12823.116;212;150;156.4;56;56.0;-3;-3.6;29.1;-1.0;
14/06/2019 13:56:41;117;0;216.17;17;20.98;1.22;33.3;9.70;69043;5133.953;-12823.116;212;150;158.4;56;56.0;-3;-3.6;29.2;-1.0;
14/06/2019 13:57:01;117;0;215.22;17;20.41;1.38;31.0;9.70;69053;5133.953;-12823.116;212;150;158.4;56;56.2;-2;-1.4;29.1;-1.0;
14/06/2019 13:57:21;117;0;218.66;17;20.31;2.84;28.8;9.70;69072;5133.953;-12823.116;212;150;158.4;56;56.0;-5;-5.0;29.1;-1.0;
14/06/2019 13:57:41;117;0;219.86;17;20.30;0.54;26.6;9.70;69087;5133.953;-12823.116;212;150;158.4;56;56.0;-5;-5.4;29.1;-1.0;
14/06/2019 13:58:01;117;0;214.54;17;20.55;0.60;24.4;9.70;69102;5133.953;-12823.116;212;150;158.4;56;56.0;-2;-1.8;29.1;-1.0;
14/06/2019 13:58:21;117;0;212.51;17;18.91;2.82;22.3;9.80;69139;5133.953;-12823.116;212;150;158.4;56;56.2;-3;-3.2;29.1;-1.0;
14/06/2019 13:58:41;117;0;216.36;17;19.28;1.44;20.4;9.80;69185;5133.953;-12823.116;212;150;156.4;56;56.2;-6;-6.3;29.1;-1.0;
14/06/2019 13:59:01;117;0;215.86;17;18.86;0.14;18.5;9.80;69220;5133.953;-12823.116;212;150;158.4;56;56.2;-6;-6.8;29.2;-1.0;
14/06/2019 13:59:21;117;0;219.70;17;18.85;0.02;16.8;9.90;69256;5133.953;-12823.116;212;150;158.4;56;56.0;-9;-9.0;29.1;-1.0;
14/06/2019 13:59:41;117;0;217.44;17;18.50;-1.35;14.9;9.90;69281;5133.953;-12823.116;212;150;158.4;56;56.0;-7;-7.2;29.1;-1.0;
14/06/2019 14:00:01;117;0;215.79;17;18.47;0.06;13.1;10.00;69317;5133.953;-12823.116;212;150;158.4;56;56.2;-7;-6.3;29.1;-1.0;
14/06/2019 14:00:21;117;0;219.62;17;18.02;0.02;11.4;10.00;69346;5133.953;-12823.116;212;150;156.4;56;56.2;-10;-9.9;29.1;-1.0;
