Timestamp;NavState;SecurityLevel;Heading;Declination;Pitch;Roll;Depth;Temperature;Pa;Lat;Lon;DesiredH;BallastCmd;BallastPos;LinCmd;LinPos;AngCmd;AngPos;Voltage;Altitude;
13/06/2019 18:29:39;117;0;187.17;17;30.76;-5.53;9.3;15.10;70159;5141.048;-12818.018;182;100;106.9;51;51.1;-21;-21.2;29.4;-1.0;
13/06/2019 18:29:49;115;0;183.88;17;30.12;-7.32;8.0;15.10;70168;5141.048;-12818.018;182;500;120.8;100;96.7;0;0.9;29.3;-1.0;
13/06/2019 18:29:59;115;0;157.78;17;-10.46;4.21;7.0;15.10;70077;5141.048;-12818.018;182;500;269.3;100;100.4;0;0.9;29.1;-1.0;
13/06/2019 18:30:09;115;0;159.42;17;-62.99;3.65;7.9;15.10;69878;5141.048;-12818.018;182;500;425.7;100;100.0;0;0.9;29.1;-1.0;
13/06/2019 18:30:19;115;0;167.49;17;-59.68;1.93;7.7;15.10;69622;5141.048;-12818.018;182;500;505.0;100;100.0;0;0.9;29.0;-1.0;
13/06/2019 18:30:29;115;0;253.59;17;-50.96;-1.82;4.7;15.10;69514;5141.048;-12818.018;182;500;505.0;100;99.9;0;0.9;29.3;-1.0;
13/06/2019 18:30:39;116;0;312.96;17;-42.63;-0.95;1.5;15.10;69523;5141.048;-12818.018;182;500;506.9;100;99.7;0;0.9;29.3;-1.0;
13/06/2019 18:30:59;116;0;337.74;17;-6.33;1.95;1.1;15.10;69555;5141.048;-12818.018;182;500;508.9;100;99.7;0;0.9;29.4;-1.0;
13/06/2019 18:31:19;116;0;320.38;17;-7.77;-0.55;1.1;15.10;69554;5141.048;-12818.018;182;500;508.9;100;99.7;0;0.9;29.3;-1.0;
13/06/2019 18:31:39;116;0;310.35;17;-11.71;5.72;1.2;15.10;69574;5141.048;-12818.018;182;500;508.9;100;99.7;0;0.9;29.3;-1.0;
13/06/2019 18:31:59;116;0;329.24;17;-23.38;7.62;1.1;15.10;69576;5140.924;-12818.129;182;500;508.9;100;99.7;0;0.9;29.3;-1.0;
13/06/2019 18:32:28;116;0;327.97;17;-11.50;6.81;1.1;15.20;69585;5140.923;-12818.129;182;500;506.9;100;99.7;0;0.9;29.3;-1.0;
13/06/2019 18:32:48;116;0;321.89;17;-4.82;4.24;1.1;15.20;69592;5140.920;-12818.132;177;500;506.9;100;99.7;0;0.9;29.2;-1.0;
13/06/2019 18:33:08;116;0;319.45;17;-4.39;2.17;1.0;15.20;69597;5140.903;-12818.146;177;500;508.9;100;99.7;0;0.9;29.3;-1.0;
13/06/2019 18:34:35;116;0;325.45;17;-5.71;3.61;1.1;15.40;69613;5140.902;-12818.145;177;500;508.9;100;99.7;0;0.9;29.3;-1.0;
13/06/2019 18:34:55;116;0;300.26;17;-6.73;3.41;1.0;15.50;69605;5140.896;-12818.154;177;500;506.9;100;99.7;0;0.9;29.4;-1.0;
13/06/2019 18:35:15;116;0;286.63;17;-10.49;2.84;1.1;15.50;69621;5140.891;-12818.163;177;500;506.9;100;99.7;0;0.9;29.3;-1.0;
13/06/2019 18:35:35;116;0;330.79;17;-21.70;7.31;1.1;15.60;69617;5140.888;-12818.162;177;500;508.9;100;99.7;0;0.9;29.3;-1.0;
13/06/2019 18:35:55;116;0;321.82;17;-4.19;10.24;1.1;15.60;69600;5140.884;-12818.163;177;500;506.9;100;99.7;0;0.9;29.3;-1.0;
13/06/2019 18:36:15;116;0;316.75;17;-7.77;-0.04;1.1;15.60;69610;5140.818;-12818.211;177;500;508.9;100;99.7;0;0.9;29.4;-1.0;
13/06/2019 18:41:51;116;0;333.49;17;-5.12;4.91;1.1;15.60;69619;5140.817;-12818.213;177;500;506.9;100;99.7;0;0.9;29.3;-1.0;
13/06/2019 18:42:11;116;0;330.59;17;-9.29;8.83;1.0;15.60;69619;5140.815;-12818.214;177;500;506.9;100;99.7;0;0.9;29.3;-1.0;
13/06/2019 18:42:31;116;0;339.19;17;-11.74;9.23;1.1;15.60;69622;5140.811;-12818.217;177;500;506.9;100;99.7;0;0.9;29.3;-1.0;
13/06/2019 18:42:51;116;0;305.33;17;-9.02;14.77;1.1;15.60;69621;5140.809;-12818.219;177;500;508.9;100;99.7;0;0.9;29.3;-1.0;
13/06/2019 18:43:11;116;0;347.27;17;-10.20;5.91;1.1;15.60;69624;5140.805;-12818.222;177;500;508.9;100;99.7;0;0.9;29.4;-1.0;
13/06/2019 18:43:31;116;0;303.10;17;-5.59;7.57;1.1;15.60;69620;5140.801;-12818.225;177;500;506.9;100;99.7;0;0.9;29.3;-1.0;
13/06/2019 18:43:51;116;0;314.85;17;-36.17;6.74;1.3;15.60;69619;5140.797;-12818.227;177;500;505.0;100;99.9;0;0.9;29.3;-1.0;
13/06/2019 18:44:11;116;0;290.55;17;-7.16;11.82;1.0;15.70;69624;5140.787;-12818.228;177;500;508.9;100;99.7;0;0.9;29.3;-1.0;
13/06/2019 18:44:31;116;0;316.19;17;-10.72;2.46;1.1;15.70;69624;5140.784;-12818.227;177;500;506.9;100;99.7;0;0.9;29.3;-1.0;
13/06/2019 18:44:51;116;0;322.35;17;-10.04;6.71;1.1;15.70;69621;5140.779;-12818.233;177;500;508.9;100;99.7;0;0.9;29.3;-1.0;
13/06/2019 18:45:29;116;0;312.67;17;-8.20;6.30;1.1;15.70;69630;5140.778;-12818.232;177;500;506.9;100;99.7;0;0.9;29.3;-1.0;
13/06/2019 18:45:49;116;0;311.76;17;-5.41;1.67;1.1;15.70;69624;5140.774;-12818.244;177;500;508.9;100;99.7;0;0.9;29.3;-1.0;
13/06/2019 18:46:09;116;0;336.54;17;-11.23;-2.57;1.0;15.70;69628;5140.769;-12818.244;177;500;508.9;100;99.7;0;0.9;29.4;-1.0;
13/06/2019 18:46:29;116;0;311.40;17;-7.27;5.89;1.1;15.70;69624;5140.766;-12818.246;177;500;506.9;100;99.7;0;0.9;29.3;-1.0;
13/06/2019 18:46:49;110;0;288.87;17;-8.45;2.42;1.1;15.70;69618;5140.766;-12818.246;177;-250;405.9;100;99.7;0;0.9;29.3;-1.0;
13/06/2019 18:46:59;110;0;302.50;17;-5.59;-3.08;1.1;15.70;69864;5140.766;-12818.246;177;-250;265.3;100;99.7;0;0.9;29.3;-1.0;
13/06/2019 18:47:09;110;0;342.19;17;-8.10;-0.00;1.0;15.70;70047;5140.766;-12818.246;177;-250;120.8;100;99.7;0;0.9;29.3;-1.0;
13/06/2019 18:47:19;110;0;312.65;17;-32.00;7.78;1.5;15.70;70290;5140.766;-12818.246;177;-250;-51.5;100;99.9;0;0.9;29.3;-1.0;
13/06/2019 18:47:29;110;0;330.86;17;-52.25;9.24;2.8;15.70;70563;5140.766;-12818.246;177;-250;-249.5;93;92.8;0;0.9;29.3;-1.0;
13/06/2019 18:47:39;110;0;322.56;17;-53.19;6.12;4.7;15.70;70896;5140.766;-12818.246;177;-250;-249.5;72;72.0;0;0.9;29.3;-1.0;
13/06/2019 18:47:49;100;0;319.51;17;-39.17;1.96;7.2;15.70;70864;5140.766;-12818.246;177;-250;-249.5;71;70.8;0;0.9;29.3;-1.0;
13/06/2019 18:48:09;100;0;309.55;17;-23.69;4.51;11.2;15.70;70845;5140.766;-12818.246;177;-250;-245.5;71;70.8;45;45.1;29.3;0.0;
13/06/2019 18:48:29;100;0;294.61;17;-18.87;25.12;14.6;15.60;70828;5140.766;-12818.246;177;-250;-247.5;71;70.8;45;45.6;29.3;0.0;
13/06/2019 18:48:49;100;0;284.90;17;-18.95;25.31;17.4;15.60;70808;5140.766;-12818.246;177;-250;-243.6;71;70.6;45;45.6;29.3;0.0;
13/06/2019 18:49:09;100;0;268.08;17;-19.42;25.66;20.1;15.50;70778;5140.766;-12818.246;177;-250;-245.5;71;70.6;33;32.9;29.3;0.0;
13/06/2019 18:49:29;100;0;249.10;17;-19.93;18.71;22.8;15.40;70765;5140.766;-12818.246;177;-250;-245.5;71;70.6;24;23.5;29.3;0.0;
13/06/2019 18:49:49;100;0;227.64;17;-20.32;14.24;25.6;15.40;70768;5140.766;-12818.246;177;-250;-245.5;71;70.6;15;14.4;29.3;0.0;
13/06/2019 18:50:09;100;0;216.75;17;-20.36;9.70;28.3;15.30;70739;5140.766;-12818.246;177;-250;-243.6;71;70.6;15;14.0;29.3;0.0;
13/06/2019 18:50:29;100;0;203.17;17;-20.69;9.80;31.2;15.20;70725;5140.766;-12818.246;177;-250;-243.6;71;70.6;13;12.6;29.3;0.0;
13/06/2019 18:50:49;100;0;182.89;17;-19.07;8.80;34.1;15.20;70668;5140.766;-12818.246;177;-250;-243.6;71;70.6;6;5.9;29.3;0.0;
13/06/2019 18:51:09;100;0;176.28;17;-18.36;5.63;36.8;15.10;70622;5140.766;-12818.246;177;-250;-243.6;71;70.6;9;9.5;29.3;0.0;
13/06/2019 18:51:29;100;0;165.80;17;-18.83;7.87;39.4;15.00;70590;5140.766;-12818.246;177;-250;-243.6;71;70.8;7;7.2;29.3;0.0;
13/06/2019 18:51:49;100;0;156.71;17;-18.64;6.14;42.0;15.00;70558;5140.766;-12818.246;177;-250;-243.6;71;70.6;7;6.3;29.3;0.0;
13/06/2019 18:52:09;100;0;147.10;17;-19.16;6.12;44.6;14.90;70532;5140.766;-12818.246;177;-250;-241.6;71;70.6;5;5.0;29.3;0.0;
13/06/2019 18:52:29;100;0;143.13;17;-19.10;4.99;47.2;14.80;70505;5140.766;-12818.246;177;-250;-241.6;71;70.6;5;4.1;29.3;0.0;
13/06/2019 18:52:49;100;0;134.45;17;-18.89;5.02;49.7;14.70;70473;5140.766;-12818.246;177;-250;-243.6;71;70.6;2;1.8;29.3;0.0;
13/06/2019 18:53:09;100;0;129.25;17;-19.00;3.79;52.1;14.60;70463;5140.766;-12818.246;177;-250;-243.6;71;70.6;1;0.9;29.3;0.0;
13/06/2019 18:53:29;100;0;127.00;17;-19.21;3.24;54.7;14.60;70441;5140.766;-12818.246;177;-250;-243.6;71;70.6;1;0.0;29.3;0.0;
13/06/2019 18:53:49;100;0;121.51;17;-18.51;3.06;57.2;14.50;70423;5140.766;-12818.246;177;-250;-243.6;71;70.6;0;0.0;29.3;0.0;
13/06/2019 18:54:09;100;0;115.44;17;-18.75;3.11;59.5;14.40;70402;5140.766;-12818.246;177;-250;-241.6;71;70.6;-2;-1.8;29.3;0.0;
13/06/2019 18:54:29;100;0;110.73;17;-18.95;2.03;62.0;14.30;70377;5140.766;-12818.246;177;-250;-243.6;71;70.6;-4;-4.1;29.3;0.0;
13/06/2019 18:54:49;100;0;107.49;17;-18.72;1.01;64.3;14.30;70369;5140.766;-12818.246;177;-250;-243.6;71;70.6;-6;-6.3;29.3;0.0;
13/06/2019 18:55:09;100;0;104.21;17;-18.78;0.32;66.5;14.20;70347;5140.766;-12818.246;177;-250;-243.6;71;70.6;-9;-9.0;29.3;0.0;
13/06/2019 18:55:29;100;0;96.03;17;-18.49;-1.09;68.9;14.10;70325;5140.766;-12818.246;177;-250;-241.6;71;70.6;-14;-14.0;29.3;0.0;
13/06/2019 18:55:49;100;0;93.79;17;-18.67;-3.31;71.2;14.10;70318;5140.766;-12818.246;177;-250;-243.6;71;70.6;-17;-17.6;29.3;0.0;
13/06/2019 18:56:09;100;0;92.48;17;-18.92;-4.93;73.4;14.00;70308;5140.766;-12818.246;177;-250;-241.6;71;70.6;-18;-18.1;29.3;0.0;
13/06/2019 18:56:29;100;0;86.72;17;-18.49;-4.81;75.7;13.90;70307;5140.766;-12818.246;177;-250;-241.6;71;70.6;-24;-23.9;29.3;0.0;
13/06/2019 18:56:49;100;0;84.26;17;-18.63;-7.88;77.9;13.80;70293;5140.766;-12818.246;177;-250;-241.6;71;70.5;-26;-26.2;29.3;0.0;
13/06/2019 18:57:09;100;0;83.54;17;-17.44;-9.08;80.1;13.80;70278;5140.766;-12818.246;177;-250;-243.6;71;70.5;-28;-28.4;29.3;0.0;
13/06/2019 18:57:29;100;0;91.18;17;-17.85;-10.22;82.1;13.70;70278;5140.766;-12818.246;177;-250;-241.6;71;70.5;-26;-26.2;29.3;0.0;
13/06/2019 18:57:49;100;0;89.74;17;-17.64;-8.44;83.9;13.70;70271;5140.766;-12818.246;177;-250;-241.6;71;70.5;-28;-28.0;29.3;0.0;
13/06/2019 18:58:09;100;0;89.23;17;-17.03;-9.84;85.9;13.60;70255;5140.766;-12818.246;177;-250;-241.6;71;70.5;-28;-28.4;29.3;0.0;
13/06/2019 18:58:29;100;0;96.30;17;-16.14;-10.04;87.9;13.50;70227;5140.766;-12818.246;177;-250;-241.6;71;70.5;-24;-23.5;29.3;0.0;
13/06/2019 18:58:49;100;0;99.09;17;-16.32;-7.22;89.6;13.50;70228;5140.766;-12818.246;177;-250;-241.6;71;70.6;-24;-22.6;29.3;0.0;
13/06/2019 18:59:09;100;0;101.69;17;-16.44;-7.24;91.4;13.40;70222;5140.766;-12818.246;177;-250;-241.6;71;70.6;-24;-22.6;29.3;43.3;
13/06/2019 18:59:29;100;0;105.28;17;-16.26;-7.36;93.3;13.30;70206;5140.766;-12818.246;177;-250;-241.6;71;70.5;-23;-23.0;29.3;41.6;
13/06/2019 18:59:49;100;0;104.51;17;-16.20;-7.54;95.0;13.30;70196;5140.766;-12818.246;177;-250;-239.6;71;70.6;-25;-25.3;29.3;39.8;
13/06/2019 19:00:09;100;0;105.98;17;-15.93;-8.44;96.6;13.20;70169;5140.766;-12818.246;177;-250;-241.6;71;70.5;-24;-23.5;29.3;38.0;
13/06/2019 19:00:29;100;0;100.52;17;-15.88;-7.29;98.4;13.10;70173;5140.766;-12818.246;177;-250;-241.6;71;70.5;-28;-28.0;29.4;36.2;
13/06/2019 19:00:49;118;0;103.92;17;-15.42;-9.98;100.0;13.10;70149;5140.766;-12818.246;177;100;-223.8;51;50.7;0;0.9;29.3;34.6;
13/06/2019 19:00:59;118;0;102.28;17;12.25;4.19;100.7;13.10;70062;5140.766;-12818.246;177;100;-67.3;51;51.1;0;0.9;29.0;34.6;
13/06/2019 19:01:09;118;0;102.23;17;33.76;3.43;100.0;13.10;69857;5140.766;-12818.246;177;100;89.1;51;51.1;0;1.4;29.0;-1.0;
13/06/2019 19:01:19;118;0;100.53;17;35.82;3.86;98.9;13.00;69606;5140.766;-12818.246;177;100;105.0;51;51.1;0;0.9;29.0;-1.0;
13/06/2019 19:01:29;118;0;131.56;17;35.85;4.18;97.2;13.00;69597;5140.766;-12818.246;177;100;105.0;51;51.1;0;1.4;29.3;-1.0;
13/06/2019 19:01:39;117;0;132.81;17;36.76;3.81;95.3;13.00;69585;5140.766;-12818.246;177;100;105.0;51;51.1;0;0.9;29.4;-1.0;
13/06/2019 19:01:59;117;0;126.18;17;36.98;3.77;90.8;12.90;69578;5140.766;-12818.246;177;100;105.0;51;51.1;12;12.2;29.4;-1.0;
13/06/2019 19:02:19;117;0;118.11;17;35.82;10.07;85.6;12.80;69587;5140.766;-12818.246;177;100;105.0;51;51.1;21;21.2;29.3;-1.0;
13/06/2019 19:02:39;117;0;122.82;17;36.59;14.09;81.1;12.80;69582;5140.766;-12818.246;177;100;105.0;51;51.0;20;19.9;29.3;-1.0;
13/06/2019 19:02:59;117;0;124.90;17;33.92;12.71;76.8;12.70;69584;5140.766;-12818.246;177;100;105.0;51;51.1;20;19.0;29.3;-1.0;
13/06/2019 19:03:19;117;0;138.03;17;33.33;12.36;73.1;12.70;69597;5140.766;-12818.246;177;100;105.0;51;51.1;12;12.2;29.3;-1.0;
13/06/2019 19:03:39;117;0;144.71;17;34.26;8.93;69.4;12.60;69607;5140.766;-12818.246;177;100;105.0;51;51.1;12;11.3;29.3;-1.0;
13/06/2019 19:03:59;117;0;153.58;17;33.24;8.64;65.7;12.60;69601;5140.766;-12818.246;177;100;105.0;51;51.1;10;9.5;29.3;-1.0;
13/06/2019 19:04:19;117;0;151.42;17;33.70;7.46;62.0;12.50;69601;5140.766;-12818.246;177;100;105.0;51;51.0;14;14.4;29.3;-1.0;
13/06/2019 19:04:39;117;0;149.32;17;33.14;10.55;58.6;12.50;69598;5140.766;-12818.246;177;100;105.0;51;51.1;16;15.8;29.3;-1.0;
13/06/2019 19:04:59;117;0;156.72;17;31.48;11.07;55.2;12.50;69605;5140.766;-12818.246;177;100;106.9;51;51.1;12;11.7;29.3;-1.0;
13/06/2019 19:05:19;117;0;152.72;17;32.93;8.56;52.1;12.40;69612;5140.766;-12818.246;177;100;106.9;51;51.1;16;15.8;29.3;-1.0;
13/06/2019 19:05:39;117;0;155.95;17;31.98;11.24;49.1;12.40;69614;5140.766;-12818.246;177;100;105.0;51;51.0;14;13.5;29.3;-1.0;
13/06/2019 19:05:59;117;0;158.63;17;31.75;9.60;45.9;12.40;69627;5140.766;-12818.246;177;100;105.0;51;51.1;13;13.1;29.3;-1.0;
13/06/2019 19:06:19;117;0;160.48;17;31.67;9.49;42.9;12.30;69637;5140.766;-12818.246;177;100;106.9;51;51.1;13;13.1;29.3;-1.0;
13/06/2019 19:06:39;117;0;167.68;17;32.06;9.50;39.8;12.30;69648;5140.766;-12818.246;177;100;105.0;51;51.0;10;9.9;29.3;-1.0;
13/06/2019 19:06:59;117;0;172.29;17;32.30;7.81;36.8;12.30;69658;5140.766;-12818.246;177;100;106.9;51;51.0;8;8.1;29.3;-1.0;
13/06/2019 19:07:19;117;0;177.61;17;31.44;7.06;33.8;12.20;69663;5140.766;-12818.246;177;100;106.9;51;51.0;6;5.9;29.3;-1.0;
13/06/2019 19:07:39;117;0;183.22;17;30.27;5.75;31.0;12.20;69683;5140.766;-12818.246;177;100;106.9;51;51.0;4;4.1;29.3;-1.0;
13/06/2019 19:07:59;117;0;194.38;17;30.30;4.76;28.5;12.20;69702;5140.766;-12818.246;177;100;105.0;51;51.0;0;0.0;29.3;-1.0;
13/06/2019 19:08:19;117;0;193.69;17;32.30;2.68;26.1;12.20;69733;5140.766;-12818.246;177;100;105.0;51;51.1;2;1.8;29.3;-1.0;
13/06/2019 19:08:39;117;0;192.44;17;29.86;4.31;23.6;12.20;69768;5140.766;-12818.246;177;100;106.9;51;51.0;3;3.6;29.3;-1.0;
13/06/2019 19:08:59;117;0;192.94;17;31.46;5.08;21.1;12.20;69802;5140.766;-12818.246;177;100;106.9;51;51.1;3;3.6;29.3;-1.0;
13/06/2019 19:09:19;117;0;188.90;17;29.99;5.42;18.4;12.20;69828;5140.766;-12818.246;177;100;106.9;51;51.0;5;5.0;29.3;-1.0;
13/06/2019 19:09:39;117;0;189.33;17;29.21;6.14;15.7;12.20;69855;5140.766;-12818.246;177;100;106.9;51;51.0;3;2.7;29.3;-1.0;
13/06/2019 19:09:59;117;0;186.70;17;30.36;3.83;13.4;12.30;69873;5140.766;-12818.246;177;100;106.9;51;51.0;4;4.1;29.3;-1.0;
13/06/2019 19:10:19;117;0;194.51;17;30.10;5.50;11.3;12.30;69889;5140.766;-12818.246;177;100;106.9;51;51.0;0;0.0;29.3;-1.0;
