Timestamp;NavState;SecurityLevel;Heading;Declination;Pitch;Roll;Depth;Temperature;Pa;Lat;Lon;DesiredH;BallastCmd;BallastPos;LinCmd;LinPos;AngCmd;AngPos;Voltage;Altitude;
14/06/2019 18:07:08;117;0;187.41;17;13.90;2.92;9.3;10.00;69343;5133.337;-12823.833;211;150;158.4;58;58.1;0;-0.9;29.1;-1.0;
14/06/2019 18:07:18;115;0;189.30;17;13.27;3.38;8.6;10.00;69352;5133.337;-12823.833;211;500;170.3;100;100.3;0;-0.9;29.1;-1.0;
14/06/2019 18:07:28;115;0;157.94;17;-26.26;3.42;8.1;10.00;69275;5133.337;-12823.833;211;500;320.8;100;99.9;0;-0.9;28.7;-1.0;
14/06/2019 18:07:38;115;0;152.60;17;-61.30;6.56;8.9;10.00;69073;5133.337;-12823.833;211;500;471.3;100;99.9;0;-0.9;28.8;-1.0;
14/06/2019 18:07:48;115;0;147.16;17;-55.58;6.28;7.8;10.10;68834;5133.337;-12823.833;211;500;506.9;100;99.9;0;-0.9;28.8;-1.0;
14/06/2019 18:07:59;115;0;164.31;17;-38.09;4.63;4.9;10.10;68798;5133.337;-12823.833;211;500;506.9;100;99.9;0;-0.9;29.1;-1.0;
14/06/2019 18:08:09;116;0;11.28;17;-68.14;42.04;1.2;10.10;68814;5133.337;-12823.833;211;500;506.9;100;99.9;0;-0.9;29.1;-1.0;
14/06/2019 18:08:29;116;0;333.04;17;-36.54;6.73;1.5;10.20;68841;5133.337;-12823.833;211;500;506.9;100;99.9;0;-0.9;29.1;-1.0;
14/06/2019 18:08:48;116;0;316.15;17;-37.32;4.85;1.6;10.30;68859;5132.618;-12823.877;211;500;508.9;100;99.9;0;-0.9;29.1;-1.0;
14/06/2019 18:09:08;116;0;299.71;17;-20.42;11.02;1.3;10.40;68879;5132.618;-12823.877;211;500;508.9;100;99.9;0;-0.9;29.1;-1.0;
14/06/2019 18:09:28;116;0;296.29;17;-7.54;2.09;1.2;10.50;68888;5132.616;-12823.876;211;500;508.9;100;99.7;0;-0.9;29.1;-1.0;
14/06/2019 18:09:48;116;0;297.50;17;-7.60;3.77;1.2;10.60;68898;5132.605;-12823.872;214;500;508.9;100;99.7;0;-0.9;29.1;-1.0;
14/06/2019 18:11:03;116;0;312.92;17;-9.54;9.08;1.2;11.20;68939;5132.605;-12823.872;214;500;508.9;100;99.7;0;-0.5;29.0;-1.0;
14/06/2019 18:11:23;116;0;292.48;17;-6.96;5.15;1.1;11.30;68951;5132.603;-12823.870;214;500;508.9;100;99.7;0;-0.9;29.0;-1.0;
14/06/2019 18:11:43;116;0;291.98;17;-6.71;5.80;1.1;11.40;68958;5132.607;-12823.873;214;500;508.9;100;99.7;0;-0.9;29.1;-1.0;
14/06/2019 18:12:21;116;0;300.15;17;-22.71;3.79;1.4;11.70;68970;5132.609;-12823.871;214;500;508.9;100;99.7;0;-0.9;29.1;-1.0;
14/06/2019 18:12:41;116;0;316.26;17;-19.47;4.84;1.2;11.80;68977;5132.635;-12823.808;214;500;508.9;100;99.7;0;-0.9;29.1;-1.0;
14/06/2019 18:13:01;116;0;290.88;17;-8.29;1.74;1.2;12.00;68989;5132.578;-12823.874;214;500;508.9;100;99.7;0;-0.9;29.1;-1.0;
14/06/2019 18:17:15;116;0;307.48;17;-24.92;-3.35;1.3;13.20;69054;5132.578;-12823.874;214;500;508.9;100;99.7;0;-0.9;29.1;-1.0;
14/06/2019 18:17:35;116;0;298.97;17;-4.58;4.08;1.1;13.20;69058;5132.574;-12823.873;214;500;510.9;100;99.7;0;-0.9;29.1;-1.0;
14/06/2019 18:17:55;116;0;268.61;17;-30.97;11.86;1.3;13.30;69067;5132.566;-12823.882;214;500;508.9;100;99.7;0;-0.9;29.0;-1.0;
14/06/2019 18:18:15;116;0;307.38;17;-9.13;-2.54;1.1;13.30;69053;5132.557;-12823.894;214;500;510.9;100;99.7;0;-0.9;29.1;-1.0;
14/06/2019 18:18:59;116;0;280.63;17;-10.94;-4.27;1.2;13.50;69064;5132.559;-12823.895;214;500;510.9;100;99.7;0;-0.9;29.1;-1.0;
14/06/2019 18:19:19;116;0;299.95;17;-21.48;2.12;1.3;13.60;69063;5132.559;-12823.891;214;500;510.9;100;99.7;0;-0.9;29.1;-1.0;
14/06/2019 18:19:39;116;0;304.99;17;-20.35;-2.59;1.2;13.70;69087;5132.556;-12823.883;214;500;508.9;100;99.7;0;-0.9;29.1;-1.0;
14/06/2019 18:19:59;116;0;299.33;17;-4.24;-0.23;1.2;13.80;69077;5132.553;-12823.882;214;500;508.9;100;99.7;0;-0.9;29.1;-1.0;
14/06/2019 18:20:19;110;0;313.08;17;-8.40;2.53;1.2;13.90;69078;5132.553;-12823.882;214;-300;409.9;100;99.7;0;-0.9;29.0;-1.0;
14/06/2019 18:20:29;110;0;328.84;17;-9.31;4.02;1.1;14.00;69328;5132.553;-12823.882;214;-300;271.3;100;99.7;0;-0.9;29.0;-1.0;
14/06/2019 18:20:39;110;0;313.90;17;-9.08;0.20;1.1;14.00;69514;5132.553;-12823.882;214;-300;136.6;100;99.7;0;-0.5;29.0;-1.0;
14/06/2019 18:20:49;110;0;309.76;17;-6.27;3.05;1.1;14.00;69721;5132.553;-12823.882;214;-300;-7.9;100;99.7;0;-0.9;29.0;-1.0;
14/06/2019 18:20:59;110;0;296.70;17;-35.92;5.05;1.7;14.00;69953;5132.553;-12823.882;214;-300;-186.1;99;98.8;0;-0.9;29.0;-1.0;
14/06/2019 18:21:09;110;0;321.53;17;-56.80;3.72;3.6;14.00;70265;5132.553;-12823.882;214;-300;-301.0;83;82.9;0;-0.9;29.0;-1.0;
14/06/2019 18:21:19;110;0;324.76;17;-54.58;-2.02;6.9;14.00;70431;5132.553;-12823.882;214;-300;-303.0;73;72.7;0;-0.9;29.1;-1.0;
14/06/2019 18:21:29;100;0;323.82;17;-42.33;3.91;10.8;14.00;70413;5132.553;-12823.882;214;-300;-301.0;73;72.7;0;-0.9;29.1;-1.0;
14/06/2019 18:21:49;100;0;309.95;17;-27.54;3.49;16.8;14.00;70397;5132.553;-12823.882;214;-300;-299.0;73;72.7;45;45.1;29.1;0.0;
14/06/2019 18:22:09;100;0;287.74;17;-21.49;25.45;21.5;14.00;70355;5132.553;-12823.882;214;-300;-299.0;73;72.6;40;40.2;29.0;0.0;
14/06/2019 18:22:29;100;0;271.57;17;-22.87;22.32;24.9;13.90;70295;5132.553;-12823.882;214;-300;-295.0;73;72.7;27;27.1;29.1;0.0;
14/06/2019 18:22:49;100;0;255.79;17;-22.83;15.47;28.4;13.90;70223;5132.553;-12823.882;214;-300;-297.0;73;72.7;19;19.0;29.1;0.0;
14/06/2019 18:23:09;100;0;249.07;17;-23.71;11.48;31.8;13.80;70182;5132.553;-12823.882;214;-300;-297.0;73;72.6;20;19.9;29.1;0.0;
14/06/2019 18:23:29;100;0;238.26;17;-23.23;12.66;35.4;13.70;70135;5132.553;-12823.882;214;-300;-297.0;73;72.6;16;15.8;29.1;0.0;
14/06/2019 18:23:49;100;0;229.66;17;-23.11;10.01;39.0;13.60;70102;5132.553;-12823.882;214;-300;-297.0;73;72.7;14;14.0;29.0;0.0;
14/06/2019 18:24:09;100;0;218.55;17;-23.02;9.34;42.6;13.50;70077;5132.553;-12823.882;214;-300;-295.0;73;72.6;11;10.4;29.1;0.0;
14/06/2019 18:24:29;100;0;203.25;17;-23.06;7.56;46.0;13.40;70051;5132.553;-12823.882;214;-300;-297.0;73;72.6;6;5.9;29.0;0.0;
14/06/2019 18:24:49;100;0;190.46;17;-23.26;5.36;49.5;13.40;70020;5132.553;-12823.882;214;-300;-297.0;73;72.6;6;5.0;29.1;0.0;
14/06/2019 18:25:09;100;0;179.73;17;-22.89;5.35;53.1;13.30;70010;5132.553;-12823.882;214;-300;-295.0;73;72.6;2;1.4;29.1;0.0;
14/06/2019 18:25:29;100;0;173.82;17;-23.71;3.53;56.5;13.20;69988;5132.553;-12823.882;214;-300;-295.0;73;72.6;2;0.9;29.1;0.0;
14/06/2019 18:25:49;100;0;163.15;17;-22.91;3.49;60.1;13.10;69971;5132.553;-12823.882;214;-300;-295.0;73;72.6;0;0.0;29.1;0.0;
14/06/2019 18:26:09;100;0;159.78;17;-22.87;2.89;63.6;13.10;69953;5132.553;-12823.882;214;-300;-297.0;73;72.6;0;-0.5;29.1;0.0;
14/06/2019 18:26:29;100;0;152.23;17;-22.42;2.74;67.0;13.00;69963;5132.553;-12823.882;214;-300;-295.0;73;72.6;-2;-1.8;29.1;0.0;
14/06/2019 18:26:49;100;0;149.76;17;-22.51;2.13;70.2;12.90;69939;5132.553;-12823.882;214;-300;-295.0;73;72.6;-3;-3.2;29.1;0.0;
14/06/2019 18:27:09;100;0;140.72;17;-22.12;1.35;73.5;12.90;69938;5132.553;-12823.882;214;-300;-297.0;73;72.6;-8;-8.1;29.1;0.0;
14/06/2019 18:27:29;100;0;134.50;17;-22.67;-0.55;76.5;12.80;69928;5132.553;-12823.882;214;-300;-295.0;73;72.6;-12;-12.2;29.1;0.0;
14/06/2019 18:27:49;100;0;138.21;17;-22.56;-2.49;79.5;12.70;69900;5132.553;-12823.882;214;-300;-295.0;73;72.6;-9;-9.0;29.1;0.0;
14/06/2019 18:28:09;100;0;140.10;17;-21.50;-0.50;82.6;12.70;69901;5132.553;-12823.882;214;-300;-295.0;73;72.6;-10;-9.9;29.1;0.0;
14/06/2019 18:28:29;100;0;140.63;17;-21.37;-1.59;85.5;12.60;69878;5132.553;-12823.882;214;-300;-295.0;73;72.6;-12;-12.6;29.1;0.0;
14/06/2019 18:28:49;100;0;137.70;17;-21.32;-2.90;88.4;12.60;69876;5132.553;-12823.882;214;-300;-295.0;73;72.6;-16;-15.8;29.1;0.0;
14/06/2019 18:29:09;100;0;135.07;17;-20.38;-3.97;91.2;12.50;69859;5132.553;-12823.882;214;-300;-295.0;73;72.6;-19;-19.0;29.1;0.0;
14/06/2019 18:29:29;100;0;134.27;17;-20.16;-5.30;94.0;12.40;69852;5132.553;-12823.882;214;-300;-295.0;73;72.6;-22;-22.1;29.1;0.0;
14/06/2019 18:29:49;100;0;133.92;17;-20.55;-7.06;96.6;12.40;69833;5132.553;-12823.882;214;-300;-295.0;73;72.6;-24;-24.4;29.1;0.0;
14/06/2019 18:30:09;100;0;133.42;17;-20.83;-8.18;99.0;12.30;69823;5132.553;-12823.882;214;-300;-295.0;73;72.6;-27;-27.1;29.1;0.0;
14/06/2019 18:30:29;100;0;133.87;17;-20.98;-9.56;101.6;12.30;69818;5132.553;-12823.882;214;-300;-295.0;73;72.6;-27;-27.5;29.1;0.0;
14/06/2019 18:30:49;100;0;138.82;17;-20.81;-9.63;104.0;12.20;69802;5132.553;-12823.882;214;-300;-293.1;73;72.6;-24;-23.9;29.1;0.0;
14/06/2019 18:31:09;100;0;141.08;17;-20.22;-7.47;106.6;12.20;69789;5132.553;-12823.882;214;-300;-293.1;73;72.4;-23;-23.0;29.1;0.0;
14/06/2019 18:31:29;100;0;141.34;17;-20.47;-6.79;109.0;12.10;69783;5132.553;-12823.882;214;-300;-293.1;73;72.6;-24;-23.9;29.1;0.0;
14/06/2019 18:31:49;100;0;139.77;17;-20.81;-7.97;111.4;12.00;69786;5132.553;-12823.882;214;-300;-293.1;73;72.6;-26;-26.2;29.1;0.0;
14/06/2019 18:32:09;100;0;143.46;17;-20.49;-9.07;113.8;12.00;69775;5132.553;-12823.882;214;-300;-295.0;73;72.6;-24;-23.9;29.1;0.0;
14/06/2019 18:32:29;100;0;145.23;17;-20.03;-7.21;116.4;11.90;69767;5132.553;-12823.882;214;-300;-295.0;73;72.6;-23;-23.0;29.0;0.0;
14/06/2019 18:32:49;100;0;147.43;17;-20.05;-7.25;118.9;11.90;69769;5132.553;-12823.882;214;-300;-295.0;73;72.6;-23;-23.0;29.1;0.0;
14/06/2019 18:33:09;100;0;146.27;17;-19.95;-7.27;121.4;11.80;69745;5132.553;-12823.882;214;-300;-293.1;73;72.6;-24;-24.4;29.1;0.0;
14/06/2019 18:33:29;100;0;148.45;17;-20.11;-8.17;123.7;11.80;69747;5132.553;-12823.882;214;-300;-293.1;73;72.6;-23;-23.0;29.1;0.0;
14/06/2019 18:33:49;100;0;148.91;17;-20.06;-7.15;126.0;11.70;69742;5132.553;-12823.882;214;-300;-295.0;73;72.6;-24;-23.9;29.1;0.0;
14/06/2019 18:34:09;100;0;151.69;17;-20.06;-8.08;128.2;11.70;69737;5132.553;-12823.882;214;-300;-293.1;73;72.6;-22;-22.1;29.1;0.0;
14/06/2019 18:34:29;100;0;158.76;17;-20.16;-6.64;130.4;11.60;69741;5132.553;-12823.882;214;-300;-295.0;73;72.6;-19;-19.0;29.1;0.0;
14/06/2019 18:34:49;100;0;164.40;17;-19.62;-4.98;132.4;11.60;69722;5132.553;-12823.882;214;-300;-295.0;73;72.6;-17;-17.1;29.1;0.0;
14/06/2019 18:35:09;100;0;169.97;17;-19.26;-4.10;134.5;11.50;69723;5132.553;-12823.882;214;-300;-295.0;73;72.6;-16;-15.8;29.1;0.0;
14/06/2019 18:35:29;100;0;173.18;17;-18.77;-3.38;136.6;11.40;69699;5132.553;-12823.882;214;-300;-295.0;73;72.6;-16;-14.9;29.1;42.9;
14/06/2019 18:35:49;100;0;166.40;17;-18.19;-3.56;138.6;11.40;69703;5132.553;-12823.882;214;-300;-293.1;73;72.6;-21;-21.2;29.1;40.8;
14/06/2019 18:36:09;100;0;168.85;17;-18.38;-6.60;140.5;11.30;69669;5132.553;-12823.882;214;-300;-291.1;73;72.6;-20;-19.9;29.0;38.9;
14/06/2019 18:36:29;100;0;164.82;17;-18.82;-5.50;142.4;11.30;69660;5132.553;-12823.882;214;-300;-293.1;73;72.6;-22;-22.1;29.1;36.9;
14/06/2019 18:36:49;100;0;165.25;17;-18.61;-7.10;144.3;11.20;69653;5132.553;-12823.882;214;-300;-295.0;73;72.6;-21;-21.2;29.1;35.0;
14/06/2019 18:37:09;100;0;163.71;17;-18.56;-6.17;146.2;11.20;69637;5132.553;-12823.882;214;-300;-293.1;73;72.6;-22;-22.1;29.1;33.1;
14/06/2019 18:37:29;100;0;163.98;17;-18.69;-7.06;148.2;11.10;69619;5132.553;-12823.882;214;-300;-295.0;73;72.6;-22;-22.6;29.1;31.3;
14/06/2019 18:37:49;100;0;170.33;17;-18.48;-7.07;150.2;11.10;69624;5132.553;-12823.882;214;-300;-293.1;73;72.6;-17;-16.7;29.1;29.2;
14/06/2019 18:38:09;100;0;172.49;17;-18.42;-4.11;152.0;11.00;69605;5132.553;-12823.882;214;-300;-293.1;73;72.6;-17;-16.2;29.1;27.1;
14/06/2019 18:38:29;100;0;172.88;17;-18.35;-4.08;154.0;11.00;69597;5132.553;-12823.882;214;-300;-293.1;73;72.6;-18;-18.1;29.1;25.1;
14/06/2019 18:38:49;100;0;173.19;17;-18.54;-5.17;156.0;10.90;69598;5132.553;-12823.882;214;-300;-295.0;73;72.6;-18;-18.5;29.1;23.1;
14/06/2019 18:39:09;100;0;174.33;17;-18.46;-5.21;157.9;10.90;69594;5132.553;-12823.882;214;-300;-293.1;73;72.6;-18;-18.5;29.1;21.1;
14/06/2019 18:39:29;100;0;174.32;17;-18.39;-5.19;160.0;10.80;69587;5132.553;-12823.882;214;-300;-293.1;73;72.6;-18;-18.5;29.1;19.1;
14/06/2019 18:39:49;118;0;172.01;17;-18.45;-5.19;162.0;10.80;69573;5132.553;-12823.882;214;150;-277.2;57;56.8;0;0.5;29.1;17.0;
14/06/2019 18:39:59;118;0;138.95;17;2.52;3.99;162.7;10.80;69485;5132.553;-12823.882;214;150;-120.8;57;57.1;0;0.5;28.5;17.0;
14/06/2019 18:40:09;118;0;138.98;17;19.31;3.69;162.4;10.70;69284;5132.553;-12823.882;214;150;33.7;57;57.1;0;0.9;28.6;-1.0;
14/06/2019 18:40:20;118;0;140.67;17;23.56;3.77;161.6;10.70;69029;5132.553;-12823.882;214;150;154.5;57;57.1;0;0.9;28.6;-1.0;
14/06/2019 18:40:30;118;0;179.71;17;24.46;3.78;160.4;10.70;68846;5132.553;-12823.882;214;150;156.4;57;57.1;0;0.9;29.1;-1.0;
14/06/2019 18:40:40;118;0;179.99;17;26.69;3.79;158.8;10.70;68852;5132.553;-12823.882;214;150;156.4;57;57.1;0;0.5;29.1;-1.0;
14/06/2019 18:40:50;117;0;179.92;17;27.49;3.72;157.0;10.70;68850;5132.553;-12823.882;214;150;156.4;57;57.1;0;0.9;29.0;-1.0;
14/06/2019 18:41:10;117;0;178.18;17;27.80;3.89;152.8;10.60;68840;5132.553;-12823.882;214;150;156.4;57;57.1;16;15.8;29.0;-1.0;
14/06/2019 18:41:30;117;0;177.75;17;28.03;11.59;147.9;10.60;68842;5132.553;-12823.882;214;150;156.4;57;57.1;18;18.1;29.1;-1.0;
14/06/2019 18:41:50;117;0;184.07;17;27.05;12.56;143.5;10.50;68842;5132.553;-12823.882;214;150;156.4;57;57.1;14;13.5;29.1;-1.0;
14/06/2019 18:42:10;117;0;187.75;17;27.36;9.50;139.3;10.50;68842;5132.553;-12823.882;214;150;156.4;57;57.1;14;13.1;29.1;-1.0;
14/06/2019 18:42:30;117;0;191.30;17;26.37;9.29;135.1;10.50;68850;5132.553;-12823.882;214;150;156.4;57;57.1;13;13.1;29.1;-1.0;
14/06/2019 18:42:50;117;0;186.90;17;26.54;9.61;131.4;10.40;68854;5132.553;-12823.882;214;150;156.4;57;57.1;17;17.1;29.1;-1.0;
14/06/2019 18:43:10;117;0;184.38;17;26.90;12.10;127.7;10.40;68869;5132.553;-12823.882;214;150;158.4;57;57.1;18;18.1;29.1;-1.0;
14/06/2019 18:43:30;117;0;189.10;17;25.76;12.71;123.7;10.30;68874;5132.553;-12823.882;214;150;156.4;57;57.1;15;14.9;29.0;-1.0;
14/06/2019 18:43:50;117;0;192.57;17;25.87;10.11;119.8;10.30;68884;5132.553;-12823.882;214;150;156.4;57;57.1;13;13.1;29.1;-1.0;
14/06/2019 18:44:10;117;0;193.83;17;25.39;9.28;115.8;10.30;68890;5132.553;-12823.882;214;150;156.4;57;57.1;14;14.0;29.1;-1.0;
14/06/2019 18:44:30;117;0;194.94;17;25.50;10.67;112.2;10.30;68895;5132.553;-12823.882;214;150;156.4;57;57.1;14;14.4;29.1;-1.0;
14/06/2019 18:44:50;117;0;203.87;17;25.32;10.63;108.5;10.20;68900;5132.553;-12823.882;214;150;156.4;57;57.1;14;14.9;29.1;-1.0;
14/06/2019 18:45:10;117;0;204.51;17;25.37;10.64;104.6;10.20;68901;5132.553;-12823.882;214;150;158.4;57;57.1;10;9.5;29.1;-1.0;
14/06/2019 18:45:30;117;0;206.21;17;24.92;7.82;101.0;10.20;68907;5132.553;-12823.882;214;150;156.4;57;57.1;10;9.5;29.1;-1.0;
14/06/2019 18:45:50;117;0;211.58;17;24.68;7.85;97.3;10.20;68908;5132.553;-12823.882;214;150;156.4;57;57.1;7;7.2;29.1;-1.0;
14/06/2019 18:46:10;117;0;211.96;17;24.54;6.66;93.7;10.10;68912;5132.553;-12823.882;214;150;156.4;57;57.1;8;8.1;29.1;-1.0;
14/06/2019 18:46:30;117;0;211.83;17;23.96;7.67;90.3;10.10;68915;5132.553;-12823.882;214;150;156.4;57;57.1;8;9.0;29.0;-1.0;
14/06/2019 18:46:50;117;0;207.42;17;24.27;7.77;87.2;10.10;68918;5132.553;-12823.882;214;150;156.4;57;57.1;11;10.8;29.1;-1.0;
14/06/2019 18:47:10;117;0;207.99;17;23.23;9.03;84.1;10.10;68918;5132.553;-12823.882;214;150;158.4;57;57.1;10;9.9;29.0;-1.0;
14/06/2019 18:47:30;117;0;203.13;17;23.51;8.15;81.0;10.10;68927;5132.553;-12823.882;214;150;156.4;57;57.1;11;11.3;29.1;-1.0;
14/06/2019 18:47:50;117;0;200.41;17;23.01;9.30;78.1;10.10;68938;5132.553;-12823.882;214;150;158.4;57;57.1;12;12.2;29.1;-1.0;
14/06/2019 18:48:10;117;0;208.38;17;21.40;9.80;75.3;10.10;68945;5132.553;-12823.882;214;150;156.4;57;57.1;6;5.4;29.1;-1.0;
14/06/2019 18:48:30;117;0;208.84;17;21.30;5.87;72.6;10.10;68956;5132.553;-12823.882;214;150;156.4;57;57.1;7;7.2;29.1;-1.0;
14/06/2019 18:48:50;117;0;210.85;17;21.26;7.23;70.1;10.10;68967;5132.553;-12823.882;214;150;156.4;57;57.1;6;5.4;29.1;-1.0;
14/06/2019 18:49:10;117;0;211.88;17;20.93;5.77;67.4;10.10;68979;5132.553;-12823.882;214;150;156.4;57;57.1;5;5.0;29.1;-1.0;
14/06/2019 18:49:30;117;0;208.57;17;20.93;5.45;64.9;10.10;68990;5132.553;-12823.882;214;150;156.4;57;57.1;7;7.2;29.1;-1.0;
14/06/2019 18:49:50;117;0;210.05;17;19.96;7.39;62.6;10.00;68981;5132.553;-12823.882;214;150;156.4;57;57.1;5;4.5;29.0;-1.0;
14/06/2019 18:50:10;117;0;209.05;17;20.08;5.39;60.2;10.00;68976;5132.553;-12823.882;214;150;156.4;57;57.1;5;4.1;29.1;-1.0;
14/06/2019 18:50:30;117;0;211.22;17;19.87;5.32;58.0;10.10;68988;5132.553;-12823.882;214;150;156.4;57;57.1;3;2.7;29.1;-1.0;
14/06/2019 18:50:50;117;0;211.22;17;20.16;4.45;55.6;10.00;68981;5132.553;-12823.882;214;150;156.4;57;57.1;3;2.3;29.1;-1.0;
14/06/2019 18:51:10;117;0;211.55;17;19.67;4.42;53.1;10.00;68990;5132.553;-12823.882;214;150;156.4;57;57.1;3;2.3;29.1;-1.0;
14/06/2019 18:51:30;117;0;214.43;17;19.49;4.36;50.8;10.00;68993;5132.553;-12823.882;214;150;156.4;57;57.1;0;0.0;29.1;-1.0;
14/06/2019 18:51:50;117;0;216.55;17;19.45;3.08;48.5;10.00;69001;5132.553;-12823.882;214;150;158.4;57;57.1;0;-0.5;29.1;-1.0;
14/06/2019 18:52:10;117;0;216.25;17;19.61;2.99;46.3;10.00;69002;5132.553;-12823.882;214;150;158.4;57;57.1;0;-0.5;29.1;-1.0;
14/06/2019 18:52:30;117;0;214.46;17;19.14;3.00;44.0;10.00;69004;5132.553;-12823.882;214;150;156.4;57;57.1;0;-0.5;29.1;-1.0;
14/06/2019 18:52:50;117;0;213.02;17;19.27;3.02;41.8;10.00;69021;5132.553;-12823.882;214;150;158.4;57;57.1;0;-0.9;29.1;-1.0;
14/06/2019 18:53:10;117;0;208.71;17;18.82;3.05;39.6;10.00;69028;5132.553;-12823.882;214;150;158.4;57;57.1;2;1.8;29.1;-1.0;
14/06/2019 18:53:30;117;0;207.71;17;18.64;4.52;37.6;10.00;69028;5132.553;-12823.882;214;150;156.4;57;57.1;1;0.5;29.1;-1.0;
14/06/2019 18:53:50;117;0;206.96;17;18.35;3.32;35.5;10.00;69042;5132.553;-12823.882;214;150;156.4;57;57.1;1;0.0;29.1;-1.0;
14/06/2019 18:54:10;117;0;205.46;17;18.34;3.33;33.6;10.00;69059;5132.553;-12823.882;214;150;158.4;57;57.1;0;0.0;29.1;-1.0;
14/06/2019 18:54:30;117;0;202.23;17;18.47;3.28;31.6;10.10;69079;5132.553;-12823.882;214;150;158.4;57;57.1;2;1.8;29.1;-1.0;
14/06/2019 18:54:50;117;0;202.26;17;17.73;4.65;29.5;10.10;69095;5132.553;-12823.882;214;150;156.4;57;57.1;1;0.5;29.1;-1.0;
14/06/2019 18:55:10;117;0;205.11;17;17.99;3.55;27.5;10.10;69095;5132.553;-12823.882;214;150;156.4;57;57.1;-1;-0.9;29.1;-1.0;
14/06/2019 18:55:30;117;0;200.58;17;17.37;2.61;25.6;10.10;69133;5132.553;-12823.882;214;150;156.4;57;57.1;1;1.4;29.1;-1.0;
14/06/2019 18:55:50;117;0;196.66;17;16.52;4.55;23.6;10.10;69183;5132.553;-12823.882;214;150;156.4;57;57.1;1;1.8;29.1;-1.0;
14/06/2019 18:56:10;117;0;191.45;17;17.09;4.45;21.9;10.10;69226;5132.553;-12823.882;214;150;158.4;57;57.1;4;4.5;29.1;-1.0;
14/06/2019 18:56:30;117;0;194.25;17;15.84;5.81;20.0;10.20;69260;5132.553;-12823.882;214;150;158.4;57;57.1;1;0.9;29.1;-1.0;
14/06/2019 18:56:50;117;0;194.92;17;16.02;3.52;18.3;10.20;69292;5132.553;-12823.882;214;150;156.4;57;57.1;1;0.5;29.1;-1.0;
14/06/2019 18:57:10;117;0;198.16;17;16.28;3.68;16.7;10.30;69314;5132.553;-12823.882;214;150;158.4;57;57.1;1;0.5;29.1;-1.0;
14/06/2019 18:57:30;117;0;197.84;17;16.18;3.65;15.0;10.30;69328;5132.553;-12823.882;214;150;156.4;57;57.1;1;0.5;29.1;-1.0;
