Timestamp;NavState;SecurityLevel;Heading;Declination;Pitch;Roll;Depth;Temperature;Pa;Lat;Lon;DesiredH;BallastCmd;BallastPos;LinCmd;LinPos;AngCmd;AngPos;Voltage;Altitude;
16/06/2019 20:45:40;117;0;39.60;17;15.52;2.46;8.6;10.00;69362;5126.861;-12835.950;62;150;156.4;57;56.9;0;0.0;28.6;-1.0;
16/06/2019 20:45:50;115;0;37.49;17;15.76;3.63;7.9;10.00;69374;5126.861;-12835.950;62;500;168.3;100;100.1;0;0.5;28.6;-1.0;
16/06/2019 20:46:00;115;0;54.87;17;-26.64;4.70;7.3;10.10;69301;5126.861;-12835.950;62;500;318.8;100;100.0;0;0.9;28.3;-1.0;
16/06/2019 20:46:10;115;0;46.65;17;-68.67;-0.01;7.9;10.10;69102;5126.861;-12835.950;62;500;471.3;100;100.0;0;0.5;28.3;-1.0;
16/06/2019 20:46:21;115;0;53.43;17;-57.97;2.98;6.6;10.10;68852;5126.861;-12835.950;62;500;506.9;100;100.0;0;0.9;28.3;-1.0;
16/06/2019 20:46:31;115;0;56.93;17;-34.67;1.63;3.4;10.10;68834;5126.861;-12835.950;62;500;505.0;100;100.0;0;0.5;28.6;-1.0;
16/06/2019 20:46:41;116;0;138.80;17;-20.08;7.09;1.5;10.20;68853;5126.861;-12835.950;62;500;508.9;100;99.9;0;0.5;28.6;-1.0;
16/06/2019 20:47:01;116;0;181.18;17;-6.91;2.23;1.4;10.30;68893;5126.861;-12835.950;62;500;508.9;100;99.9;0;0.9;28.6;-1.0;
16/06/2019 20:47:21;116;0;185.14;17;-10.60;1.95;1.5;10.40;68913;5127.138;-12834.876;62;500;508.9;100;99.9;0;0.9;28.6;-1.0;
16/06/2019 20:47:41;116;0;170.51;17;-6.44;5.05;1.5;10.50;68944;5127.139;-12834.873;62;500;510.9;100;99.9;0;0.5;28.6;-1.0;
16/06/2019 20:48:04;116;0;180.36;17;-15.93;0.53;1.4;10.60;68953;5127.139;-12834.867;62;500;506.9;100;99.9;0;0.5;28.6;-1.0;
16/06/2019 20:48:24;116;0;198.94;17;-9.28;6.27;1.4;10.70;68976;5127.138;-12834.864;62;500;508.9;100;99.9;0;0.9;28.6;-1.0;
16/06/2019 20:48:44;116;0;203.04;17;-13.51;3.80;1.4;10.90;68986;5127.138;-12834.861;62;500;508.9;100;99.7;0;0.9;28.6;-1.0;
16/06/2019 20:49:04;116;0;181.68;17;-6.84;4.88;1.4;11.00;69012;5127.135;-12834.859;62;500;508.9;100;99.9;0;0.9;28.6;-1.0;
16/06/2019 20:49:24;116;0;183.14;17;-13.00;4.11;1.5;11.10;69017;5127.135;-12834.858;60;500;508.9;100;99.9;0;0.9;28.6;-1.0;
16/06/2019 20:49:44;116;0;190.87;17;-6.27;4.01;1.5;11.30;69035;5127.143;-12834.844;60;500;508.9;100;99.9;0;0.9;28.7;-1.0;
16/06/2019 20:50:55;116;0;189.41;17;-19.89;2.43;1.5;11.80;69062;5127.145;-12834.842;60;500;508.9;100;99.9;0;0.9;28.6;-1.0;
16/06/2019 20:51:15;116;0;205.27;17;-23.66;0.57;1.5;12.00;69078;5127.143;-12834.839;60;500;508.9;100;99.9;0;0.9;28.6;-1.0;
16/06/2019 20:51:35;116;0;184.25;17;-11.33;3.79;1.4;12.20;69101;5127.144;-12834.840;60;500;508.9;100;99.9;0;0.5;28.6;-1.0;
16/06/2019 20:51:57;116;0;186.12;17;-12.01;-1.15;1.4;12.30;69105;5127.145;-12834.840;60;500;508.9;100;99.9;0;0.9;28.6;-1.0;
16/06/2019 20:52:17;116;0;187.08;17;-10.26;4.29;1.4;12.40;69101;5127.148;-12834.831;60;500;508.9;100;99.9;0;0.5;28.6;-1.0;
16/06/2019 20:52:37;116;0;188.79;17;-12.48;-0.64;1.4;12.60;69118;5127.104;-12834.811;60;500;508.9;100;99.9;0;0.9;28.6;-1.0;
16/06/2019 20:53:46;116;0;181.96;17;-8.96;5.19;1.3;13.30;69137;5127.104;-12834.810;60;500;506.9;100;99.9;0;0.5;28.6;-1.0;
16/06/2019 20:54:06;116;0;177.64;17;-4.51;-1.02;1.4;13.40;69145;5127.103;-12834.809;60;500;508.9;100;99.9;0;0.9;28.6;-1.0;
16/06/2019 20:54:26;116;0;184.89;17;-14.30;1.69;1.5;13.60;69159;5127.101;-12834.800;60;500;508.9;100;99.9;0;0.5;28.6;-1.0;
16/06/2019 20:54:58;116;0;182.79;17;-5.21;4.70;1.5;13.70;69159;5127.102;-12834.799;60;500;510.9;100;99.9;0;0.5;28.6;-1.0;
16/06/2019 20:55:18;116;0;184.28;17;-6.65;1.44;1.4;13.90;69159;5127.098;-12834.791;60;500;508.9;100;99.9;0;0.9;28.6;-1.0;
16/06/2019 20:55:38;116;0;177.08;17;-8.67;4.25;1.4;14.00;69164;5127.092;-12834.794;60;500;508.9;100;99.9;0;0.5;28.6;-1.0;
16/06/2019 20:55:58;116;0;175.51;17;-6.95;4.91;1.5;14.10;69177;5127.087;-12834.790;60;500;508.9;100;100.0;0;0.5;28.6;-1.0;
16/06/2019 20:56:18;116;0;169.41;17;-9.05;2.63;1.4;14.20;69179;5127.085;-12834.786;60;500;510.9;100;99.9;0;0.5;28.6;-1.0;
16/06/2019 20:56:38;116;0;178.03;17;-5.99;8.71;1.5;14.30;69174;5127.082;-12834.781;60;500;508.9;100;99.9;0;0.9;28.6;-1.0;
16/06/2019 20:56:58;116;0;172.83;17;-19.45;4.60;1.5;14.40;69190;5127.082;-12834.781;60;500;508.9;100;99.9;0;0.5;28.6;-1.0;
16/06/2019 20:57:18;116;0;181.03;17;-9.12;3.76;1.4;14.50;69199;5127.079;-12834.776;60;500;508.9;100;99.9;0;0.9;28.5;-1.0;
16/06/2019 20:57:38;116;0;185.42;17;-11.60;2.68;1.5;14.60;69201;5127.075;-12834.773;60;500;508.9;100;99.9;0;0.9;28.6;-1.0;
16/06/2019 20:57:58;116;0;184.97;17;-8.02;2.42;1.4;14.60;69202;5127.073;-12834.770;60;500;508.9;100;99.9;0;0.9;28.6;-1.0;
16/06/2019 20:58:18;116;0;179.93;17;-7.07;-0.21;1.4;14.60;69208;5127.070;-12834.767;60;500;508.9;100;99.9;0;0.9;28.7;-1.0;
16/06/2019 20:58:38;110;0;172.60;17;-7.72;5.56;1.4;14.70;69205;5127.070;-12834.767;60;-300;405.9;100;99.9;0;0.5;28.6;-1.0;
16/06/2019 20:58:48;110;0;163.21;17;-14.45;2.03;1.5;14.70;69453;5127.070;-12834.767;60;-300;259.4;100;99.9;0;0.5;28.5;-1.0;
16/06/2019 20:58:58;110;0;161.62;17;-27.43;2.61;1.6;14.70;69651;5127.070;-12834.767;60;-300;105.0;100;100.0;0;0.5;28.6;-1.0;
16/06/2019 20:59:08;110;0;176.71;17;-43.99;0.59;2.2;14.70;69907;5127.070;-12834.767;60;-300;-69.3;100;100.0;0;0.9;28.5;-1.0;
16/06/2019 20:59:18;110;0;193.32;17;-64.22;0.09;3.1;14.70;70192;5127.070;-12834.767;60;-300;-269.3;94;93.9;0;0.9;28.6;-1.0;
16/06/2019 20:59:28;110;0;214.81;17;-55.84;4.98;4.5;14.70;70533;5127.070;-12834.767;60;-300;-301.0;76;76.0;0;0.5;28.6;-1.0;
16/06/2019 20:59:38;110;0;223.50;17;-44.53;3.49;6.9;14.70;70539;5127.070;-12834.767;60;-300;-303.0;73;73.0;0;0.5;28.6;-1.0;
16/06/2019 20:59:48;100;0;213.71;17;-32.88;3.93;9.5;14.70;70519;5127.070;-12834.767;60;-300;-301.0;73;72.9;0;0.5;28.6;-1.0;
16/06/2019 21:00:08;100;0;207.81;17;-27.67;4.16;14.3;14.70;70486;5127.070;-12834.767;60;-300;-297.0;73;72.9;45;45.1;28.6;0.0;
16/06/2019 21:00:28;100;0;204.88;17;-23.95;24.98;18.9;14.70;70456;5127.070;-12834.767;60;-300;-301.0;73;72.9;45;45.6;28.6;0.0;
16/06/2019 21:00:48;100;0;184.52;17;-22.72;25.22;22.7;14.60;70401;5127.070;-12834.767;60;-300;-299.0;73;72.9;45;45.6;28.6;0.0;
16/06/2019 21:01:08;100;0;164.66;17;-22.80;24.81;26.3;14.50;70362;5127.070;-12834.767;60;-300;-297.0;73;72.9;35;35.2;28.6;0.0;
16/06/2019 21:01:28;100;0;147.16;17;-22.68;19.59;29.8;14.50;70302;5127.070;-12834.767;60;-300;-297.0;73;72.9;27;27.1;28.6;0.0;
16/06/2019 21:01:48;100;0;129.72;17;-24.02;15.63;33.1;14.40;70264;5127.070;-12834.767;60;-300;-297.0;73;72.9;21;21.2;28.6;0.0;
16/06/2019 21:02:08;100;0;116.53;17;-22.96;12.86;36.5;14.30;70209;5127.070;-12834.767;60;-300;-297.0;73;72.9;19;19.0;28.6;0.0;
16/06/2019 21:02:28;100;0;109.88;17;-23.78;11.42;39.7;14.20;70169;5127.070;-12834.767;60;-300;-297.0;73;72.9;20;19.9;28.6;0.0;
16/06/2019 21:02:48;100;0;98.92;17;-23.45;12.93;43.3;14.10;70146;5127.070;-12834.767;60;-300;-297.0;73;72.9;17;17.1;28.6;0.0;
16/06/2019 21:03:08;100;0;89.25;17;-23.33;10.79;46.7;14.00;70130;5127.070;-12834.767;60;-300;-295.0;73;72.7;16;15.8;28.6;0.0;
16/06/2019 21:03:28;100;0;76.49;17;-23.46;10.14;50.2;13.90;70100;5127.070;-12834.767;60;-300;-297.0;73;72.9;13;13.1;28.6;0.0;
16/06/2019 21:03:48;100;0;61.28;17;-23.02;8.77;53.6;13.90;70084;5127.070;-12834.767;60;-300;-295.0;73;72.9;8;7.7;28.6;0.0;
16/06/2019 21:04:08;100;0;49.48;17;-24.16;6.84;57.0;13.80;70056;5127.070;-12834.767;60;-300;-295.0;73;72.7;6;5.9;28.6;0.0;
16/06/2019 21:04:28;100;0;40.46;17;-24.36;5.76;60.4;13.70;70046;5127.070;-12834.767;60;-300;-295.0;73;72.9;6;5.4;28.6;0.0;
16/06/2019 21:04:48;100;0;32.31;17;-22.87;5.72;63.9;13.60;70031;5127.070;-12834.767;60;-300;-297.0;73;72.7;5;5.0;28.6;0.0;
16/06/2019 21:05:08;100;0;25.04;17;-22.39;5.26;67.2;13.50;69992;5127.070;-12834.767;60;-300;-295.0;73;72.9;4;4.1;28.6;0.0;
16/06/2019 21:05:28;100;0;18.07;17;-22.22;5.10;70.5;13.50;69979;5127.070;-12834.767;60;-300;-295.0;73;72.9;2;1.4;28.6;0.0;
16/06/2019 21:05:48;100;0;15.06;17;-22.65;3.52;73.6;13.40;69956;5127.070;-12834.767;60;-300;-295.0;73;72.7;3;3.2;28.6;0.0;
16/06/2019 21:06:08;100;0;7.72;17;-22.10;4.85;76.7;13.30;69941;5127.070;-12834.767;60;-300;-295.0;73;72.9;0;-0.5;28.6;0.0;
16/06/2019 21:06:28;100;0;3.54;17;-22.69;2.90;79.7;13.30;69918;5127.070;-12834.767;60;-300;-297.0;73;72.9;0;-0.9;28.6;0.0;
16/06/2019 21:06:48;100;0;358.31;17;-22.68;2.83;82.7;13.20;69907;5127.070;-12834.767;60;-300;-295.0;73;72.7;-1;-0.9;28.6;0.0;
16/06/2019 21:07:08;100;0;354.31;17;-22.54;2.85;85.7;13.10;69895;5127.070;-12834.767;60;-300;-297.0;73;72.7;-4;-4.1;28.6;0.0;
16/06/2019 21:07:28;100;0;352.94;17;-22.37;1.19;88.8;13.00;69888;5127.070;-12834.767;60;-300;-295.0;73;72.7;-5;-5.0;28.6;0.0;
16/06/2019 21:07:48;100;0;352.89;17;-22.48;0.84;92.0;13.00;69865;5127.070;-12834.767;60;-300;-297.0;73;72.7;-6;-5.9;28.6;0.0;
16/06/2019 21:08:08;100;0;351.35;17;-22.18;0.25;95.2;12.90;69865;5127.070;-12834.767;60;-300;-297.0;73;72.7;-8;-8.1;28.7;0.0;
16/06/2019 21:08:28;100;0;349.58;17;-22.45;-0.67;98.3;12.80;69852;5127.070;-12834.767;60;-300;-295.0;73;72.7;-11;-10.8;28.7;0.0;
16/06/2019 21:08:48;100;0;348.92;17;-21.56;-1.92;101.6;12.80;69840;5127.070;-12834.767;60;-300;-297.0;73;72.7;-13;-13.5;28.6;0.0;
16/06/2019 21:09:08;100;0;342.49;17;-21.77;-3.08;104.6;12.70;69831;5127.070;-12834.767;60;-300;-295.0;73;72.7;-18;-18.1;28.6;0.0;
16/06/2019 21:09:28;100;0;337.03;17;-22.28;-5.10;107.6;12.60;69826;5127.070;-12834.767;60;-300;-295.0;73;72.7;-22;-22.1;28.6;0.0;
16/06/2019 21:09:48;100;0;340.82;17;-21.91;-7.14;110.6;12.60;69817;5127.070;-12834.767;60;-300;-295.0;73;72.7;-21;-21.2;28.6;0.0;
16/06/2019 21:10:08;100;0;343.63;17;-21.38;-6.01;113.5;12.50;69811;5127.070;-12834.767;60;-300;-295.0;73;72.7;-22;-22.1;28.6;0.0;
16/06/2019 21:10:28;100;0;345.28;17;-21.52;-7.14;116.4;12.50;69802;5127.070;-12834.767;60;-300;-295.0;73;72.7;-23;-23.0;28.6;0.0;
16/06/2019 21:10:48;100;0;341.84;17;-21.57;-7.44;119.2;12.40;69789;5127.070;-12834.767;60;-300;-295.0;73;72.7;-28;-28.0;28.6;0.0;
16/06/2019 21:11:08;100;0;339.99;17;-21.85;-9.81;122.1;12.30;69776;5127.070;-12834.767;60;-300;-293.1;73;72.7;-28;-28.4;28.7;0.0;
16/06/2019 21:11:28;100;0;337.07;17;-21.14;-9.81;124.9;12.30;69774;5127.070;-12834.767;60;-300;-295.0;73;72.7;-29;-29.3;28.6;0.0;
16/06/2019 21:11:48;100;0;341.93;17;-21.18;-10.39;127.6;12.20;69767;5127.070;-12834.767;60;-300;-295.0;73;72.7;-26;-26.2;28.6;0.0;
16/06/2019 21:12:08;100;0;346.92;17;-21.29;-8.46;130.2;12.20;69756;5127.070;-12834.767;60;-300;-295.0;73;72.7;-23;-23.0;28.6;0.0;
16/06/2019 21:12:28;100;0;353.38;17;-20.50;-6.92;132.8;12.10;69742;5127.070;-12834.767;60;-300;-295.0;73;72.7;-21;-21.2;28.7;0.0;
16/06/2019 21:12:48;100;0;349.18;17;-20.42;-5.94;135.2;12.10;69736;5127.070;-12834.767;60;-300;-293.1;73;72.7;-25;-25.3;28.6;0.0;
16/06/2019 21:13:08;100;0;346.69;17;-20.61;-8.42;137.6;12.00;69728;5127.070;-12834.767;60;-300;-293.1;73;72.7;-27;-27.5;28.6;0.0;
16/06/2019 21:13:28;100;0;348.86;17;-19.95;-9.60;140.1;12.00;69715;5127.070;-12834.767;60;-300;-295.0;73;72.7;-25;-24.8;28.6;0.0;
16/06/2019 21:13:48;100;0;346.17;17;-20.32;-7.76;142.3;11.90;69712;5127.070;-12834.767;60;-300;-295.0;73;72.7;-26;-26.2;28.6;0.0;
16/06/2019 21:14:08;100;0;342.06;17;-20.10;-9.09;144.6;11.90;69700;5127.070;-12834.767;60;-300;-295.0;73;72.7;-28;-28.0;28.6;0.0;
16/06/2019 21:14:28;100;0;348.63;17;-19.65;-10.11;146.7;11.80;69689;5127.070;-12834.767;60;-300;-295.0;73;72.7;-24;-23.9;28.6;0.0;
16/06/2019 21:14:48;100;0;352.79;17;-19.38;-7.59;148.4;11.70;69675;5127.070;-12834.767;60;-300;-295.0;73;72.7;-22;-22.1;28.6;0.0;
16/06/2019 21:15:08;100;0;359.06;17;-19.17;-6.46;150.4;11.70;69653;5127.070;-12834.767;60;-300;-295.0;73;72.7;-19;-19.0;28.6;0.0;
16/06/2019 21:15:28;100;0;3.71;17;-18.76;-5.06;152.4;11.60;69635;5127.070;-12834.767;60;-300;-295.0;73;72.7;-19;-18.1;28.6;0.0;
16/06/2019 21:15:48;100;0;4.48;17;-18.89;-5.03;154.3;11.60;69614;5127.070;-12834.767;60;-300;-295.0;73;72.7;-20;-19.9;28.6;0.0;
16/06/2019 21:16:08;100;0;3.09;17;-18.95;-6.12;156.1;11.50;69615;5127.070;-12834.767;60;-300;-293.1;73;72.7;-22;-22.1;28.6;0.0;
16/06/2019 21:16:28;100;0;4.94;17;-18.80;-7.23;157.9;11.40;69604;5127.070;-12834.767;60;-300;-295.0;73;72.9;-21;-20.8;28.6;0.0;
16/06/2019 21:16:48;100;0;4.02;17;-18.89;-6.06;159.7;11.40;69590;5127.070;-12834.767;60;-300;-295.0;73;72.9;-22;-22.1;28.6;0.0;
16/06/2019 21:17:08;100;0;4.78;17;-18.88;-7.22;161.5;11.30;69573;5127.070;-12834.767;60;-300;-293.1;73;72.7;-22;-22.6;28.6;0.0;
16/06/2019 21:17:28;100;0;5.86;17;-18.87;-7.10;163.3;11.30;69563;5127.070;-12834.767;60;-300;-293.1;73;72.7;-21;-21.2;28.7;0.0;
16/06/2019 21:17:48;100;0;6.12;17;-18.58;-6.27;165.1;11.20;69553;5127.070;-12834.767;60;-300;-293.1;73;72.7;-21;-20.8;28.6;44.6;
16/06/2019 21:18:09;100;0;6.26;17;-18.60;-6.24;166.9;11.10;69538;5127.070;-12834.767;60;-300;-293.1;73;72.7;-21;-20.8;28.6;42.8;
16/06/2019 21:18:29;100;0;6.38;17;-18.50;-6.21;168.9;11.10;69526;5127.070;-12834.767;60;-300;-295.0;73;72.7;-22;-22.1;28.6;40.6;
16/06/2019 21:18:49;100;0;8.26;17;-18.45;-7.08;170.7;11.00;69528;5127.070;-12834.767;60;-300;-295.0;73;72.7;-20;-19.4;28.6;38.7;
16/06/2019 21:19:09;100;0;7.81;17;-18.59;-5.35;172.6;11.00;69521;5127.070;-12834.767;60;-300;-293.1;73;72.7;-21;-21.2;28.6;36.7;
16/06/2019 21:19:29;100;0;8.49;17;-18.22;-6.78;174.4;10.90;69511;5127.070;-12834.767;60;-300;-295.0;73;72.7;-21;-21.7;28.6;34.9;
16/06/2019 21:19:49;100;0;9.08;17;-18.75;-6.70;176.1;10.90;69509;5127.070;-12834.767;60;-300;-293.1;73;72.7;-21;-21.7;28.6;33.1;
16/06/2019 21:20:09;100;0;9.23;17;-18.50;-6.61;178.0;10.80;69504;5127.070;-12834.767;60;-300;-293.1;73;72.7;-21;-21.7;28.6;31.3;
16/06/2019 21:20:29;100;0;9.24;17;-18.71;-6.68;179.8;10.80;69501;5127.070;-12834.767;60;-300;-293.1;73;72.7;-21;-21.7;28.6;29.3;
16/06/2019 21:20:49;100;0;10.07;17;-18.63;-6.65;181.6;10.70;69494;5127.070;-12834.767;60;-300;-293.1;73;72.7;-20;-19.9;28.6;27.6;
16/06/2019 21:21:09;100;0;10.70;17;-18.57;-5.32;183.5;10.70;69493;5127.070;-12834.767;60;-300;-295.0;73;72.7;-21;-21.2;28.6;25.6;
16/06/2019 21:21:29;100;0;11.13;17;-18.64;-6.72;185.3;10.60;69489;5127.070;-12834.767;60;-300;-295.0;73;72.7;-20;-19.9;28.6;23.7;
16/06/2019 21:21:49;100;0;10.43;17;-18.69;-5.35;187.2;10.60;69487;5127.070;-12834.767;60;-300;-293.1;73;72.7;-21;-21.2;28.6;21.8;
16/06/2019 21:22:09;100;0;11.29;17;-18.60;-6.75;189.1;10.50;69478;5127.070;-12834.767;60;-300;-293.1;73;72.7;-20;-19.9;28.6;19.8;
16/06/2019 21:22:29;118;0;10.88;17;-18.49;-5.46;190.9;10.50;69471;5127.070;-12834.767;60;150;-279.2;57;56.9;0;0.9;28.6;17.9;
16/06/2019 21:22:39;118;0;43.76;17;2.96;4.05;191.7;10.50;69404;5127.070;-12834.767;60;150;-122.8;57;57.1;0;0.9;28.0;17.9;
16/06/2019 21:22:49;118;0;41.13;17;20.31;3.63;191.4;10.50;69190;5127.070;-12834.767;60;150;31.7;57;57.1;0;0.9;28.0;-1.0;
16/06/2019 21:22:59;118;0;39.65;17;24.10;3.85;190.5;10.40;68932;5127.070;-12834.767;60;150;154.5;57;57.1;0;0.9;28.0;-1.0;
16/06/2019 21:23:09;118;0;5.80;17;24.84;3.84;189.2;10.40;68763;5127.070;-12834.767;60;150;154.5;57;57.1;0;0.9;28.6;-1.0;
16/06/2019 21:23:19;118;0;5.79;17;27.15;4.01;187.5;10.40;68764;5127.070;-12834.767;60;150;156.4;57;57.1;0;0.9;28.6;-1.0;
16/06/2019 21:23:29;117;0;5.80;17;27.87;3.82;185.6;10.40;68760;5127.070;-12834.767;60;150;156.4;57;57.1;0;0.9;28.6;-1.0;
16/06/2019 21:23:49;117;0;5.61;17;28.21;3.61;181.1;10.40;68748;5127.070;-12834.767;60;150;156.4;57;57.1;24;23.9;28.6;-1.0;
16/06/2019 21:24:09;117;0;12.08;17;27.88;15.48;176.2;10.30;68749;5127.070;-12834.767;60;150;154.5;57;57.1;19;18.5;28.6;-1.0;
16/06/2019 21:24:29;117;0;19.05;17;27.98;12.09;171.6;10.30;68745;5127.070;-12834.767;60;150;156.4;57;57.1;16;15.8;28.6;-1.0;
16/06/2019 21:24:49;117;0;23.80;17;28.11;10.62;167.0;10.20;68729;5127.070;-12834.767;60;150;156.4;57;57.1;15;14.4;28.6;-1.0;
16/06/2019 21:25:09;117;0;27.17;17;28.20;9.97;162.5;10.20;68726;5127.070;-12834.767;60;150;154.5;57;57.1;14;14.0;28.6;-1.0;
16/06/2019 21:25:29;117;0;30.12;17;28.26;9.95;157.7;10.10;68727;5127.070;-12834.767;60;150;158.4;57;57.1;14;14.0;28.6;-1.0;
16/06/2019 21:25:49;117;0;37.85;17;28.22;9.89;152.9;10.10;68725;5127.070;-12834.767;60;150;156.4;57;57.1;12;12.2;28.6;-1.0;
16/06/2019 21:26:09;117;0;47.00;17;28.59;8.75;148.2;10.00;68727;5127.070;-12834.767;60;150;156.4;57;57.1;12;11.7;28.6;-1.0;
16/06/2019 21:26:29;117;0;38.90;17;29.04;8.86;143.3;10.00;68740;5127.070;-12834.767;60;150;156.4;57;57.1;16;15.8;28.7;-1.0;
16/06/2019 21:26:49;117;0;41.19;17;27.38;11.57;138.4;10.00;68760;5127.070;-12834.767;60;150;156.4;57;57.2;14;14.0;28.6;-1.0;
16/06/2019 21:27:09;117;0;51.13;17;25.27;9.54;134.2;10.00;68780;5127.070;-12834.767;60;150;156.4;57;57.1;14;13.1;28.6;-1.0;
16/06/2019 21:27:29;117;0;57.33;17;26.17;9.74;130.6;9.90;68789;5127.070;-12834.767;60;150;156.4;57;57.1;7;7.2;28.6;-1.0;
16/06/2019 21:27:49;117;0;58.43;17;26.01;6.51;126.7;9.90;68808;5127.070;-12834.767;60;150;156.4;57;57.1;8;8.1;28.6;-1.0;
16/06/2019 21:28:09;117;0;68.04;17;24.73;7.46;122.8;9.90;68813;5127.070;-12834.767;60;150;156.4;57;57.1;2;1.4;28.6;-1.0;
16/06/2019 21:28:29;117;0;67.52;17;24.28;3.57;119.5;9.90;68832;5127.070;-12834.767;60;150;156.4;57;57.1;5;5.0;28.7;-1.0;
16/06/2019 21:28:49;117;0;67.92;17;24.44;5.85;116.4;9.90;68835;5127.070;-12834.767;60;150;156.4;57;57.1;5;5.4;28.6;-1.0;
16/06/2019 21:29:09;117;0;70.49;17;24.29;5.70;113.1;9.90;68838;5127.070;-12834.767;60;150;156.4;57;57.1;4;3.6;28.6;-1.0;
16/06/2019 21:29:29;117;0;69.04;17;24.17;4.70;109.7;9.90;68840;5127.070;-12834.767;60;150;156.4;57;57.1;4;3.2;28.6;-1.0;
16/06/2019 21:29:49;117;0;65.68;17;23.52;4.72;106.3;9.90;68849;5127.070;-12834.767;60;150;156.4;57;57.1;6;5.9;28.6;-1.0;
16/06/2019 21:30:09;117;0;72.35;17;23.08;6.42;103.3;9.90;68860;5127.070;-12834.767;60;150;156.4;57;57.1;1;0.9;28.6;-1.0;
16/06/2019 21:30:29;117;0;76.20;17;23.12;3.27;100.4;9.90;68863;5127.070;-12834.767;60;150;156.4;57;57.1;0;0.0;28.6;-1.0;
16/06/2019 21:30:49;117;0;68.14;17;23.16;2.81;97.5;9.80;68864;5127.070;-12834.767;60;150;156.4;57;57.1;4;4.5;28.6;-1.0;
16/06/2019 21:31:09;117;0;66.89;17;23.25;5.64;94.7;9.80;68867;5127.070;-12834.767;60;150;156.4;57;57.1;4;5.0;28.6;-1.0;
16/06/2019 21:31:29;117;0;66.83;17;23.01;5.56;91.7;9.80;68874;5127.070;-12834.767;60;150;156.4;57;57.1;3;3.2;28.6;-1.0;
16/06/2019 21:31:49;117;0;64.34;17;22.91;4.49;88.7;9.80;68872;5127.070;-12834.767;60;150;156.4;57;57.1;3;2.7;28.6;-1.0;
16/06/2019 21:32:09;117;0;62.29;17;22.84;4.48;85.8;9.80;68866;5127.070;-12834.767;60;150;156.4;57;57.1;3;3.2;28.6;-1.0;
16/06/2019 21:32:29;117;0;62.44;17;22.63;4.54;82.8;9.80;68879;5127.070;-12834.767;60;150;156.4;57;57.1;1;0.9;28.6;-1.0;
16/06/2019 21:32:49;117;0;62.63;17;22.17;3.40;80.0;9.80;68883;5127.070;-12834.767;60;150;156.4;57;57.1;1;0.5;28.6;-1.0;
16/06/2019 21:33:09;117;0;66.67;17;22.00;3.35;77.1;9.80;68891;5127.070;-12834.767;60;150;158.4;57;57.1;-2;-1.8;28.7;-1.0;
16/06/2019 21:33:29;117;0;69.98;17;21.78;2.05;74.4;9.80;68898;5127.070;-12834.767;60;150;156.4;57;56.9;-3;-3.2;28.6;-1.0;
16/06/2019 21:33:49;117;0;71.03;17;22.01;1.46;71.6;9.80;68889;5127.070;-12834.767;60;150;156.4;57;57.1;-4;-4.1;28.6;-1.0;
16/06/2019 21:34:09;117;0;71.91;17;21.77;0.88;68.8;9.80;68891;5127.070;-12834.767;60;150;156.4;57;57.1;-4;-4.5;28.7;-1.0;
16/06/2019 21:34:29;117;0;65.89;17;21.80;1.09;66.2;9.80;68889;5127.070;-12834.767;60;150;158.4;57;56.9;-1;-0.9;28.6;-1.0;
16/06/2019 21:34:49;117;0;67.55;17;20.80;2.82;63.7;9.80;68905;5127.070;-12834.767;60;150;156.4;57;57.1;-3;-3.6;28.6;-1.0;
16/06/2019 21:35:09;117;0;67.75;17;20.59;1.36;61.3;9.80;68919;5127.070;-12834.767;60;150;156.4;57;57.1;-4;-4.1;28.6;-1.0;
16/06/2019 21:35:29;117;0;69.00;17;19.68;1.18;59.0;9.80;68927;5127.070;-12834.767;60;150;156.4;57;57.1;-5;-5.0;28.6;-1.0;
16/06/2019 21:35:49;117;0;65.23;17;20.06;0.77;56.8;9.80;68928;5127.070;-12834.767;60;150;158.4;57;57.1;-4;-4.1;28.6;-1.0;
16/06/2019 21:36:09;117;0;66.29;17;19.79;1.49;54.4;9.80;68957;5127.070;-12834.767;60;150;156.4;57;57.1;-5;-5.0;28.6;-1.0;
16/06/2019 21:36:29;117;0;66.73;17;19.69;0.38;51.9;9.80;68962;5127.070;-12834.767;60;150;156.4;57;57.1;-6;-5.9;28.7;-1.0;
16/06/2019 21:36:49;117;0;68.80;17;19.43;0.42;49.4;9.90;68996;5127.070;-12834.767;60;150;156.4;57;57.1;-8;-8.1;28.6;-1.0;
16/06/2019 21:37:09;117;0;70.19;17;19.09;-0.96;47.0;9.90;69005;5127.070;-12834.767;60;150;158.4;57;57.1;-9;-9.0;28.6;-1.0;
16/06/2019 21:37:29;117;0;66.73;17;19.38;-1.53;44.8;9.90;69009;5127.070;-12834.767;60;150;158.4;57;57.1;-7;-6.8;28.6;-1.0;
16/06/2019 21:37:49;117;0;64.57;17;19.21;0.25;42.5;9.90;69023;5127.070;-12834.767;60;150;158.4;57;57.1;-7;-6.3;28.6;-1.0;
16/06/2019 21:38:09;117;0;62.41;17;19.21;0.16;40.2;9.90;69037;5127.070;-12834.767;60;150;156.4;57;57.1;-7;-6.3;28.6;-1.0;
16/06/2019 21:38:29;117;0;56.53;17;19.20;0.21;37.9;9.90;69035;5127.070;-12834.767;60;150;156.4;57;57.1;-5;-5.0;28.6;-1.0;
16/06/2019 21:38:49;117;0;54.32;17;19.01;1.09;35.6;9.90;69040;5127.070;-12834.767;60;150;156.4;57;57.1;-5;-4.5;28.6;-1.0;
16/06/2019 21:39:09;117;0;47.10;17;18.30;0.83;33.3;9.90;69046;5127.070;-12834.767;60;150;156.4;57;57.1;-3;-3.2;28.6;-1.0;
16/06/2019 21:39:29;117;0;36.94;17;18.33;1.86;31.1;10.00;69071;5127.070;-12834.767;60;150;158.4;57;57.1;-3;-2.7;28.6;-1.0;
16/06/2019 21:39:49;117;0;32.09;17;17.51;1.94;29.0;10.00;69101;5127.070;-12834.767;60;150;156.4;57;57.1;0;0.0;28.6;-1.0;
16/06/2019 21:40:09;117;0;37.51;17;17.39;3.53;26.9;10.00;69122;5127.070;-12834.767;60;150;158.4;57;57.1;-4;-4.5;28.6;-1.0;
16/06/2019 21:40:29;117;0;37.29;17;17.35;0.86;25.0;10.00;69149;5127.070;-12834.767;60;150;156.4;57;57.1;-4;-5.0;28.6;-1.0;
16/06/2019 21:40:49;117;0;32.78;17;16.77;0.91;23.0;10.10;69175;5127.070;-12834.767;60;150;158.4;57;57.2;0;0.0;28.6;-1.0;
16/06/2019 21:41:09;117;0;35.91;17;16.61;3.74;21.1;10.10;69206;5127.070;-12834.767;60;150;158.4;57;57.1;-3;-3.6;28.6;-1.0;
16/06/2019 21:41:29;117;0;34.51;17;16.48;1.45;19.2;10.10;69232;5127.070;-12834.767;60;150;158.4;57;57.1;-2;-1.8;28.6;-1.0;
16/06/2019 21:41:49;117;0;37.56;17;16.45;2.90;17.5;10.20;69266;5127.070;-12834.767;60;150;156.4;57;57.1;-3;-3.6;28.6;-1.0;
16/06/2019 21:42:09;117;0;42.46;17;16.07;1.39;15.7;10.20;69292;5127.070;-12834.767;60;150;158.4;57;57.1;-3;-4.1;28.6;-1.0;
16/06/2019 21:42:29;117;0;46.26;17;16.45;1.43;14.0;10.30;69317;5127.070;-12834.767;60;150;158.4;57;57.1;-7;-7.2;28.6;-1.0;
16/06/2019 21:42:49;117;0;44.44;17;15.52;-0.59;12.3;10.30;69352;5127.070;-12834.767;60;150;156.4;57;57.1;-4;-3.6;28.6;-1.0;
16/06/2019 21:43:09;117;0;51.21;17;16.07;1.90;10.8;10.40;69390;5127.070;-12834.767;60;150;158.4;57;57.1;-8;-8.6;28.6;-1.0;
16/06/2019 21:43:29;117;0;51.09;17;15.87;-0.79;9.3;10.40;69408;5127.070;-12834.767;60;150;158.4;57;57.1;-7;-7.2;28.6;-1.0;
16/06/2019 21:43:49;117;0;45.04;17;15.96;0.15;7.7;10.50;69420;5127.070;-12834.767;60;150;158.4;57;57.1;-3;-3.2;28.6;-1.0;
16/06/2019 21:44:09;117;0;47.30;17;15.82;2.54;6.0;10.50;69438;5127.070;-12834.767;60;150;158.4;57;57.1;-5;-5.0;28.6;-1.0;
