Timestamp;NavState;SecurityLevel;Heading;Declination;Pitch;Roll;Depth;Temperature;Pa;Lat;Lon;DesiredH;BallastCmd;BallastPos;LinCmd;LinPos;AngCmd;AngPos;Voltage;Altitude;
15/06/2019 03:08:57;117;0;234.98;17;14.42;5.06;9.2;9.60;69301;5128.276;-12826.705;266;150;156.4;57;57.1;3;3.6;29.0;-1.0;
15/06/2019 03:09:07;115;0;232.39;17;14.49;4.95;8.5;9.60;69319;5128.276;-12826.705;266;500;168.3;100;100.6;0;-0.5;29.0;-1.0;
15/06/2019 03:09:17;115;0;199.19;17;-29.36;4.04;8.0;9.70;69244;5128.276;-12826.705;266;500;318.8;100;100.0;0;-0.5;28.7;-1.0;
15/06/2019 03:09:27;115;0;214.90;17;-66.23;1.39;8.7;9.70;69057;5128.276;-12826.705;266;500;471.3;100;100.0;0;-0.5;28.7;-1.0;
15/06/2019 03:09:37;115;0;245.25;17;-58.44;1.88;7.6;9.70;68801;5128.276;-12826.705;266;500;506.9;100;100.0;0;-0.5;28.7;-1.0;
15/06/2019 03:09:47;115;0;284.20;17;-44.61;-1.00;4.3;9.80;68778;5128.276;-12826.705;266;500;505.0;100;99.9;0;-0.5;29.0;-1.0;
15/06/2019 03:09:57;116;0;350.14;17;-47.56;1.71;1.3;9.80;68798;5128.276;-12826.705;266;500;508.9;100;99.7;0;-0.5;29.0;-1.0;
15/06/2019 03:10:17;116;0;338.77;17;-4.68;-4.42;1.2;9.90;68811;5128.276;-12826.705;266;500;506.9;100;99.9;0;-0.5;29.0;-1.0;
15/06/2019 03:10:37;116;0;320.69;17;-18.82;0.12;1.2;10.00;68843;5128.276;-12826.705;266;500;508.9;100;99.9;0;-0.5;29.0;-1.0;
15/06/2019 03:10:57;116;0;314.41;17;-18.43;4.58;1.3;10.10;68864;5127.873;-12828.450;266;500;508.9;100;99.9;0;-0.5;29.0;-1.0;
15/06/2019 03:11:17;116;0;308.06;17;-6.53;2.73;1.2;10.20;68873;5127.869;-12828.453;245;500;508.9;100;99.7;0;-0.5;28.9;-1.0;
15/06/2019 03:12:31;116;0;301.02;17;-5.94;1.56;1.1;10.80;68934;5127.867;-12828.453;245;500;508.9;100;99.7;0;-0.5;29.0;-1.0;
15/06/2019 03:12:51;116;0;306.24;17;-14.66;-0.14;1.2;11.00;68932;5127.867;-12828.458;245;500;506.9;100;99.9;0;-0.5;29.0;-1.0;
15/06/2019 03:13:11;116;0;321.09;17;-24.96;2.62;1.4;11.20;68958;5127.866;-12828.458;245;500;508.9;100;99.7;0;-0.5;29.0;-1.0;
15/06/2019 03:13:31;116;0;309.37;17;-18.01;0.82;1.3;11.30;68961;5127.866;-12828.458;245;500;508.9;100;99.7;0;-0.5;29.0;-1.0;
15/06/2019 03:13:51;116;0;314.19;17;-21.27;2.99;1.2;11.40;68974;5127.863;-12828.460;245;500;508.9;100;99.7;0;-0.5;29.0;-1.0;
15/06/2019 03:14:11;116;0;308.35;17;-5.86;1.87;1.2;11.50;68973;5127.861;-12828.458;245;500;508.9;100;99.7;0;-0.9;29.0;-1.0;
15/06/2019 03:14:31;116;0;303.89;17;-8.78;-1.73;1.2;11.70;68991;5127.842;-12828.454;245;500;508.9;100;99.7;0;-0.5;29.0;-1.0;
15/06/2019 03:14:51;116;0;315.31;17;-7.06;6.86;1.2;11.90;68992;5127.859;-12828.482;245;500;508.9;100;99.9;0;-0.5;29.0;-1.0;
15/06/2019 03:19:34;116;0;315.73;17;-5.49;0.74;1.2;13.20;69079;5127.858;-12828.483;245;500;508.9;100;99.9;0;-0.5;29.0;-1.0;
15/06/2019 03:19:54;116;0;308.53;17;-24.50;3.66;1.3;13.30;69087;5127.857;-12828.484;245;500;508.9;100;99.9;0;-0.5;29.0;-1.0;
15/06/2019 03:20:14;116;0;317.07;17;-16.33;4.10;1.2;13.30;69073;5127.856;-12828.484;245;500;508.9;100;99.9;0;-0.5;29.0;-1.0;
15/06/2019 03:20:34;116;0;316.97;17;-6.24;3.63;1.2;13.40;69089;5127.844;-12828.507;245;500;508.9;100;99.7;0;-0.5;28.9;-1.0;
15/06/2019 03:26:10;116;0;320.42;17;-11.52;1.91;1.2;14.10;69149;5127.844;-12828.508;245;500;508.9;100;99.7;0;-0.5;29.0;-1.0;
15/06/2019 03:26:30;116;0;315.31;17;-7.10;0.85;1.2;14.10;69147;5127.844;-12828.509;245;500;508.9;100;99.9;0;-0.5;29.0;-1.0;
15/06/2019 03:26:50;116;0;305.37;17;-9.82;2.89;1.2;14.20;69150;5127.843;-12828.511;245;500;508.9;100;99.7;0;-0.5;29.0;-1.0;
15/06/2019 03:27:10;116;0;304.89;17;-9.76;5.51;1.2;14.20;69146;5127.842;-12828.512;245;500;508.9;100;99.7;0;-0.5;29.0;-1.0;
15/06/2019 03:27:30;116;0;304.60;17;-3.47;-0.10;1.2;14.20;69158;5127.840;-12828.514;245;500;508.9;100;99.9;0;-0.5;29.0;-1.0;
15/06/2019 03:27:50;116;0;316.63;17;-27.64;3.02;1.3;14.30;69164;5127.840;-12828.516;245;500;508.9;100;99.9;0;-0.5;29.0;-1.0;
15/06/2019 03:28:10;116;0;305.63;17;-23.32;3.11;1.2;14.30;69157;5127.839;-12828.517;245;500;508.9;100;99.9;0;-0.5;29.0;-1.0;
15/06/2019 03:28:30;116;0;304.67;17;-9.40;1.79;1.2;14.30;69166;5127.838;-12828.517;245;500;508.9;100;99.9;0;-0.5;29.0;-1.0;
15/06/2019 03:28:50;116;0;312.41;17;-10.85;3.24;1.3;14.30;69153;5127.838;-12828.520;245;500;508.9;100;99.9;0;-0.5;29.0;-1.0;
15/06/2019 03:29:10;116;0;282.43;17;-8.88;5.28;1.2;14.40;69173;5127.835;-12828.525;245;500;508.9;100;99.9;0;-0.5;29.0;-1.0;
15/06/2019 03:29:48;116;0;304.21;17;-27.82;1.33;1.5;14.40;69166;5127.835;-12828.527;245;500;510.9;100;99.9;0;-0.5;29.0;-1.0;
15/06/2019 03:30:08;116;0;315.17;17;-12.89;4.05;1.2;14.40;69172;5127.834;-12828.529;245;500;508.9;100;99.9;0;-0.5;29.0;-1.0;
15/06/2019 03:30:28;116;0;315.57;17;-15.10;6.60;1.2;14.50;69176;5127.833;-12828.530;245;500;508.9;100;99.9;0;-0.5;29.0;-1.0;
15/06/2019 03:30:48;116;0;315.52;17;-22.39;2.42;1.3;14.50;69169;5127.830;-12828.538;245;500;508.9;100;99.9;0;-0.5;29.0;-1.0;
15/06/2019 03:31:48;116;0;298.32;17;-18.21;1.93;1.2;14.70;69187;5127.829;-12828.537;245;500;508.9;100;99.9;0;-0.5;29.0;-1.0;
15/06/2019 03:32:08;116;0;288.18;17;-15.79;-0.40;1.2;14.80;69177;5127.829;-12828.538;245;500;508.9;100;99.7;0;-0.5;29.0;-1.0;
15/06/2019 03:32:28;116;0;306.40;17;-20.61;4.22;1.3;14.90;69192;5127.825;-12828.541;245;500;508.9;100;99.9;0;-0.5;29.0;-1.0;
15/06/2019 03:32:48;116;0;306.23;17;-14.44;2.00;1.2;14.90;69194;5127.825;-12828.542;245;500;508.9;100;99.9;0;-0.5;29.0;-1.0;
15/06/2019 03:33:08;116;0;305.93;17;-14.47;3.53;1.2;15.00;69188;5127.827;-12828.551;245;500;508.9;100;99.7;0;-0.5;29.0;-1.0;
15/06/2019 03:33:28;116;0;305.85;17;-23.20;3.58;1.3;15.10;69207;5127.825;-12828.554;245;500;508.9;100;99.9;0;-0.5;29.0;-1.0;
15/06/2019 03:34:53;116;0;300.76;17;-7.53;5.72;1.2;15.60;69210;5127.825;-12828.554;245;500;508.9;100;99.7;0;-0.5;29.0;-1.0;
15/06/2019 03:35:13;116;0;304.53;17;-7.52;3.75;1.2;15.60;69210;5127.822;-12828.557;245;500;508.9;100;99.9;0;-0.5;29.0;-1.0;
15/06/2019 03:35:33;116;0;286.31;17;-7.42;3.82;1.2;15.60;69208;5127.823;-12828.558;245;500;508.9;100;99.9;0;-0.5;29.0;-1.0;
15/06/2019 03:35:53;116;0;305.24;17;-6.86;-0.90;1.1;15.70;69213;5127.823;-12828.560;245;500;508.9;100;99.7;0;-0.5;29.0;-1.0;
15/06/2019 03:36:13;116;0;314.96;17;-7.88;1.43;1.2;15.70;69218;5127.822;-12828.562;245;500;508.9;100;99.9;0;-0.5;29.0;-1.0;
15/06/2019 03:36:33;116;0;300.55;17;-7.87;1.95;1.2;15.70;69222;5127.821;-12828.568;245;500;508.9;100;99.9;0;-0.5;29.0;-1.0;
15/06/2019 03:37:11;116;0;289.44;17;-21.46;5.83;1.2;15.70;69232;5127.820;-12828.570;245;500;508.9;100;99.9;0;-0.5;29.0;-1.0;
15/06/2019 03:37:31;116;0;287.05;17;-14.94;5.73;1.2;15.70;69227;5127.820;-12828.570;245;500;508.9;100;99.9;0;-0.5;29.0;-1.0;
15/06/2019 03:37:51;116;0;291.64;17;-10.40;6.40;1.2;15.70;69216;5127.820;-12828.571;245;500;508.9;100;99.7;0;-0.5;29.0;-1.0;
15/06/2019 03:38:11;116;0;295.26;17;-7.04;-1.36;1.2;15.70;69216;5127.817;-12828.579;245;500;508.9;100;99.7;0;-0.5;29.0;-1.0;
15/06/2019 03:38:43;116;0;307.63;17;-25.32;6.01;1.3;15.70;69238;5127.816;-12828.579;245;500;508.9;100;99.9;0;-0.5;29.0;-1.0;
15/06/2019 03:39:03;116;0;289.44;17;-12.07;4.46;1.2;15.80;69226;5127.817;-12828.582;245;500;508.9;100;99.9;0;-0.5;29.0;-1.0;
15/06/2019 03:39:23;116;0;298.53;17;-8.08;6.18;1.2;15.80;69239;5127.813;-12828.587;245;500;508.9;100;99.9;0;-0.5;29.0;-1.0;
15/06/2019 03:40:27;116;0;293.85;17;-9.34;4.18;1.3;16.10;69239;5127.813;-12828.588;245;500;508.9;100;99.9;0;-0.5;29.0;-1.0;
15/06/2019 03:40:47;116;0;307.20;17;-11.22;3.79;1.2;16.20;69243;5127.812;-12828.591;245;500;508.9;100;99.7;0;-0.5;28.8;-1.0;
15/06/2019 03:41:07;116;0;283.52;17;-8.13;1.02;1.2;16.20;69244;5127.811;-12828.594;245;500;508.9;100;99.7;0;-0.5;29.0;-1.0;
15/06/2019 03:41:27;116;0;271.04;17;-7.73;1.37;1.3;16.20;69246;5127.810;-12828.596;245;500;508.9;100;99.9;0;-0.5;29.0;-1.0;
15/06/2019 03:41:47;110;0;304.63;17;-38.41;5.56;1.6;16.20;69240;5127.810;-12828.596;245;-300;429.7;100;99.9;0;-0.5;29.0;-1.0;
15/06/2019 03:41:57;110;0;315.44;17;-23.56;4.62;1.4;16.20;69445;5127.810;-12828.596;245;-300;281.2;100;99.9;0;-0.5;28.9;-1.0;
15/06/2019 03:42:07;110;0;323.98;17;-20.94;0.64;1.2;16.20;69638;5127.810;-12828.596;245;-300;132.7;100;99.9;0;-0.5;28.9;-1.0;
15/06/2019 03:42:17;110;0;324.47;17;-31.43;2.62;1.6;16.20;69892;5127.810;-12828.596;245;-300;-37.6;100;99.9;0;-0.5;28.9;-1.0;
15/06/2019 03:42:27;110;0;334.47;17;-62.10;2.85;2.6;16.20;70160;5127.810;-12828.596;245;-300;-241.6;96;95.8;0;-0.5;28.9;-1.0;
15/06/2019 03:42:37;110;0;338.51;17;-55.41;3.08;4.4;16.20;70511;5127.810;-12828.596;245;-300;-301.0;78;77.9;0;-0.5;28.9;-1.0;
15/06/2019 03:42:47;110;0;333.25;17;-47.69;2.19;7.4;16.20;70562;5127.810;-12828.596;245;-300;-303.0;73;72.9;0;-0.5;29.0;-1.0;
15/06/2019 03:42:57;100;0;339.41;17;-35.98;2.90;10.5;16.10;70558;5127.810;-12828.596;245;-300;-303.0;73;72.7;0;-0.5;29.0;-1.0;
15/06/2019 03:43:17;100;0;327.71;17;-27.10;3.28;15.6;16.10;70499;5127.810;-12828.596;245;-300;-297.0;73;72.7;45;45.1;29.0;0.0;
15/06/2019 03:43:37;100;0;308.33;17;-22.76;25.38;20.0;15.90;70438;5127.810;-12828.596;245;-300;-297.0;73;72.7;37;37.0;29.0;0.0;
15/06/2019 03:43:57;100;0;296.78;17;-23.10;20.37;23.7;15.80;70388;5127.810;-12828.596;245;-300;-297.0;73;72.7;25;24.8;29.0;0.0;
15/06/2019 03:44:17;100;0;290.07;17;-23.59;14.49;27.2;15.70;70317;5127.810;-12828.596;245;-300;-297.0;73;72.7;23;22.6;29.0;0.0;
15/06/2019 03:44:37;100;0;277.19;17;-23.01;13.47;30.7;15.60;70262;5127.810;-12828.596;245;-300;-297.0;73;72.7;19;19.0;29.0;0.0;
15/06/2019 03:44:57;100;0;264.01;17;-23.29;11.75;34.2;15.40;70222;5127.810;-12828.596;245;-300;-295.0;73;72.7;14;14.0;29.0;0.0;
15/06/2019 03:45:17;100;0;259.45;17;-23.49;9.16;37.7;15.30;70180;5127.810;-12828.596;245;-300;-297.0;73;72.9;15;14.9;29.0;0.0;
15/06/2019 03:45:37;100;0;245.14;17;-22.69;10.31;41.0;15.20;70153;5127.810;-12828.596;245;-300;-295.0;73;72.7;10;9.9;29.0;0.0;
15/06/2019 03:45:57;100;0;232.90;17;-23.39;7.42;44.2;15.00;70108;5127.810;-12828.596;245;-300;-295.0;73;72.7;6;5.9;29.0;0.0;
15/06/2019 03:46:17;100;0;224.56;17;-23.39;5.58;47.4;14.90;70096;5127.810;-12828.596;245;-300;-295.0;73;72.7;6;5.4;29.0;0.0;
15/06/2019 03:46:37;100;0;217.61;17;-23.44;5.50;50.5;14.80;70059;5127.810;-12828.596;245;-300;-295.0;73;72.9;6;5.4;29.0;0.0;
15/06/2019 03:46:57;100;0;211.60;17;-23.28;5.53;53.5;14.70;70046;5127.810;-12828.596;245;-300;-295.0;73;72.7;5;4.5;29.0;0.0;
15/06/2019 03:47:17;100;0;200.74;17;-23.44;4.97;56.6;14.60;70037;5127.810;-12828.596;245;-300;-295.0;73;72.7;1;0.5;29.0;0.0;
15/06/2019 03:47:37;100;0;192.11;17;-23.13;3.22;59.7;14.50;70019;5127.810;-12828.596;245;-300;-293.1;73;72.7;0;0.0;29.0;0.0;
15/06/2019 03:47:57;100;0;183.18;17;-22.87;3.16;62.9;14.40;70002;5127.810;-12828.596;245;-300;-295.0;73;72.7;-3;-3.2;28.9;0.0;
15/06/2019 03:48:17;100;0;175.12;17;-23.00;1.62;66.0;14.30;69998;5127.810;-12828.596;245;-300;-295.0;73;72.7;-6;-5.9;29.0;0.0;
15/06/2019 03:48:37;100;0;167.45;17;-22.85;0.29;69.3;14.20;69986;5127.810;-12828.596;245;-300;-297.0;73;72.7;-10;-9.9;29.0;0.0;
15/06/2019 03:48:57;100;0;165.68;17;-22.97;-1.58;72.5;14.10;69968;5127.810;-12828.596;245;-300;-293.1;73;72.6;-11;-10.8;29.0;0.0;
15/06/2019 03:49:17;100;0;164.22;17;-22.84;-1.95;75.7;14.00;69962;5127.810;-12828.596;245;-300;-295.0;73;72.7;-12;-12.6;29.0;0.0;
15/06/2019 03:49:37;100;0;158.59;17;-22.59;-2.66;78.9;13.90;69938;5127.810;-12828.596;245;-300;-295.0;73;72.7;-17;-17.6;29.0;0.0;
15/06/2019 03:49:57;100;0;155.90;17;-22.73;-4.64;82.1;13.90;69932;5127.810;-12828.596;245;-300;-295.0;73;72.7;-20;-19.9;29.0;0.0;
15/06/2019 03:50:17;100;0;158.47;17;-22.49;-5.82;85.3;13.80;69915;5127.810;-12828.596;245;-300;-295.0;73;72.7;-19;-19.0;29.0;0.0;
15/06/2019 03:50:37;100;0;166.03;17;-22.80;-5.11;88.4;13.70;69912;5127.810;-12828.596;245;-300;-295.0;73;72.7;-17;-17.1;29.0;0.0;
15/06/2019 03:50:57;100;0;164.43;17;-21.51;-3.95;91.7;13.60;69908;5127.810;-12828.596;245;-300;-295.0;73;72.6;-22;-22.1;29.0;0.0;
15/06/2019 03:51:17;100;0;167.61;17;-21.93;-6.94;94.7;13.50;69900;5127.810;-12828.596;245;-300;-295.0;73;72.7;-23;-23.0;29.0;0.0;
15/06/2019 03:51:37;100;0;167.24;17;-21.60;-7.30;97.6;13.40;69883;5127.810;-12828.596;245;-300;-293.1;73;72.7;-26;-26.6;29.0;0.0;
15/06/2019 03:51:57;100;0;163.94;17;-21.43;-8.96;100.6;13.40;69882;5127.810;-12828.596;245;-300;-293.1;73;72.7;-28;-28.0;29.0;0.0;
15/06/2019 03:52:17;100;0;162.72;17;-21.07;-9.89;103.6;13.30;69862;5127.810;-12828.596;245;-300;-293.1;73;72.7;-28;-28.4;29.0;0.0;
15/06/2019 03:52:37;100;0;167.36;17;-21.23;-9.91;106.2;13.20;69859;5127.810;-12828.596;245;-300;-293.1;73;72.7;-25;-24.8;29.0;0.0;
15/06/2019 03:52:57;100;0;171.72;17;-21.52;-7.82;108.8;13.10;69853;5127.810;-12828.596;245;-300;-293.1;73;72.7;-23;-23.0;29.0;0.0;
15/06/2019 03:53:17;100;0;170.92;17;-20.95;-6.89;111.5;13.10;69851;5127.810;-12828.596;245;-300;-293.1;73;72.7;-25;-24.8;29.0;0.0;
15/06/2019 03:53:37;100;0;170.59;17;-21.02;-8.29;114.2;13.00;69840;5127.810;-12828.596;245;-300;-293.1;73;72.7;-26;-26.2;29.0;0.0;
15/06/2019 03:53:57;100;0;167.94;17;-21.41;-9.14;116.7;13.00;69831;5127.810;-12828.596;245;-300;-293.1;73;72.7;-27;-27.1;29.0;0.0;
15/06/2019 03:54:17;100;0;169.89;17;-21.11;-9.09;119.2;12.90;69824;5127.810;-12828.596;245;-300;-293.1;73;72.7;-26;-25.7;29.0;0.0;
15/06/2019 03:54:37;100;0;175.15;17;-20.90;-8.36;121.5;12.80;69813;5127.810;-12828.596;245;-300;-293.1;73;72.7;-23;-22.6;29.0;0.0;
15/06/2019 03:54:57;100;0;180.24;17;-20.50;-6.82;124.0;12.70;69801;5127.810;-12828.596;245;-300;-293.1;73;72.6;-21;-20.8;29.0;0.0;
15/06/2019 03:55:17;100;0;182.24;17;-20.03;-5.76;126.4;12.70;69794;5127.810;-12828.596;245;-300;-293.1;73;72.7;-21;-20.3;29.0;0.0;
15/06/2019 03:55:37;100;0;177.34;17;-19.89;-5.80;128.8;12.60;69771;5127.810;-12828.596;245;-300;-293.1;73;72.7;-25;-24.8;29.0;0.0;
15/06/2019 03:55:57;100;0;173.41;17;-19.92;-8.35;131.4;12.50;69769;5127.810;-12828.596;245;-300;-293.1;73;72.7;-27;-27.5;29.0;0.0;
15/06/2019 03:56:17;100;0;174.57;17;-19.58;-9.61;133.7;12.50;69757;5127.810;-12828.596;245;-300;-291.1;73;72.7;-26;-26.2;29.0;0.0;
15/06/2019 03:56:37;100;0;178.39;17;-19.82;-8.72;135.9;12.40;69750;5127.810;-12828.596;245;-300;-291.1;73;72.7;-23;-22.6;29.0;0.0;
15/06/2019 03:56:57;100;0;179.58;17;-20.11;-6.87;138.0;12.30;69735;5127.810;-12828.596;245;-300;-293.1;73;72.7;-23;-22.1;29.0;0.0;
15/06/2019 03:57:17;100;0;182.33;17;-19.24;-6.80;140.1;12.30;69724;5127.810;-12828.596;245;-300;-293.1;73;72.7;-22;-22.1;29.0;0.0;
15/06/2019 03:57:37;100;0;183.88;17;-18.79;-6.75;142.4;12.20;69712;5127.810;-12828.596;245;-300;-293.1;73;72.7;-22;-22.1;29.0;0.0;
15/06/2019 03:57:57;100;0;186.12;17;-18.67;-6.79;144.7;12.10;69692;5127.810;-12828.596;245;-300;-293.1;73;72.7;-21;-20.8;29.0;0.0;
15/06/2019 03:58:17;100;0;186.27;17;-18.62;-5.89;146.8;12.10;69680;5127.810;-12828.596;245;-300;-293.1;73;72.7;-22;-22.1;29.0;0.0;
15/06/2019 03:58:37;100;0;184.03;17;-18.62;-7.03;149.0;12.00;69667;5127.810;-12828.596;245;-300;-293.1;73;72.7;-23;-23.0;29.0;0.0;
15/06/2019 03:58:57;100;0;186.76;17;-18.48;-7.61;151.2;11.90;69650;5127.810;-12828.596;245;-300;-293.1;73;72.7;-22;-21.7;29.0;0.0;
15/06/2019 03:59:17;100;0;188.87;17;-18.62;-6.40;153.4;11.90;69650;5127.810;-12828.596;245;-300;-293.1;73;72.7;-21;-21.2;29.1;45.0;
15/06/2019 03:59:37;100;0;190.61;17;-18.61;-6.45;155.6;11.80;69623;5127.810;-12828.596;245;-300;-293.1;73;72.7;-21;-21.2;29.0;42.7;
15/06/2019 03:59:57;100;0;192.40;17;-18.68;-6.46;157.8;11.70;69616;5127.810;-12828.596;245;-300;-293.1;73;72.6;-20;-19.9;29.0;40.4;
15/06/2019 04:00:18;100;0;192.36;17;-18.73;-5.55;160.0;11.70;69614;5127.810;-12828.596;245;-300;-293.1;73;72.7;-21;-21.2;29.0;38.1;
15/06/2019 04:00:38;100;0;192.84;17;-18.69;-6.61;162.1;11.60;69602;5127.810;-12828.596;245;-300;-293.1;73;72.7;-21;-21.7;29.0;35.9;
15/06/2019 04:00:58;100;0;193.13;17;-18.59;-6.66;164.3;11.50;69583;5127.810;-12828.596;245;-300;-293.1;73;72.7;-21;-21.2;29.0;33.8;
15/06/2019 04:01:18;100;0;193.45;17;-18.55;-6.67;166.4;11.50;69583;5127.810;-12828.596;245;-300;-293.1;73;72.7;-21;-21.7;29.0;31.5;
15/06/2019 04:01:38;100;0;194.47;17;-18.48;-6.64;168.4;11.40;69573;5127.810;-12828.596;245;-300;-293.1;73;72.7;-21;-21.7;29.0;29.3;
15/06/2019 04:01:58;100;0;194.95;17;-18.55;-6.66;170.6;11.30;69563;5127.810;-12828.596;245;-300;-293.1;73;72.7;-21;-21.7;29.0;27.1;
15/06/2019 04:02:18;100;0;195.00;17;-18.58;-6.69;172.6;11.30;69558;5127.810;-12828.596;245;-300;-293.1;73;72.6;-20;-19.9;29.0;25.0;
15/06/2019 04:02:38;100;0;193.89;17;-18.46;-5.48;174.7;11.20;69550;5127.810;-12828.596;245;-300;-293.1;73;72.7;-22;-22.1;29.0;22.9;
15/06/2019 04:02:58;100;0;193.06;17;-18.55;-7.16;176.7;11.20;69560;5127.810;-12828.596;245;-300;-293.1;73;72.6;-22;-22.6;29.0;20.8;
15/06/2019 04:03:18;100;0;193.00;17;-18.69;-7.14;178.8;11.10;69545;5127.810;-12828.596;245;-300;-293.1;73;72.7;-22;-22.6;29.0;18.8;
15/06/2019 04:03:38;118;0;193.97;17;-18.43;-7.15;180.8;11.10;69540;5127.810;-12828.596;245;150;-277.2;57;56.8;0;0.9;29.0;16.7;
15/06/2019 04:03:48;118;0;149.91;17;2.90;4.10;181.5;11.10;69457;5127.810;-12828.596;245;150;-118.8;57;56.9;0;0.9;28.4;16.7;
15/06/2019 04:03:58;118;0;151.48;17;19.88;3.69;181.3;11.00;69246;5127.810;-12828.596;245;150;37.6;57;57.1;0;0.9;28.4;-1.0;
15/06/2019 04:04:08;118;0;151.63;17;23.96;3.81;180.5;11.00;68992;5127.810;-12828.596;245;150;154.5;57;57.1;0;0.9;28.4;-1.0;
15/06/2019 04:04:18;118;0;193.35;17;25.18;3.68;179.2;11.00;68813;5127.810;-12828.596;245;150;154.5;57;57.1;0;0.9;29.0;-1.0;
15/06/2019 04:04:28;118;0;193.82;17;27.15;3.93;177.7;11.00;68823;5127.810;-12828.596;245;150;154.5;57;56.9;0;0.9;29.0;-1.0;
15/06/2019 04:04:38;117;0;194.09;17;27.74;3.72;175.7;10.90;68821;5127.810;-12828.596;245;150;154.5;57;57.1;0;0.9;29.0;-1.0;
15/06/2019 04:04:58;117;0;195.11;17;28.12;3.76;171.5;10.90;68808;5127.810;-12828.596;245;150;154.5;57;57.1;20;20.3;29.0;-1.0;
15/06/2019 04:05:18;117;0;202.38;17;27.83;13.55;166.5;10.80;68803;5127.810;-12828.596;245;150;154.5;57;57.1;17;17.1;29.0;-1.0;
15/06/2019 04:05:38;117;0;206.62;17;28.02;11.28;162.1;10.80;68804;5127.810;-12828.596;245;150;156.4;57;56.9;16;15.8;29.0;-1.0;
15/06/2019 04:05:58;117;0;210.18;17;28.31;10.43;157.6;10.70;68798;5127.810;-12828.596;245;150;154.5;57;56.9;15;14.9;29.0;-1.0;
15/06/2019 04:06:18;117;0;210.35;17;28.07;10.41;153.0;10.70;68799;5127.810;-12828.596;245;150;154.5;57;57.1;16;15.8;29.0;-1.0;
15/06/2019 04:06:38;117;0;213.65;17;27.18;10.89;148.5;10.60;68808;5127.810;-12828.596;245;150;154.5;57;56.9;15;14.9;29.0;-1.0;
15/06/2019 04:06:58;117;0;209.35;17;27.33;9.92;144.2;10.60;68820;5127.810;-12828.596;245;150;156.4;57;56.9;19;19.0;29.0;-1.0;
15/06/2019 04:07:18;117;0;213.19;17;27.08;13.02;140.1;10.50;68827;5127.810;-12828.596;245;150;156.4;57;57.1;16;15.8;29.0;-1.0;
15/06/2019 04:07:38;117;0;217.74;17;26.62;10.85;135.8;10.50;68833;5127.810;-12828.596;245;150;156.4;57;56.9;14;13.5;29.0;-1.0;
15/06/2019 04:07:58;117;0;221.13;17;25.74;9.27;131.9;10.50;68848;5127.810;-12828.596;245;150;154.5;57;56.9;13;13.1;29.0;-1.0;
15/06/2019 04:08:18;117;0;224.27;17;25.54;9.71;128.0;10.40;68864;5127.810;-12828.596;245;150;156.4;57;57.1;13;13.5;29.0;-1.0;
15/06/2019 04:08:38;117;0;220.30;17;26.84;9.92;124.3;10.40;68866;5127.810;-12828.596;245;150;156.4;57;56.9;16;15.8;29.0;-1.0;
15/06/2019 04:08:58;117;0;229.68;17;25.12;11.34;120.1;10.40;68875;5127.810;-12828.596;245;150;156.4;57;56.9;16;16.2;29.0;-1.0;
15/06/2019 04:09:18;117;0;237.35;17;24.31;11.21;116.2;10.40;68885;5127.810;-12828.596;245;150;154.5;57;57.1;8;7.7;29.0;-1.0;
15/06/2019 04:09:38;117;0;240.12;17;24.33;6.66;112.6;10.30;68888;5127.810;-12828.596;245;150;156.4;57;56.9;8;7.2;29.0;-1.0;
15/06/2019 04:09:58;117;0;240.31;17;24.68;6.73;108.9;10.30;68896;5127.810;-12828.596;245;150;156.4;57;56.9;9;9.0;29.0;-1.0;
15/06/2019 04:10:18;117;0;244.09;17;24.76;8.01;105.2;10.30;68904;5127.810;-12828.596;245;150;154.5;57;56.9;7;7.2;29.0;-1.0;
15/06/2019 04:10:38;117;0;244.46;17;24.09;6.44;101.5;10.30;68910;5127.810;-12828.596;245;150;156.4;57;56.9;8;8.1;29.0;-1.0;
15/06/2019 04:10:58;117;0;243.36;17;24.18;7.35;98.2;10.30;68916;5127.810;-12828.596;245;150;156.4;57;56.9;8;9.0;29.0;-1.0;
15/06/2019 04:11:18;117;0;238.38;17;24.93;7.90;94.8;10.30;68912;5127.810;-12828.596;245;150;156.4;57;56.9;11;10.8;29.0;-1.0;
15/06/2019 04:11:38;117;0;237.94;17;23.27;8.94;91.4;10.30;68917;5127.810;-12828.596;245;150;154.5;57;56.9;10;9.5;29.0;-1.0;
15/06/2019 04:11:58;117;0;235.96;17;23.51;7.69;87.9;10.20;68919;5127.810;-12828.596;245;150;156.4;57;57.1;10;9.0;29.0;-1.0;
15/06/2019 04:12:18;117;0;241.34;17;22.54;7.68;84.6;10.20;68925;5127.810;-12828.596;245;150;156.4;57;56.9;6;5.4;28.9;-1.0;
15/06/2019 04:12:38;117;0;245.04;17;22.00;5.58;81.4;10.20;68943;5127.810;-12828.596;245;150;156.4;57;56.9;3;3.2;29.0;-1.0;
15/06/2019 04:12:58;117;0;245.58;17;21.93;4.34;78.6;10.20;68931;5127.810;-12828.596;245;150;156.4;57;56.9;4;4.1;29.0;-1.0;
15/06/2019 04:13:18;117;0;248.32;17;22.00;5.79;75.7;10.20;68944;5127.810;-12828.596;245;150;156.4;57;56.9;2;1.8;29.0;-1.0;
15/06/2019 04:13:38;117;0;249.94;17;21.27;3.56;73.0;10.20;68952;5127.810;-12828.596;245;150;156.4;57;56.9;2;0.9;29.0;-1.0;
15/06/2019 04:13:58;117;0;248.53;17;21.35;3.55;70.5;10.20;68959;5127.810;-12828.596;245;150;156.4;57;56.9;3;3.2;29.0;-1.0;
15/06/2019 04:14:18;117;0;252.16;17;21.07;4.88;67.9;10.20;68948;5127.810;-12828.596;245;150;154.5;57;57.1;0;-0.5;29.0;-1.0;
15/06/2019 04:14:38;117;0;251.06;17;21.04;2.74;65.2;10.20;68964;5127.810;-12828.596;245;150;156.4;57;57.1;1;0.9;29.0;-1.0;
15/06/2019 04:14:58;117;0;254.81;17;20.46;3.90;62.8;10.20;68967;5127.810;-12828.596;245;150;156.4;57;56.9;-1;-0.9;29.0;-1.0;
15/06/2019 04:15:18;117;0;254.96;17;20.54;2.47;60.4;10.20;68956;5127.810;-12828.596;245;150;156.4;57;56.9;0;0.5;29.0;-1.0;
15/06/2019 04:15:38;117;0;254.49;17;20.60;3.72;58.1;10.20;68970;5127.810;-12828.596;245;150;156.4;57;56.9;-1;-0.9;29.0;-1.0;
15/06/2019 04:15:58;117;0;253.81;17;20.64;2.49;55.7;10.20;68975;5127.810;-12828.596;245;150;156.4;57;56.9;-1;-1.4;29.0;-1.0;
15/06/2019 04:16:18;117;0;251.90;17;20.27;2.59;53.4;10.10;68969;5127.810;-12828.596;245;150;156.4;57;57.1;0;0.0;29.0;-1.0;
15/06/2019 04:16:38;117;0;251.84;17;20.05;3.34;51.1;10.10;68982;5127.810;-12828.596;245;150;156.4;57;56.9;-1;-0.9;29.0;-1.0;
15/06/2019 04:16:58;117;0;254.15;17;19.75;2.40;48.9;10.20;68987;5127.810;-12828.596;245;150;156.4;57;56.9;-4;-4.5;29.0;-1.0;
15/06/2019 04:17:18;117;0;251.33;17;19.56;0.88;46.8;10.10;68986;5127.810;-12828.596;245;150;156.4;57;57.1;-2;-1.8;29.0;-1.0;
15/06/2019 04:17:38;117;0;250.17;17;19.69;2.56;44.8;10.10;68994;5127.810;-12828.596;245;150;156.4;57;57.1;-3;-3.2;29.0;-1.0;
15/06/2019 04:17:58;117;0;253.03;17;19.30;1.28;42.6;10.10;69002;5127.810;-12828.596;245;150;156.4;57;57.1;-5;-5.0;29.0;-1.0;
15/06/2019 04:18:18;117;0;249.60;17;19.21;0.57;40.5;10.20;69020;5127.810;-12828.596;245;150;156.4;57;56.9;-3;-3.2;29.0;-1.0;
15/06/2019 04:18:38;117;0;247.47;17;18.95;1.98;38.4;10.20;69025;5127.810;-12828.596;245;150;156.4;57;56.9;-3;-2.3;29.0;-1.0;
15/06/2019 04:18:58;117;0;246.33;17;18.73;2.19;36.6;10.10;69018;5127.810;-12828.596;245;150;156.4;57;56.9;-4;-4.1;29.0;-1.0;
15/06/2019 04:19:18;117;0;247.09;17;18.70;0.99;34.6;10.20;69030;5127.810;-12828.596;245;150;156.4;57;56.9;-5;-5.0;29.0;-1.0;
15/06/2019 04:19:38;117;0;246.45;17;18.54;0.91;32.6;10.20;69048;5127.810;-12828.596;245;150;156.4;57;56.9;-6;-5.9;29.0;-1.0;
15/06/2019 04:19:58;117;0;243.00;17;18.44;0.22;30.7;10.20;69053;5127.810;-12828.596;245;150;156.4;57;56.9;-5;-5.0;29.0;-1.0;
15/06/2019 04:20:18;117;0;240.52;17;18.59;1.09;28.8;10.20;69075;5127.810;-12828.596;245;150;156.4;57;56.9;-4;-4.1;29.0;-1.0;
15/06/2019 04:20:38;117;0;235.93;17;18.05;1.65;26.8;10.20;69093;5127.810;-12828.596;245;150;156.4;57;56.9;-2;-1.8;29.0;-1.0;
15/06/2019 04:20:58;117;0;229.58;17;17.66;2.62;25.1;10.20;69111;5127.810;-12828.596;245;150;156.4;57;56.9;0;0.0;29.0;-1.0;
15/06/2019 04:21:18;117;0;231.81;17;16.66;3.47;23.2;10.20;69136;5127.810;-12828.596;245;150;156.4;57;56.9;-3;-3.2;29.0;-1.0;
15/06/2019 04:21:38;117;0;227.75;17;16.38;1.47;21.6;10.30;69167;5127.810;-12828.596;245;150;156.4;57;56.9;-3;-3.6;29.0;-1.0;
15/06/2019 04:21:58;117;0;224.61;17;16.58;1.50;20.0;10.30;69194;5127.810;-12828.596;245;150;156.4;57;57.1;-1;-0.9;29.0;-1.0;
15/06/2019 04:22:18;117;0;222.28;17;15.87;3.13;18.4;10.30;69240;5127.810;-12828.596;245;150;158.4;57;57.1;-1;0.0;29.0;-1.0;
15/06/2019 04:22:38;117;0;224.01;17;16.09;3.32;16.8;10.40;69280;5127.810;-12828.596;245;150;156.4;57;57.1;-3;-3.2;29.0;-1.0;
15/06/2019 04:22:58;117;0;223.90;17;15.17;1.71;15.3;10.40;69302;5127.810;-12828.596;245;150;154.5;57;56.9;-2;-1.8;29.0;-1.0;
15/06/2019 04:23:18;117;0;219.83;17;14.77;2.67;14.1;10.40;69325;5127.810;-12828.596;245;150;156.4;57;56.9;0;0.0;29.0;-1.0;
15/06/2019 04:23:38;117;0;218.64;17;14.50;3.54;12.9;10.50;69354;5127.810;-12828.596;245;150;156.4;57;57.1;0;0.5;29.0;-1.0;
15/06/2019 04:23:58;117;0;217.28;17;14.32;3.55;11.7;10.50;69366;5127.810;-12828.596;245;150;154.5;57;57.1;0;0.9;29.0;-1.0;
15/06/2019 04:24:18;117;0;219.98;17;14.26;3.57;10.5;10.50;69410;5127.810;-12828.596;245;150;156.4;57;56.9;-1;-1.4;29.0;-1.0;
