Timestamp;NavState;SecurityLevel;Heading;Declination;Pitch;Roll;Depth;Temperature;Pa;Lat;Lon;DesiredH;BallastCmd;BallastPos;LinCmd;LinPos;AngCmd;AngPos;Voltage;Altitude;
14/06/2019 08:06:10;117;0;225.28;17;23.74;2.98;8.5;10.70;69390;5137.095;-12820.401;210;200;207.9;54;53.9;-2;-1.8;29.2;-1.0;
14/06/2019 08:06:20;115;0;220.88;17;22.12;2.73;7.2;10.70;69404;5137.095;-12820.401;210;500;217.8;100;98.7;0;0.5;29.2;-1.0;
14/06/2019 08:06:30;115;0;195.22;17;-11.76;3.71;6.2;10.70;69335;5137.095;-12820.401;210;500;368.3;100;100.4;0;0.5;28.9;-1.0;
14/06/2019 08:06:40;115;0;194.98;17;-55.88;3.43;7.2;10.70;69125;5137.095;-12820.401;210;500;505.0;100;100.4;0;0.5;28.9;-1.0;
14/06/2019 08:06:50;115;0;267.42;17;-65.26;3.64;7.0;10.80;68917;5137.095;-12820.401;210;500;505.0;100;100.4;0;0.5;29.2;-1.0;
14/06/2019 08:07:00;115;0;261.76;17;-37.21;2.92;4.4;10.80;68939;5137.095;-12820.401;210;500;505.0;100;100.4;0;0.5;29.2;-1.0;
14/06/2019 08:07:10;116;0;329.30;17;-67.32;-10.68;1.2;10.80;68947;5137.095;-12820.401;210;500;506.9;100;100.4;0;0.5;29.2;-1.0;
14/06/2019 08:07:30;116;0;312.65;17;-16.77;5.18;1.2;10.90;68980;5136.673;-12820.629;210;500;506.9;100;100.3;0;0.5;29.2;-1.0;
14/06/2019 08:07:50;116;0;288.89;17;-25.27;2.52;1.2;11.00;68979;5136.667;-12820.630;210;500;508.9;100;100.3;0;0.5;29.2;-1.0;
14/06/2019 08:08:10;116;0;294.44;17;-5.95;2.96;1.1;11.10;69005;5136.667;-12820.629;210;500;508.9;100;100.3;0;0.5;29.2;-1.0;
14/06/2019 08:08:30;116;0;290.45;17;-7.06;0.18;1.1;11.20;69006;5136.663;-12820.630;211;500;508.9;100;100.3;0;0.5;29.2;-1.0;
14/06/2019 08:08:50;116;0;308.14;17;-5.55;1.70;1.1;11.30;69018;5136.651;-12820.636;211;500;508.9;100;100.3;0;0.5;29.2;-1.0;
14/06/2019 08:09:55;116;0;289.87;17;-9.49;5.83;1.1;11.80;69058;5136.650;-12820.635;211;500;508.9;100;100.3;0;0.5;29.1;-1.0;
14/06/2019 08:10:15;116;0;289.13;17;-6.89;3.84;1.1;11.90;69056;5136.647;-12820.637;211;500;508.9;100;100.3;0;0.5;29.0;-1.0;
14/06/2019 08:10:35;116;0;313.11;17;-4.68;9.35;1.1;12.10;69070;5136.632;-12820.638;211;500;508.9;100;100.3;0;0.5;29.2;-1.0;
14/06/2019 08:11:14;116;0;298.23;17;-10.77;-2.02;1.1;12.30;69078;5136.633;-12820.637;211;500;508.9;100;100.3;0;0.5;29.2;-1.0;
14/06/2019 08:11:34;116;0;298.50;17;-11.49;2.23;1.1;12.50;69083;5136.627;-12820.629;211;500;508.9;100;100.3;0;0.5;29.2;-1.0;
14/06/2019 08:11:54;116;0;309.37;17;-10.30;4.39;1.0;12.60;69102;5136.633;-12820.651;211;500;508.9;100;100.4;0;0.5;29.2;-1.0;
14/06/2019 08:12:14;116;0;307.35;17;-24.97;5.80;1.2;12.80;69100;5136.629;-12820.651;211;500;508.9;100;100.3;0;0.5;29.2;-1.0;
14/06/2019 08:12:34;116;0;269.66;17;-8.19;3.37;1.1;12.90;69114;5136.627;-12820.649;211;500;508.9;100;100.3;0;0.5;29.2;-1.0;
14/06/2019 08:12:54;116;0;285.24;17;-6.53;-2.80;1.1;13.10;69114;5136.616;-12820.660;211;500;508.9;100;100.3;0;0.5;29.0;-1.0;
14/06/2019 08:14:10;116;0;284.37;17;-14.80;7.78;1.1;13.50;69135;5136.615;-12820.660;211;500;508.9;100;100.4;0;0.5;29.1;-1.0;
14/06/2019 08:14:30;116;0;307.05;17;-5.99;0.91;1.0;13.60;69150;5136.612;-12820.660;211;500;508.9;100;100.3;0;0.5;29.2;-1.0;
14/06/2019 08:14:50;116;0;313.48;17;-23.33;4.76;1.2;13.70;69143;5136.608;-12820.661;211;500;508.9;100;100.3;0;0.5;29.2;-1.0;
14/06/2019 08:15:10;116;0;315.23;17;-10.88;1.36;1.1;13.80;69155;5136.603;-12820.662;211;500;508.9;100;100.3;0;0.5;29.2;-1.0;
14/06/2019 08:15:30;116;0;319.06;17;-6.54;8.00;1.1;13.90;69156;5136.601;-12820.664;211;500;508.9;100;100.4;0;0.5;29.2;-1.0;
14/06/2019 08:15:50;116;0;301.31;17;-8.78;6.48;1.1;13.90;69168;5136.600;-12820.664;211;500;510.9;100;100.3;0;0.5;29.2;-1.0;
14/06/2019 08:16:10;116;0;267.78;17;-7.62;6.15;1.1;14.00;69161;5136.597;-12820.668;211;500;508.9;100;100.3;0;0.5;29.2;-1.0;
14/06/2019 08:16:30;116;0;319.12;17;-17.31;5.91;1.2;14.10;69157;5136.595;-12820.669;211;500;508.9;100;100.3;0;0.5;29.2;-1.0;
14/06/2019 08:16:50;116;0;276.88;17;-15.09;5.77;1.1;14.10;69169;5136.592;-12820.669;211;500;508.9;100;100.3;0;0.5;29.2;-1.0;
14/06/2019 08:17:10;116;0;287.11;17;-5.42;2.45;1.1;14.20;69170;5136.584;-12820.676;211;500;510.9;100;100.3;0;0.5;29.2;-1.0;
14/06/2019 08:18:02;116;0;309.16;17;-19.00;1.52;1.2;14.30;69174;5136.584;-12820.676;211;500;508.9;100;100.3;0;0.5;29.2;-1.0;
14/06/2019 08:18:22;116;0;278.60;17;-20.10;3.22;1.1;14.40;69190;5136.581;-12820.680;211;500;508.9;100;100.3;0;0.5;29.1;-1.0;
14/06/2019 08:18:42;116;0;281.85;17;-6.10;0.03;1.1;14.40;69198;5136.577;-12820.678;211;500;508.9;100;100.3;0;0.5;29.1;-1.0;
14/06/2019 08:19:02;116;0;305.75;17;-7.60;7.13;1.1;14.50;69187;5136.575;-12820.680;211;500;510.9;100;100.3;0;0.5;29.1;-1.0;
14/06/2019 08:19:22;116;0;300.23;17;-7.35;0.12;1.2;14.50;69198;5136.573;-12820.681;211;500;508.9;100;100.3;0;0.5;29.2;-1.0;
14/06/2019 08:19:42;116;0;302.09;17;-13.01;0.85;1.1;14.50;69204;5136.570;-12820.682;211;500;510.9;100;100.1;0;0.5;29.2;-1.0;
14/06/2019 08:20:02;110;0;318.03;17;-6.98;5.78;1.1;14.60;69201;5136.570;-12820.682;211;-250;409.9;100;100.3;0;0.5;29.2;-1.0;
14/06/2019 08:20:12;110;0;308.88;17;-5.69;0.75;1.1;14.60;69440;5136.570;-12820.682;211;-250;269.3;100;100.3;0;0.5;29.1;-1.0;
14/06/2019 08:20:22;110;0;313.06;17;-6.47;5.40;1.1;14.60;69621;5136.570;-12820.682;211;-250;132.7;100;100.3;0;0.5;29.1;-1.0;
14/06/2019 08:20:32;110;0;315.03;17;-18.44;-1.79;1.2;14.60;69853;5136.570;-12820.682;211;-250;-17.8;100;100.4;0;0.5;29.1;-1.0;
14/06/2019 08:20:42;110;0;306.21;17;-34.71;0.18;1.8;14.60;70100;5136.570;-12820.682;211;-250;-198.0;98;98.1;0;0.5;29.1;-1.0;
14/06/2019 08:20:52;110;0;317.86;17;-59.20;7.38;3.5;14.60;70395;5136.570;-12820.682;211;-250;-249.5;77;77.0;0;0.5;29.1;-1.0;
14/06/2019 08:21:02;110;0;302.30;17;-48.87;4.06;6.7;14.60;70456;5136.570;-12820.682;211;-250;-251.5;72;72.0;0;0.5;29.2;-1.0;
14/06/2019 08:21:12;100;0;287.49;17;-35.59;3.96;9.5;14.60;70446;5136.570;-12820.682;211;-250;-249.5;71;70.9;0;0.5;29.2;-1.0;
14/06/2019 08:21:32;100;0;260.24;17;-23.15;3.74;14.0;14.60;70414;5136.570;-12820.682;211;-250;-245.5;71;70.8;30;29.8;29.2;0.0;
14/06/2019 08:21:52;100;0;242.54;17;-19.45;17.67;17.4;14.50;70418;5136.570;-12820.682;211;-250;-243.6;71;70.6;15;14.9;29.2;0.0;
14/06/2019 08:22:12;100;0;230.20;17;-20.97;9.75;20.3;14.50;70404;5136.570;-12820.682;211;-250;-245.5;71;70.6;8;7.7;29.2;0.0;
14/06/2019 08:22:32;100;0;219.94;17;-20.38;6.38;23.4;14.40;70376;5136.570;-12820.682;211;-250;-243.6;71;70.6;4;4.1;29.2;0.0;
14/06/2019 08:22:52;100;0;217.03;17;-20.98;4.65;26.3;14.40;70338;5136.570;-12820.682;211;-250;-243.6;71;70.6;7;7.2;29.2;0.0;
14/06/2019 08:23:12;100;0;205.26;17;-19.49;7.10;29.2;14.30;70306;5136.570;-12820.682;211;-250;-243.6;71;70.6;2;1.8;29.1;0.0;
14/06/2019 08:23:32;100;0;197.43;17;-19.98;3.69;31.7;14.30;70249;5136.570;-12820.682;211;-250;-241.6;71;70.6;1;0.9;29.2;0.0;
14/06/2019 08:23:52;100;0;193.14;17;-19.64;3.19;34.4;14.20;70206;5136.570;-12820.682;211;-250;-245.5;71;70.6;1;0.0;29.2;0.0;
14/06/2019 08:24:12;100;0;192.65;17;-19.64;3.27;37.1;14.10;70162;5136.570;-12820.682;211;-250;-243.6;71;70.6;1;0.0;29.2;0.0;
14/06/2019 08:24:32;100;0;189.13;17;-20.00;3.17;39.7;14.00;70136;5136.570;-12820.682;211;-250;-241.6;71;70.6;3;3.2;29.2;0.0;
14/06/2019 08:24:52;100;0;185.97;17;-20.32;4.93;42.5;13.90;70114;5136.570;-12820.682;211;-250;-241.6;71;70.6;2;1.8;29.2;0.0;
14/06/2019 08:25:12;100;0;181.06;17;-19.63;3.73;45.2;13.90;70086;5136.570;-12820.682;211;-250;-243.6;71;70.6;0;0.0;29.2;0.0;
14/06/2019 08:25:32;100;0;175.77;17;-19.09;3.04;47.8;13.80;70073;5136.570;-12820.682;211;-250;-241.6;71;70.6;-1;-0.9;29.2;0.0;
14/06/2019 08:25:52;100;0;172.93;17;-19.47;2.55;50.5;13.70;70051;5136.570;-12820.682;211;-250;-243.6;71;70.6;-2;-1.8;29.1;0.0;
14/06/2019 08:26:12;100;0;173.47;17;-19.78;2.60;53.0;13.60;70038;5136.570;-12820.682;211;-250;-241.6;71;70.6;0;0.0;29.1;0.0;
14/06/2019 08:26:32;100;0;172.81;17;-19.25;3.70;55.6;13.60;70012;5136.570;-12820.682;211;-250;-243.6;71;70.6;-1;-0.9;29.2;0.0;
14/06/2019 08:26:52;100;0;163.03;17;-19.08;2.60;58.0;13.50;69990;5136.570;-12820.682;211;-250;-241.6;71;70.6;-6;-5.9;29.1;0.0;
14/06/2019 08:27:12;100;0;154.05;17;-18.97;0.50;60.4;13.40;69977;5136.570;-12820.682;211;-250;-243.6;71;70.6;-10;-9.9;29.2;0.0;
14/06/2019 08:27:32;100;0;147.96;17;-19.32;-1.55;62.7;13.40;69969;5136.570;-12820.682;211;-250;-243.6;71;70.6;-13;-13.5;29.1;0.0;
14/06/2019 08:27:52;100;0;146.94;17;-19.45;-3.24;65.0;13.30;69948;5136.570;-12820.682;211;-250;-241.6;71;70.6;-13;-14.0;29.2;0.0;
14/06/2019 08:28:12;100;0;146.78;17;-18.64;-3.27;67.5;13.20;69938;5136.570;-12820.682;211;-250;-245.5;71;70.6;-13;-14.0;29.2;0.0;
14/06/2019 08:28:32;100;0;151.39;17;-18.79;-3.25;69.9;13.10;69925;5136.570;-12820.682;211;-250;-241.6;71;70.6;-10;-9.9;29.2;0.0;
14/06/2019 08:28:52;100;0;143.33;17;-18.64;-0.90;72.3;13.10;69926;5136.570;-12820.682;211;-250;-243.6;71;70.6;-18;-18.5;29.2;0.0;
14/06/2019 08:29:12;100;0;136.24;17;-19.05;-5.35;74.7;13.00;69916;5136.570;-12820.682;211;-250;-241.6;71;70.6;-23;-23.0;29.2;0.0;
14/06/2019 08:29:32;100;0;137.20;17;-18.67;-7.55;77.0;13.00;69912;5136.570;-12820.682;211;-250;-241.6;71;70.6;-22;-22.1;29.2;0.0;
14/06/2019 08:29:52;100;0;139.97;17;-18.37;-6.68;79.3;12.90;69893;5136.570;-12820.682;211;-250;-241.6;71;70.6;-23;-23.5;29.1;0.0;
14/06/2019 08:30:12;100;0;143.15;17;-18.14;-7.76;81.6;12.90;69891;5136.570;-12820.682;211;-250;-241.6;71;70.6;-22;-22.1;29.2;0.0;
14/06/2019 08:30:32;100;0;142.80;17;-17.76;-6.51;83.7;12.80;69874;5136.570;-12820.682;211;-250;-241.6;71;70.6;-24;-23.9;29.2;0.0;
14/06/2019 08:30:52;100;0;148.28;17;-17.23;-8.02;85.8;12.70;69864;5136.570;-12820.682;211;-250;-241.6;71;70.6;-21;-21.2;29.2;0.0;
14/06/2019 08:31:12;100;0;150.05;17;-16.96;-6.15;87.9;12.70;69861;5136.570;-12820.682;211;-250;-241.6;71;70.6;-21;-20.3;29.2;0.0;
14/06/2019 08:31:32;100;0;149.64;17;-16.52;-6.17;89.9;12.60;69846;5136.570;-12820.682;211;-250;-241.6;71;70.5;-23;-23.0;29.2;0.0;
14/06/2019 08:31:52;100;0;150.98;17;-16.71;-7.61;91.8;12.60;69834;5136.570;-12820.682;211;-250;-241.6;71;70.6;-22;-22.1;29.2;0.0;
14/06/2019 08:32:12;100;0;144.98;17;-16.65;-6.68;93.6;12.50;69830;5136.570;-12820.682;211;-250;-241.6;71;70.6;-26;-26.6;29.2;0.0;
14/06/2019 08:32:32;100;0;144.18;17;-16.62;-9.23;95.3;12.50;69821;5136.570;-12820.682;211;-250;-241.6;71;70.6;-25;-24.8;29.2;0.0;
14/06/2019 08:32:52;100;0;148.37;17;-16.18;-8.04;97.2;12.40;69807;5136.570;-12820.682;211;-250;-239.6;71;70.6;-22;-21.7;29.1;0.0;
14/06/2019 08:33:12;100;0;150.45;17;-15.86;-6.53;98.9;12.30;69797;5136.570;-12820.682;211;-250;-241.6;71;70.6;-22;-21.2;29.1;0.0;
14/06/2019 08:33:32;100;0;152.67;17;-15.74;-6.60;100.6;12.30;69797;5136.570;-12820.682;211;-250;-241.6;71;70.6;-21;-21.2;29.2;0.0;
14/06/2019 08:33:52;100;0;152.41;17;-15.90;-6.61;102.2;12.20;69781;5136.570;-12820.682;211;-250;-239.6;71;70.6;-22;-22.6;29.2;0.0;
14/06/2019 08:34:12;100;0;155.63;17;-15.70;-7.48;103.8;12.20;69773;5136.570;-12820.682;211;-250;-239.6;71;70.6;-21;-21.2;29.2;0.0;
14/06/2019 08:34:33;100;0;155.95;17;-15.48;-6.19;105.5;12.10;69773;5136.570;-12820.682;211;-250;-241.6;71;70.5;-21;-20.3;29.2;0.0;
14/06/2019 08:34:53;100;0;156.92;17;-15.21;-6.19;107.0;12.10;69766;5136.570;-12820.682;211;-250;-241.6;71;70.6;-21;-20.3;29.2;0.0;
14/06/2019 08:35:13;100;0;159.07;17;-15.08;-6.24;108.5;12.00;69745;5136.570;-12820.682;211;-250;-239.6;71;70.6;-20;-19.9;29.1;0.0;
14/06/2019 08:35:33;100;0;159.80;17;-15.24;-5.58;109.8;12.00;69742;5136.570;-12820.682;211;-250;-241.6;71;70.6;-21;-21.2;29.2;0.0;
14/06/2019 08:35:53;100;0;160.46;17;-15.27;-6.79;111.3;11.90;69733;5136.570;-12820.682;211;-250;-239.6;71;70.6;-20;-19.9;29.2;0.0;
14/06/2019 08:36:13;100;0;159.61;17;-15.25;-5.46;112.7;11.90;69731;5136.570;-12820.682;211;-250;-241.6;71;70.5;-21;-21.2;29.2;0.0;
14/06/2019 08:36:33;100;0;161.92;17;-14.96;-6.69;114.1;11.80;69714;5136.570;-12820.682;211;-250;-239.6;71;70.5;-20;-19.4;29.2;0.0;
14/06/2019 08:36:53;100;0;164.41;17;-14.75;-5.46;115.6;11.80;69707;5136.570;-12820.682;211;-250;-239.6;71;70.6;-19;-19.0;29.2;0.0;
14/06/2019 08:37:13;100;0;163.86;17;-14.92;-5.45;117.0;11.70;69707;5136.570;-12820.682;211;-250;-239.6;71;70.5;-20;-20.3;29.2;0.0;
14/06/2019 08:37:33;100;0;164.01;17;-14.90;-6.23;118.4;11.70;69713;5136.570;-12820.682;211;-250;-239.6;71;70.6;-20;-20.3;29.2;43.6;
14/06/2019 08:37:53;100;0;164.56;17;-14.92;-6.25;119.7;11.60;69700;5136.570;-12820.682;211;-250;-239.6;71;70.6;-20;-20.3;29.2;42.2;
14/06/2019 08:38:13;100;0;166.37;17;-14.92;-6.28;121.2;11.60;69694;5136.570;-12820.682;211;-250;-241.6;71;70.5;-19;-18.5;29.2;40.6;
14/06/2019 08:38:33;100;0;167.96;17;-14.70;-5.14;122.7;11.50;69682;5136.570;-12820.682;211;-250;-239.6;71;70.6;-19;-18.1;29.2;39.3;
14/06/2019 08:38:53;100;0;168.44;17;-13.54;-5.04;124.1;11.40;69675;5136.570;-12820.682;211;-250;-239.6;71;70.6;-19;-18.1;29.2;38.0;
14/06/2019 08:39:13;100;0;166.86;17;-13.72;-4.99;125.5;11.40;69657;5136.570;-12820.682;211;-250;-241.6;71;70.6;-20;-19.9;29.2;36.4;
14/06/2019 08:39:33;100;0;167.57;17;-13.57;-6.19;126.9;11.40;69638;5136.570;-12820.682;211;-250;-239.6;71;70.6;-19;-18.5;29.2;34.9;
14/06/2019 08:39:53;100;0;167.97;17;-13.70;-4.99;128.1;11.30;69644;5136.570;-12820.682;211;-250;-239.6;71;70.6;-20;-19.9;29.2;33.6;
14/06/2019 08:40:13;100;0;168.18;17;-13.74;-6.19;129.4;11.30;69639;5136.570;-12820.682;211;-250;-237.6;71;70.6;-19;-19.0;29.2;32.2;
14/06/2019 08:40:33;100;0;168.38;17;-13.79;-5.20;130.8;11.20;69619;5136.570;-12820.682;211;-250;-239.6;71;70.5;-19;-18.5;29.2;30.9;
14/06/2019 08:40:53;100;0;167.99;17;-13.91;-5.20;132.1;11.20;69630;5136.570;-12820.682;211;-250;-239.6;71;70.6;-20;-20.3;29.2;29.6;
14/06/2019 08:41:13;100;0;168.41;17;-14.00;-6.40;133.4;11.10;69612;5136.570;-12820.682;211;-250;-239.6;71;70.6;-19;-18.5;29.1;28.2;
14/06/2019 08:41:33;100;0;167.58;17;-13.94;-5.13;134.6;11.10;69599;5136.570;-12820.682;211;-250;-241.6;71;70.6;-20;-19.9;29.2;26.8;
14/06/2019 08:41:53;100;0;166.61;17;-13.99;-6.26;135.9;11.00;69599;5136.570;-12820.682;211;-250;-241.6;71;70.6;-20;-20.3;29.2;25.6;
14/06/2019 08:42:13;100;0;166.29;17;-13.97;-6.26;137.1;11.00;69590;5136.570;-12820.682;211;-250;-239.6;71;70.6;-20;-20.3;29.2;24.4;
14/06/2019 08:42:33;100;0;165.02;17;-13.81;-6.34;138.3;11.00;69581;5136.570;-12820.682;211;-250;-239.6;71;70.6;-21;-21.2;29.2;23.1;
14/06/2019 08:42:53;100;0;165.63;17;-13.96;-6.82;139.5;10.90;69589;5136.570;-12820.682;211;-250;-239.6;71;70.5;-20;-19.9;29.2;21.9;
14/06/2019 08:43:13;100;0;165.74;17;-13.94;-5.57;140.6;10.90;69584;5136.570;-12820.682;211;-250;-237.6;71;70.5;-20;-19.0;29.2;20.6;
14/06/2019 08:43:33;100;0;163.82;17;-13.90;-5.58;141.8;10.80;69581;5136.570;-12820.682;211;-250;-239.6;71;70.6;-21;-21.7;29.2;19.5;
14/06/2019 08:43:53;118;0;163.88;17;-14.00;-7.02;143.1;10.80;69575;5136.570;-12820.682;211;200;-223.8;54;53.7;0;0.5;29.2;18.2;
14/06/2019 08:44:03;118;0;134.05;17;11.94;3.97;143.6;10.80;69483;5136.570;-12820.682;211;200;-65.3;54;54.1;0;0.5;28.7;18.2;
14/06/2019 08:44:13;118;0;134.90;17;30.01;3.41;143.1;10.80;69276;5136.570;-12820.682;211;200;87.1;54;54.1;0;0.5;28.7;-1.0;
14/06/2019 08:44:23;118;0;136.80;17;30.41;3.55;142.1;10.80;69030;5136.570;-12820.682;211;200;205.9;54;54.1;0;0.5;28.7;-1.0;
14/06/2019 08:44:33;118;0;173.42;17;31.65;3.60;140.4;10.70;68837;5136.570;-12820.682;211;200;205.9;54;54.1;0;0.5;29.2;-1.0;
14/06/2019 08:44:43;118;0;176.14;17;33.63;3.55;138.3;10.70;68849;5136.570;-12820.682;211;200;207.9;54;54.2;0;0.5;29.2;-1.0;
14/06/2019 08:44:53;117;0;178.43;17;34.36;3.58;135.6;10.70;68854;5136.570;-12820.682;211;200;205.9;54;54.2;0;0.5;29.2;-1.0;
14/06/2019 08:45:13;117;0;180.49;17;34.48;3.84;129.6;10.70;68855;5136.570;-12820.682;211;200;205.9;54;54.1;10;9.9;29.2;-1.0;
14/06/2019 08:45:33;117;0;182.35;17;33.04;8.45;123.1;10.70;68848;5136.570;-12820.682;211;200;207.9;54;54.1;13;13.1;29.2;-1.0;
14/06/2019 08:45:53;117;0;184.98;17;33.54;10.59;117.4;10.60;68855;5136.570;-12820.682;211;200;205.9;54;54.1;14;14.0;29.2;-1.0;
14/06/2019 08:46:13;117;0;185.36;17;32.91;10.80;111.8;10.60;68866;5136.570;-12820.682;211;200;205.9;54;54.1;14;14.4;29.2;-1.0;
14/06/2019 08:46:33;117;0;187.38;17;32.81;10.64;106.1;10.50;68884;5136.570;-12820.682;211;200;205.9;54;54.1;14;14.4;29.1;-1.0;
14/06/2019 08:46:53;117;0;189.86;17;32.68;10.77;100.5;10.50;68884;5136.570;-12820.682;211;200;207.9;54;54.1;14;14.4;29.2;-1.0;
14/06/2019 08:47:13;117;0;188.51;17;32.03;10.95;95.0;10.50;68893;5136.570;-12820.682;211;200;205.9;54;54.1;15;15.3;29.2;-1.0;
14/06/2019 08:47:33;117;0;193.50;17;31.42;11.30;90.0;10.50;68908;5136.570;-12820.682;211;200;205.9;54;54.1;15;15.8;29.1;-1.0;
14/06/2019 08:47:53;117;0;192.05;17;30.72;11.12;85.2;10.40;68913;5136.570;-12820.682;211;200;207.9;54;54.1;15;15.8;29.2;-1.0;
14/06/2019 08:48:13;117;0;187.11;17;29.96;11.16;80.7;10.40;68925;5136.570;-12820.682;211;200;205.9;54;54.1;17;17.1;29.2;-1.0;
14/06/2019 08:48:33;117;0;190.01;17;29.34;12.01;76.1;10.40;68934;5136.570;-12820.682;211;200;205.9;54;54.1;15;14.9;29.2;-1.0;
14/06/2019 08:48:53;117;0;199.94;17;28.26;10.64;71.8;10.40;68954;5136.570;-12820.682;211;200;207.9;54;54.1;15;14.4;29.1;-1.0;
14/06/2019 08:49:13;117;0;203.34;17;28.72;10.44;67.8;10.40;68953;5136.570;-12820.682;211;200;207.9;54;54.1;9;9.0;29.2;-1.0;
14/06/2019 08:49:33;117;0;200.64;17;28.19;7.63;63.7;10.40;68958;5136.570;-12820.682;211;200;205.9;54;54.1;12;12.2;29.2;-1.0;
14/06/2019 08:49:53;117;0;204.03;17;28.13;9.89;59.6;10.40;68955;5136.570;-12820.682;211;200;207.9;54;54.2;10;9.9;29.2;-1.0;
14/06/2019 08:50:13;117;0;211.55;17;27.34;7.96;55.6;10.40;68972;5136.570;-12820.682;211;200;207.9;54;54.1;6;5.9;29.2;-1.0;
14/06/2019 08:50:33;117;0;209.38;17;27.56;6.03;51.8;10.40;68977;5136.570;-12820.682;211;200;207.9;54;54.1;8;8.1;29.2;-1.0;
14/06/2019 08:50:53;117;0;205.23;17;27.40;7.81;47.9;10.30;68982;5136.570;-12820.682;211;200;207.9;54;54.1;10;9.9;29.2;-1.0;
14/06/2019 08:51:13;117;0;207.16;17;26.70;8.44;44.1;10.30;68990;5136.570;-12820.682;211;200;207.9;54;54.1;8;8.1;29.1;-1.0;
14/06/2019 08:51:33;117;0;206.38;17;26.52;7.22;40.6;10.30;69016;5136.570;-12820.682;211;200;207.9;54;54.1;9;9.0;29.2;-1.0;
14/06/2019 08:51:53;117;0;205.15;17;26.60;8.34;37.1;10.40;69025;5136.570;-12820.682;211;200;205.9;54;54.1;9;9.9;29.2;-1.0;
14/06/2019 08:52:13;117;0;202.38;17;26.56;8.38;33.6;10.40;69042;5136.570;-12820.682;211;200;205.9;54;54.1;10;9.9;29.2;-1.0;
14/06/2019 08:52:33;117;0;203.86;17;25.32;8.23;30.2;10.40;69063;5136.570;-12820.682;211;200;205.9;54;54.2;8;8.1;29.2;-1.0;
14/06/2019 08:52:53;117;0;208.88;17;25.31;7.29;27.0;10.40;69096;5136.570;-12820.682;211;200;207.9;54;54.1;4;4.1;29.2;-1.0;
14/06/2019 08:53:13;117;0;209.28;17;24.57;5.10;23.9;10.40;69133;5136.570;-12820.682;211;200;207.9;54;54.1;4;3.6;29.1;-1.0;
14/06/2019 08:53:33;117;0;206.13;17;24.63;5.42;21.0;10.40;69179;5136.570;-12820.682;211;200;207.9;54;54.1;6;6.3;29.1;-1.0;
14/06/2019 08:53:53;117;0;212.43;17;23.11;6.90;18.0;10.40;69213;5136.570;-12820.682;211;200;207.9;54;54.1;2;1.8;29.2;-1.0;
14/06/2019 08:54:13;117;0;214.07;17;23.93;3.99;15.3;10.50;69260;5136.570;-12820.682;211;200;205.9;54;54.2;1;0.9;29.2;-1.0;
14/06/2019 08:54:33;117;0;213.24;17;24.45;3.54;12.4;10.50;69296;5136.570;-12820.682;211;200;207.9;54;54.1;2;1.8;29.2;-1.0;
