Timestamp;NavState;SecurityLevel;Heading;Declination;Pitch;Roll;Depth;Temperature;Pa;Lat;Lon;DesiredH;BallastCmd;BallastPos;LinCmd;LinPos;AngCmd;AngPos;Voltage;Altitude;
14/06/2019 11:40:41;117;0;209.37;17;21.63;3.60;8.2;10.40;69413;5134.758;-12822.152;212;150;158.4;54;54.1;-2;-2.3;29.1;-1.0;
14/06/2019 11:40:51;115;0;200.58;17;20.79;1.61;7.2;10.40;69427;5134.758;-12822.152;212;500;170.3;100;99.6;0;0.5;29.2;-1.0;
14/06/2019 11:41:01;115;0;167.23;17;-22.17;4.43;6.5;10.40;69342;5134.758;-12822.152;212;500;318.8;100;100.1;0;0.5;28.9;-1.0;
14/06/2019 11:41:11;115;0;164.16;17;-65.62;2.59;7.3;10.50;69150;5134.758;-12822.152;212;500;469.3;100;100.1;0;0.5;28.9;-1.0;
14/06/2019 11:41:21;115;0;195.17;17;-60.34;0.53;6.6;10.50;68912;5134.758;-12822.152;212;500;505.0;100;100.1;0;0.5;28.8;-1.0;
14/06/2019 11:41:31;115;0;265.48;17;-41.77;1.10;3.7;10.50;68883;5134.758;-12822.152;212;500;506.9;100;100.0;0;0.5;29.2;-1.0;
14/06/2019 11:41:41;116;0;327.07;17;-38.05;6.99;1.3;10.60;68899;5134.758;-12822.152;212;500;506.9;100;100.0;0;0.5;29.1;-1.0;
14/06/2019 11:42:01;116;0;309.43;17;-13.16;7.49;1.1;10.60;68917;5134.362;-12822.418;212;500;508.9;100;99.9;0;0.5;29.1;-1.0;
14/06/2019 11:42:22;116;0;306.33;17;-4.84;1.58;1.2;10.70;68929;5134.362;-12822.419;212;500;508.9;100;99.9;0;0.5;29.1;-1.0;
14/06/2019 11:42:42;116;0;307.91;17;-11.41;3.94;1.1;10.80;68939;5134.360;-12822.421;212;500;508.9;100;99.9;0;0.5;29.1;-1.0;
14/06/2019 11:43:02;116;0;320.38;17;-7.22;6.02;1.2;10.90;68957;5134.336;-12822.497;212;500;510.9;100;99.9;0;0.5;29.1;-1.0;
14/06/2019 11:47:45;116;0;292.80;17;-9.13;8.62;1.1;12.10;69050;5134.336;-12822.497;212;500;508.9;100;99.9;0;0.5;29.1;-1.0;
14/06/2019 11:48:05;116;0;327.05;17;-17.13;1.48;1.2;12.10;69058;5134.334;-12822.510;212;500;508.9;100;99.9;0;0.5;29.1;-1.0;
14/06/2019 11:48:27;116;0;309.00;17;-30.17;4.54;1.2;12.20;69065;5134.333;-12822.510;212;500;508.9;100;99.9;0;0.5;29.1;-1.0;
14/06/2019 11:48:47;116;0;309.52;17;-25.93;2.50;1.3;12.30;69067;5134.331;-12822.516;212;500;508.9;100;99.9;0;0.5;29.2;-1.0;
14/06/2019 11:49:07;116;0;328.18;17;-29.58;10.63;1.3;12.40;69075;5134.321;-12822.543;212;500;506.9;100;99.9;0;0.5;29.2;-1.0;
14/06/2019 11:50:25;116;0;341.08;17;-14.01;0.06;1.2;12.80;69099;5134.321;-12822.544;212;500;508.9;100;100.0;0;0.5;29.1;-1.0;
14/06/2019 11:50:45;116;0;325.20;17;-8.13;1.66;1.1;13.00;69099;5134.305;-12822.535;212;500;508.9;100;99.9;0;0.5;29.1;-1.0;
14/06/2019 11:51:31;116;0;311.81;17;-4.60;4.25;1.1;13.20;69107;5134.303;-12822.532;212;500;508.9;100;99.9;0;0.5;29.1;-1.0;
14/06/2019 11:51:51;116;0;306.22;17;-10.46;0.10;1.1;13.30;69107;5134.303;-12822.532;212;500;508.9;100;100.0;0;0.5;29.1;-1.0;
14/06/2019 11:52:46;116;0;317.90;17;-9.43;1.45;1.1;13.70;69134;5134.303;-12822.532;212;500;508.9;100;100.0;0;0.5;29.1;-1.0;
14/06/2019 11:53:06;116;0;316.56;17;-5.79;4.22;1.1;13.90;69129;5134.267;-12822.581;212;500;508.9;100;99.9;0;0.5;29.1;-1.0;
14/06/2019 11:54:41;116;0;321.25;17;-8.47;-0.35;1.1;14.40;69144;5134.267;-12822.581;212;500;508.9;100;99.9;0;0.5;29.1;-1.0;
14/06/2019 11:55:01;116;0;334.67;17;-5.57;5.78;1.1;14.50;69141;5134.266;-12822.581;212;500;508.9;100;99.9;0;0.9;29.1;-1.0;
14/06/2019 11:55:21;116;0;323.96;17;-5.91;7.62;1.1;14.50;69148;5134.266;-12822.581;212;500;510.9;100;99.9;0;0.5;29.1;-1.0;
14/06/2019 11:55:41;116;0;294.87;17;-6.63;6.28;1.1;14.60;69151;5134.266;-12822.582;212;500;508.9;100;99.9;0;0.5;29.1;-1.0;
14/06/2019 11:56:01;116;0;314.67;17;-12.93;3.84;1.1;14.60;69146;5134.266;-12822.582;212;500;508.9;100;99.9;0;0.5;29.2;-1.0;
14/06/2019 11:56:21;116;0;313.96;17;-28.09;4.04;1.2;14.70;69155;5134.266;-12822.583;212;500;508.9;100;99.9;0;0.5;29.2;-1.0;
14/06/2019 11:56:41;116;0;329.15;17;-11.12;1.04;1.1;14.70;69165;5134.266;-12822.584;212;500;508.9;100;99.9;0;0.5;29.1;-1.0;
14/06/2019 11:57:01;110;0;303.87;17;-11.89;8.25;1.1;14.70;69160;5134.266;-12822.584;212;-250;451.5;100;99.9;0;0.5;29.1;-1.0;
14/06/2019 11:57:11;110;0;296.85;17;-7.54;9.85;1.1;14.70;69338;5134.266;-12822.584;212;-250;310.9;100;99.9;0;0.5;29.1;-1.0;
14/06/2019 11:57:21;110;0;307.54;17;-6.92;3.40;1.1;14.70;69515;5134.266;-12822.584;212;-250;172.3;100;99.9;0;0.5;29.1;-1.0;
14/06/2019 11:57:31;110;0;325.04;17;-12.06;6.15;1.1;14.70;69739;5134.266;-12822.584;212;-250;35.6;100;99.9;0;0.5;29.1;-1.0;
14/06/2019 11:57:41;110;0;325.15;17;-11.77;-0.15;1.1;14.70;69959;5134.266;-12822.584;212;-250;-110.9;100;100.0;0;0.5;29.0;-1.0;
14/06/2019 11:57:51;110;0;333.15;17;-41.84;-0.44;1.9;14.70;70211;5134.266;-12822.584;212;-250;-249.5;87;86.9;0;0.5;29.0;-1.0;
14/06/2019 11:58:01;110;0;330.28;17;-47.66;2.08;4.4;14.70;70418;5134.266;-12822.584;212;-250;-251.5;72;72.0;0;0.5;29.2;-1.0;
14/06/2019 11:58:11;100;0;326.48;17;-38.07;3.82;7.5;14.70;70415;5134.266;-12822.584;212;-250;-249.5;71;70.9;0;0.5;29.1;-1.0;
14/06/2019 11:58:31;100;0;313.72;17;-26.08;4.41;11.9;14.70;70405;5134.266;-12822.584;212;-250;-247.5;71;70.9;45;45.1;29.1;0.0;
14/06/2019 11:58:51;100;0;298.49;17;-19.63;25.39;15.6;14.70;70370;5134.266;-12822.584;212;-250;-247.5;71;70.9;43;42.4;29.1;0.0;
14/06/2019 11:59:11;100;0;279.80;17;-18.94;23.39;18.4;14.60;70331;5134.266;-12822.584;212;-250;-245.5;71;70.8;29;28.9;29.1;0.0;
14/06/2019 11:59:31;100;0;263.16;17;-20.54;16.88;21.3;14.60;70302;5134.266;-12822.584;212;-250;-245.5;71;70.8;22;22.1;29.1;0.0;
14/06/2019 11:59:51;100;0;249.75;17;-19.98;13.24;24.1;14.50;70282;5134.266;-12822.584;212;-250;-245.5;71;70.9;17;16.7;29.1;0.0;
14/06/2019 12:00:11;100;0;236.81;17;-20.30;10.75;26.9;14.40;70263;5134.266;-12822.584;212;-250;-245.5;71;70.8;14;14.0;29.1;0.0;
14/06/2019 12:00:31;100;0;223.91;17;-20.74;9.28;29.5;14.30;70224;5134.266;-12822.584;212;-250;-243.6;71;70.8;11;10.8;29.1;0.0;
14/06/2019 12:00:51;100;0;211.64;17;-19.71;7.80;32.2;14.30;70180;5134.266;-12822.584;212;-250;-245.5;71;70.8;9;9.0;29.2;0.0;
14/06/2019 12:01:11;100;0;200.55;17;-19.36;7.07;35.0;14.20;70144;5134.266;-12822.584;212;-250;-245.5;71;70.8;7;7.2;29.1;0.0;
14/06/2019 12:01:31;100;0;188.54;17;-19.65;6.21;37.7;14.10;70093;5134.266;-12822.584;212;-250;-245.5;71;70.8;7;6.8;29.1;0.0;
14/06/2019 12:01:51;100;0;179.41;17;-19.59;6.22;40.3;14.00;70077;5134.266;-12822.584;212;-250;-243.6;71;70.8;3;3.2;29.1;0.0;
14/06/2019 12:02:11;100;0;169.56;17;-19.72;4.45;42.8;13.90;70053;5134.266;-12822.584;212;-250;-245.5;71;70.8;1;0.5;29.1;0.0;
14/06/2019 12:02:31;100;0;163.61;17;-20.17;3.20;45.3;13.90;70038;5134.266;-12822.584;212;-250;-245.5;71;70.8;0;0.0;29.1;0.0;
14/06/2019 12:02:51;100;0;157.00;17;-20.14;3.24;47.7;13.80;70011;5134.266;-12822.584;212;-250;-245.5;71;70.8;0;0.0;29.1;0.0;
14/06/2019 12:03:11;100;0;147.64;17;-19.86;3.22;50.3;13.70;69994;5134.266;-12822.584;212;-250;-245.5;71;70.8;-5;-5.0;29.2;0.0;
14/06/2019 12:03:31;100;0;139.74;17;-20.05;0.70;52.8;13.60;69980;5134.266;-12822.584;212;-250;-245.5;71;70.8;-8;-8.6;29.1;0.0;
14/06/2019 12:03:51;100;0;136.42;17;-19.67;-0.82;55.4;13.60;69960;5134.266;-12822.584;212;-250;-245.5;71;70.8;-9;-9.0;29.1;0.0;
14/06/2019 12:04:11;100;0;131.79;17;-20.15;-0.81;57.7;13.50;69959;5134.266;-12822.584;212;-250;-243.6;71;70.8;-13;-13.1;29.1;0.0;
14/06/2019 12:04:31;100;0;129.42;17;-19.78;-2.92;60.2;13.40;69940;5134.266;-12822.584;212;-250;-243.6;71;70.8;-14;-14.0;29.1;0.0;
14/06/2019 12:04:51;100;0;129.69;17;-19.94;-3.00;62.6;13.40;69932;5134.266;-12822.584;212;-250;-245.5;71;70.8;-16;-15.8;29.1;0.0;
14/06/2019 12:05:11;100;0;134.25;17;-19.74;-4.13;65.0;13.30;69923;5134.266;-12822.584;212;-250;-243.6;71;70.8;-14;-14.0;29.2;0.0;
14/06/2019 12:05:31;100;0;134.21;17;-19.76;-2.64;67.3;13.20;69912;5134.266;-12822.584;212;-250;-245.5;71;70.8;-17;-17.6;29.1;0.0;
14/06/2019 12:05:51;100;0;137.93;17;-19.65;-4.85;69.8;13.20;69907;5134.266;-12822.584;212;-250;-243.6;71;70.8;-18;-18.1;29.2;0.0;
14/06/2019 12:06:11;100;0;131.75;17;-19.28;-4.80;72.1;13.10;69887;5134.266;-12822.584;212;-250;-245.5;71;70.8;-25;-24.8;29.1;0.0;
14/06/2019 12:06:31;100;0;129.30;17;-19.21;-8.43;74.4;13.00;69877;5134.266;-12822.584;212;-250;-243.6;71;70.8;-28;-28.0;29.1;0.0;
14/06/2019 12:06:51;100;0;127.34;17;-19.29;-9.86;76.7;13.00;69872;5134.266;-12822.584;212;-250;-243.6;71;70.8;-29;-29.3;29.2;0.0;
14/06/2019 12:07:11;100;0;130.29;17;-18.60;-10.49;78.9;12.90;69857;5134.266;-12822.584;212;-250;-243.6;71;70.8;-27;-27.1;29.1;0.0;
14/06/2019 12:07:31;100;0;129.30;17;-18.71;-8.92;81.2;12.90;69844;5134.266;-12822.584;212;-250;-243.6;71;70.8;-28;-28.4;29.1;0.0;
14/06/2019 12:07:51;100;0;134.64;17;-18.15;-10.09;83.4;12.80;69838;5134.266;-12822.584;212;-250;-243.6;71;70.6;-25;-24.8;29.1;0.0;
14/06/2019 12:08:11;100;0;130.76;17;-18.13;-7.95;85.4;12.70;69838;5134.266;-12822.584;212;-250;-243.6;71;70.8;-28;-28.0;29.1;0.0;
14/06/2019 12:08:31;100;0;129.80;17;-18.38;-9.75;87.3;12.70;69822;5134.266;-12822.584;212;-250;-243.6;71;70.8;-28;-28.4;29.1;0.0;
14/06/2019 12:08:51;100;0;135.74;17;-18.10;-10.09;89.1;12.60;69815;5134.266;-12822.584;212;-250;-243.6;71;70.8;-24;-23.9;29.1;0.0;
14/06/2019 12:09:11;100;0;138.52;17;-17.87;-7.63;91.0;12.60;69806;5134.266;-12822.584;212;-250;-243.6;71;70.8;-24;-23.5;29.1;0.0;
14/06/2019 12:09:31;100;0;144.63;17;-16.84;-7.52;92.9;12.50;69796;5134.266;-12822.584;212;-250;-243.6;71;70.8;-21;-21.2;29.2;0.0;
14/06/2019 12:09:51;100;0;142.24;17;-16.17;-6.00;94.9;12.40;69783;5134.266;-12822.584;212;-250;-243.6;71;70.8;-24;-23.9;29.2;0.0;
14/06/2019 12:10:11;100;0;143.30;17;-16.20;-8.03;96.8;12.40;69782;5134.266;-12822.584;212;-250;-243.6;71;70.8;-24;-24.4;29.1;0.0;
14/06/2019 12:10:31;100;0;136.53;17;-16.61;-8.02;98.6;12.30;69766;5134.266;-12822.584;212;-250;-243.6;71;70.8;-28;-28.0;29.1;0.0;
14/06/2019 12:10:51;100;0;133.42;17;-16.50;-10.05;100.5;12.30;69763;5134.266;-12822.584;212;-250;-243.6;71;70.8;-29;-28.9;29.2;0.0;
14/06/2019 12:11:11;100;0;135.64;17;-16.20;-10.54;102.2;12.20;69737;5134.266;-12822.584;212;-250;-243.6;71;70.8;-27;-27.1;29.1;0.0;
14/06/2019 12:11:31;100;0;140.19;17;-15.84;-9.28;103.7;12.20;69743;5134.266;-12822.584;212;-250;-241.6;71;70.8;-24;-23.9;29.1;0.0;
14/06/2019 12:11:51;100;0;143.59;17;-16.03;-7.45;105.4;12.10;69719;5134.266;-12822.584;212;-250;-241.6;71;70.6;-23;-23.0;29.1;0.0;
14/06/2019 12:12:11;100;0;146.08;17;-15.79;-7.51;107.0;12.10;69717;5134.266;-12822.584;212;-250;-241.6;71;70.8;-22;-21.7;29.2;0.0;
14/06/2019 12:12:31;100;0;150.10;17;-15.66;-6.60;108.5;12.00;69714;5134.266;-12822.584;212;-250;-245.5;71;70.8;-21;-21.2;29.1;0.0;
14/06/2019 12:12:51;100;0;153.16;17;-15.62;-6.60;110.0;11.90;69704;5134.266;-12822.584;212;-250;-243.6;71;70.8;-20;-19.9;29.1;0.0;
14/06/2019 12:13:12;100;0;155.94;17;-15.51;-5.72;111.5;11.90;69694;5134.266;-12822.584;212;-250;-243.6;71;70.8;-20;-19.4;29.2;0.0;
14/06/2019 12:13:32;100;0;150.68;17;-15.22;-5.53;112.9;11.80;69688;5134.266;-12822.584;212;-250;-243.6;71;70.6;-24;-23.9;29.1;0.0;
14/06/2019 12:13:52;100;0;147.66;17;-15.19;-8.12;114.4;11.80;69674;5134.266;-12822.584;212;-250;-241.6;71;70.8;-25;-24.8;29.2;0.0;
14/06/2019 12:14:12;100;0;148.53;17;-14.84;-8.45;115.9;11.70;69681;5134.266;-12822.584;212;-250;-243.6;71;70.8;-24;-23.9;29.1;0.0;
14/06/2019 12:14:32;100;0;150.23;17;-15.10;-7.57;117.3;11.70;69665;5134.266;-12822.584;212;-250;-243.6;71;70.8;-23;-23.0;29.1;0.0;
14/06/2019 12:14:52;100;0;143.80;17;-14.97;-7.37;118.8;11.60;69652;5134.266;-12822.584;212;-250;-243.6;71;70.8;-27;-27.5;29.1;0.0;
14/06/2019 12:15:12;100;0;143.14;17;-15.01;-9.75;120.0;11.60;69642;5134.266;-12822.584;212;-250;-241.6;71;70.8;-26;-25.7;29.1;0.0;
14/06/2019 12:15:32;100;0;139.59;17;-15.09;-8.42;121.3;11.50;69639;5134.266;-12822.584;212;-250;-243.6;71;70.6;-28;-28.4;29.2;0.0;
14/06/2019 12:15:52;100;0;145.54;17;-14.65;-10.34;122.6;11.50;69623;5134.266;-12822.584;212;-250;-241.6;71;70.8;-23;-23.0;29.1;0.0;
14/06/2019 12:16:12;100;0;148.73;17;-14.34;-7.30;123.7;11.40;69601;5134.266;-12822.584;212;-250;-241.6;71;70.8;-22;-22.1;29.1;0.0;
14/06/2019 12:16:32;100;0;149.35;17;-14.20;-6.97;125.0;11.40;69613;5134.266;-12822.584;212;-250;-243.6;71;70.8;-22;-22.1;29.1;0.0;
14/06/2019 12:16:52;100;0;151.40;17;-14.03;-6.90;126.2;11.30;69590;5134.266;-12822.584;212;-250;-241.6;71;70.8;-22;-21.7;29.1;44.8;
14/06/2019 12:17:12;100;0;153.02;17;-14.07;-7.01;127.5;11.30;69591;5134.266;-12822.584;212;-250;-241.6;71;70.8;-21;-20.8;29.1;43.6;
14/06/2019 12:17:32;100;0;154.91;17;-14.13;-6.08;128.8;11.20;69578;5134.266;-12822.584;212;-250;-243.6;71;70.8;-21;-19.9;29.2;42.3;
14/06/2019 12:17:52;100;0;155.94;17;-14.13;-6.03;130.0;11.20;69572;5134.266;-12822.584;212;-250;-241.6;71;70.8;-21;-20.3;29.1;40.9;
14/06/2019 12:18:12;100;0;156.96;17;-14.04;-6.04;131.2;11.10;69567;5134.266;-12822.584;212;-250;-241.6;71;70.8;-21;-19.9;29.1;39.7;
14/06/2019 12:18:32;100;0;158.33;17;-13.96;-6.04;132.6;11.10;69557;5134.266;-12822.584;212;-250;-241.6;71;70.8;-21;-19.9;29.2;38.3;
14/06/2019 12:18:52;100;0;158.73;17;-13.92;-5.97;133.9;11.00;69547;5134.266;-12822.584;212;-250;-243.6;71;70.8;-21;-20.3;29.2;37.0;
14/06/2019 12:19:12;100;0;158.25;17;-14.06;-5.99;135.2;11.00;69543;5134.266;-12822.584;212;-250;-241.6;71;70.8;-21;-20.3;29.1;35.5;
14/06/2019 12:19:32;100;0;158.81;17;-14.14;-6.06;136.5;10.90;69546;5134.266;-12822.584;212;-250;-241.6;71;70.8;-22;-22.1;29.1;9.2;
14/06/2019 12:19:52;118;0;159.30;17;-14.03;-7.23;137.7;10.90;69541;5134.266;-12822.584;212;150;-225.7;55;54.8;0;0.9;29.1;32.8;
14/06/2019 12:20:02;118;0;132.94;17;10.44;4.13;138.3;10.90;69464;5134.266;-12822.584;212;150;-71.3;55;55.3;0;0.5;28.7;32.8;
14/06/2019 12:20:12;118;0;134.41;17;27.64;3.50;137.8;10.80;69245;5134.266;-12822.584;212;150;85.1;55;55.3;0;0.5;28.7;-1.0;
14/06/2019 12:20:22;118;0;135.18;17;27.88;3.63;136.7;10.80;68992;5134.266;-12822.584;212;150;154.5;55;55.3;0;0.9;28.7;-1.0;
14/06/2019 12:20:32;118;0;171.31;17;29.16;3.82;135.3;10.80;68892;5134.266;-12822.584;212;150;156.4;55;55.3;0;0.5;29.1;-1.0;
14/06/2019 12:20:42;117;0;172.04;17;30.65;3.57;133.4;10.80;68894;5134.266;-12822.584;212;150;156.4;55;55.3;0;0.5;29.1;-1.0;
14/06/2019 12:21:02;117;0;168.68;17;31.21;3.79;128.9;10.80;68898;5134.266;-12822.584;212;150;156.4;55;55.3;16;15.8;29.1;-1.0;
14/06/2019 12:21:22;117;0;172.63;17;31.07;11.26;123.7;10.70;68881;5134.266;-12822.584;212;150;156.4;55;55.3;16;16.2;29.1;-1.0;
14/06/2019 12:21:42;117;0;179.55;17;30.88;11.45;118.7;10.70;68899;5134.266;-12822.584;212;150;156.4;55;55.3;13;13.1;29.1;-1.0;
14/06/2019 12:22:02;117;0;186.86;17;29.50;9.42;113.9;10.60;68895;5134.266;-12822.584;212;150;156.4;55;55.3;11;10.8;29.2;-1.0;
14/06/2019 12:22:22;117;0;191.32;17;30.03;7.91;109.5;10.60;68908;5134.266;-12822.584;212;150;156.4;55;55.3;11;9.9;29.1;-1.0;
14/06/2019 12:22:42;117;0;188.47;17;30.49;8.26;104.8;10.60;68919;5134.266;-12822.584;212;150;156.4;55;55.3;15;14.9;29.1;-1.0;
14/06/2019 12:23:02;117;0;191.19;17;29.82;11.35;100.0;10.50;68932;5134.266;-12822.584;212;150;156.4;55;55.3;13;13.1;29.1;-1.0;
14/06/2019 12:23:22;117;0;201.61;17;27.91;9.06;95.6;10.50;68929;5134.266;-12822.584;212;150;156.4;55;55.3;13;12.6;29.2;-1.0;
14/06/2019 12:23:42;117;0;198.20;17;28.06;9.28;91.8;10.50;68951;5134.266;-12822.584;212;150;158.4;55;55.1;13;12.6;29.2;-1.0;
14/06/2019 12:24:02;117;0;194.00;17;28.61;9.38;88.0;10.50;68958;5134.266;-12822.584;212;150;156.4;55;55.3;13;12.6;29.1;-1.0;
14/06/2019 12:24:22;117;0;207.39;17;27.04;9.60;84.1;10.40;68961;5134.266;-12822.584;212;150;156.4;55;55.4;7;6.8;29.2;-1.0;
14/06/2019 12:24:42;117;0;207.50;17;27.08;6.53;80.4;10.40;68976;5134.266;-12822.584;212;150;156.4;55;55.3;9;9.0;29.1;-1.0;
14/06/2019 12:25:02;117;0;207.00;17;25.79;7.98;76.8;10.40;68984;5134.266;-12822.584;212;150;156.4;55;55.3;9;9.9;29.1;-1.0;
14/06/2019 12:25:22;117;0;209.31;17;25.50;8.15;73.6;10.40;68990;5134.266;-12822.584;212;150;156.4;55;55.3;8;8.1;29.1;-1.0;
14/06/2019 12:25:42;117;0;209.40;17;24.72;6.93;70.5;10.40;68993;5134.266;-12822.584;212;150;158.4;55;55.3;8;7.2;29.1;-1.0;
14/06/2019 12:26:02;117;0;210.44;17;25.65;6.86;67.5;10.40;68994;5134.266;-12822.584;212;150;156.4;55;55.3;7;7.2;29.1;-1.0;
14/06/2019 12:26:22;117;0;212.01;17;25.06;6.96;64.4;10.40;69006;5134.266;-12822.584;212;150;156.4;55;55.3;6;5.9;29.1;-1.0;
14/06/2019 12:26:42;117;0;211.85;17;25.21;5.87;61.0;10.40;69017;5134.266;-12822.584;212;150;156.4;55;55.3;6;5.0;29.1;-1.0;
14/06/2019 12:27:02;117;0;213.44;17;24.65;5.77;57.6;10.40;69023;5134.266;-12822.584;212;150;156.4;55;55.3;5;5.0;29.2;-1.0;
14/06/2019 12:27:22;117;0;211.35;17;24.11;5.88;54.4;10.30;69017;5134.266;-12822.584;212;150;156.4;55;55.3;6;5.9;29.1;-1.0;
14/06/2019 12:27:42;117;0;212.09;17;23.90;6.45;51.6;10.30;69030;5134.266;-12822.584;212;150;156.4;55;55.3;4;4.1;29.1;-1.0;
14/06/2019 12:28:02;117;0;213.79;17;23.63;4.80;48.9;10.30;69041;5134.266;-12822.584;212;150;156.4;55;55.3;3;3.2;29.1;-1.0;
14/06/2019 12:28:22;117;0;212.78;17;23.84;4.55;46.2;10.30;69052;5134.266;-12822.584;212;150;158.4;55;55.3;4;4.1;29.1;-1.0;
14/06/2019 12:28:42;117;0;215.77;17;23.60;5.42;43.5;10.30;69052;5134.266;-12822.584;212;150;156.4;55;55.3;1;0.5;29.2;-1.0;
14/06/2019 12:29:02;117;0;216.01;17;23.73;3.15;40.8;10.30;69059;5134.266;-12822.584;212;150;156.4;55;55.3;0;0.0;29.1;-1.0;
14/06/2019 12:29:22;117;0;219.12;17;23.33;3.09;38.1;10.30;69059;5134.266;-12822.584;212;150;156.4;55;55.3;0;0.0;29.2;-1.0;
14/06/2019 12:29:42;117;0;218.54;17;23.23;3.26;35.3;10.30;69068;5134.266;-12822.584;212;150;158.4;55;55.3;0;0.0;29.1;-1.0;
14/06/2019 12:30:02;117;0;219.75;17;22.90;3.32;32.8;10.30;69104;5134.266;-12822.584;212;150;156.4;55;55.3;-1;-0.9;29.1;-1.0;
14/06/2019 12:30:22;117;0;221.51;17;22.74;2.71;30.5;10.30;69092;5134.266;-12822.584;212;150;156.4;55;55.3;-2;-1.8;29.1;-1.0;
14/06/2019 12:30:42;117;0;224.99;17;22.37;2.17;28.0;10.30;69125;5134.266;-12822.584;212;150;156.4;55;55.3;-4;-4.5;29.1;-1.0;
14/06/2019 12:31:02;117;0;227.21;17;22.58;0.99;25.7;10.30;69142;5134.266;-12822.584;212;150;156.4;55;55.3;-5;-5.0;29.1;-1.0;
14/06/2019 12:31:22;117;0;216.71;17;22.32;1.06;23.3;10.40;69163;5134.266;-12822.584;212;150;158.4;55;55.3;0;0.0;29.1;-1.0;
14/06/2019 12:31:42;117;0;217.66;17;21.01;3.71;20.9;10.40;69200;5134.266;-12822.584;212;150;158.4;55;55.3;-1;-0.9;29.1;-1.0;
14/06/2019 12:32:02;117;0;223.44;17;21.26;2.65;18.7;10.40;69236;5134.266;-12822.584;212;150;158.4;55;55.3;-6;-5.9;29.1;-1.0;
14/06/2019 12:32:22;117;0;221.98;17;21.24;0.42;16.6;10.40;69258;5134.266;-12822.584;212;150;156.4;55;55.3;-5;-5.0;29.1;-1.0;
14/06/2019 12:32:42;117;0;221.51;17;20.72;1.49;14.4;10.50;69292;5134.266;-12822.584;212;150;156.4;55;55.3;-5;-4.1;29.1;-1.0;
14/06/2019 12:33:02;117;0;216.87;17;20.42;1.48;12.4;10.50;69315;5134.266;-12822.584;212;150;158.4;55;55.3;-3;-2.7;29.2;-1.0;
14/06/2019 12:33:22;117;0;226.97;17;20.52;2.36;10.6;10.50;69342;5134.266;-12822.584;212;150;158.4;55;55.3;-10;-9.9;29.2;-1.0;
