Timestamp;NavState;SecurityLevel;Heading;Declination;Pitch;Roll;Depth;Temperature;Pa;Lat;Lon;DesiredH;BallastCmd;BallastPos;LinCmd;LinPos;AngCmd;AngPos;Voltage;Altitude;
15/06/2019 14:36:50;117;0;291.31;17;16.11;-1.28;9.2;10.80;69494;5123.906;-12835.989;271;150;156.4;57;57.1;-8;-8.6;28.9;-1.0;
15/06/2019 14:37:00;115;0;287.08;17;15.80;-1.08;8.5;10.80;69503;5123.906;-12835.989;271;500;168.3;100;100.1;0;0.9;28.9;-1.0;
15/06/2019 14:37:10;115;0;320.67;17;-25.51;4.75;7.8;10.80;69424;5123.906;-12835.989;271;500;318.8;100;100.0;0;1.4;28.6;-1.0;
15/06/2019 14:37:20;115;0;335.88;17;-64.69;2.01;8.5;10.80;69231;5123.906;-12835.989;271;500;471.3;100;100.0;0;1.4;28.5;-1.0;
15/06/2019 14:37:30;115;0;350.60;17;-55.92;0.97;7.2;10.90;68985;5123.906;-12835.989;271;500;506.9;100;100.0;0;0.9;28.6;-1.0;
15/06/2019 14:37:40;115;0;347.91;17;-34.28;1.82;4.4;10.90;68947;5123.906;-12835.989;271;500;506.9;100;100.0;0;0.9;28.9;-1.0;
15/06/2019 14:37:50;116;0;38.58;17;-69.04;-16.54;1.3;10.90;68960;5123.906;-12835.989;271;500;506.9;100;100.0;0;0.9;28.9;-1.0;
15/06/2019 14:38:10;116;0;45.22;17;-11.88;4.77;1.3;11.00;68975;5123.906;-12835.989;271;500;508.9;100;99.9;0;1.4;28.9;-1.0;
15/06/2019 14:38:30;116;0;37.08;17;-22.78;5.38;1.4;11.10;68981;5123.700;-12836.901;271;500;510.9;100;99.9;0;1.4;28.9;-1.0;
15/06/2019 14:38:50;116;0;49.87;17;-18.23;3.87;1.3;11.20;69009;5123.701;-12836.899;275;500;510.9;100;99.9;0;0.9;28.7;-1.0;
15/06/2019 14:39:10;116;0;56.99;17;-20.26;3.35;1.3;11.30;69009;5123.703;-12836.893;275;500;508.9;100;99.9;0;0.9;28.8;-1.0;
15/06/2019 14:40:07;116;0;69.90;17;-26.87;5.05;1.4;11.70;69035;5123.703;-12836.893;275;500;508.9;100;100.0;0;0.9;28.9;-1.0;
15/06/2019 14:40:27;116;0;62.70;17;-17.66;2.89;1.3;11.80;69039;5123.704;-12836.892;275;500;508.9;100;99.9;0;0.9;28.9;-1.0;
15/06/2019 14:40:47;116;0;62.24;17;-22.23;3.42;1.3;11.90;69044;5123.704;-12836.894;275;500;510.9;100;99.9;0;1.4;28.9;-1.0;
15/06/2019 14:41:07;116;0;67.36;17;-19.84;3.09;1.3;12.10;69059;5123.704;-12836.898;275;500;508.9;100;99.9;0;0.9;28.8;-1.0;
15/06/2019 14:41:27;116;0;93.09;17;-20.50;2.87;1.3;12.20;69063;5123.705;-12836.887;275;500;508.9;100;99.9;0;0.9;28.9;-1.0;
15/06/2019 14:41:47;116;0;112.25;17;-17.93;3.90;1.3;12.40;69075;5123.707;-12836.883;275;500;508.9;100;99.9;0;1.4;28.9;-1.0;
15/06/2019 14:42:51;116;0;169.24;17;-20.01;4.15;1.4;12.90;69091;5123.707;-12836.883;275;500;508.9;100;99.9;0;1.4;28.9;-1.0;
15/06/2019 14:43:11;116;0;202.92;17;-21.33;3.75;1.3;13.00;69101;5123.707;-12836.881;275;500;510.9;100;99.9;0;0.9;28.9;-1.0;
15/06/2019 14:43:31;116;0;225.50;17;-18.99;2.82;1.3;13.10;69106;5123.708;-12836.876;275;500;508.9;100;99.9;0;0.9;28.9;-1.0;
15/06/2019 14:43:54;116;0;217.54;17;-19.72;1.13;1.4;13.30;69115;5123.707;-12836.875;275;500;510.9;100;100.0;0;0.9;28.9;-1.0;
15/06/2019 14:44:14;116;0;226.50;17;-17.68;3.86;1.3;13.40;69113;5123.706;-12836.871;275;500;508.9;100;99.9;0;1.4;28.9;-1.0;
15/06/2019 14:44:34;116;0;225.05;17;-21.55;3.38;1.4;13.60;69125;5123.707;-12836.879;275;500;508.9;100;100.0;0;0.9;28.9;-1.0;
15/06/2019 14:44:54;116;0;217.16;17;-18.43;2.81;1.3;13.70;69131;5123.708;-12836.878;275;500;508.9;100;99.9;0;1.4;28.9;-1.0;
15/06/2019 14:45:14;110;0;218.00;17;-23.26;3.99;1.3;13.80;69129;5123.708;-12836.878;275;-300;405.9;100;99.9;0;0.9;28.9;-1.0;
15/06/2019 14:45:24;110;0;219.38;17;-21.36;3.63;1.4;13.90;69366;5123.708;-12836.878;275;-300;257.4;100;99.9;0;1.4;28.8;-1.0;
15/06/2019 14:45:34;110;0;210.69;17;-28.54;2.12;1.6;13.90;69569;5123.708;-12836.878;275;-300;101.0;100;100.0;0;1.4;28.8;-1.0;
15/06/2019 14:45:44;110;0;218.15;17;-51.03;4.14;2.2;13.90;69833;5123.708;-12836.878;275;-300;-73.3;100;100.0;0;1.4;28.8;-1.0;
15/06/2019 14:45:54;110;0;220.74;17;-62.50;6.04;2.8;14.00;70115;5123.708;-12836.878;275;-300;-265.3;93;93.0;0;0.9;28.8;-1.0;
15/06/2019 14:46:04;110;0;204.80;17;-53.35;4.38;4.0;14.00;70444;5123.708;-12836.878;275;-300;-303.0;76;75.9;0;0.9;28.8;-1.0;
15/06/2019 14:46:14;110;0;225.55;17;-41.29;4.01;6.4;14.00;70469;5123.708;-12836.878;275;-300;-301.0;73;73.0;0;0.9;28.9;-1.0;
15/06/2019 14:46:24;100;0;213.44;17;-34.08;3.99;9.0;14.00;70473;5123.708;-12836.878;275;-300;-301.0;73;72.9;0;0.9;28.9;-1.0;
15/06/2019 14:46:44;100;0;193.34;17;-27.14;4.06;13.8;14.00;70459;5123.708;-12836.878;275;-300;-297.0;73;72.7;-45;-45.1;28.9;0.0;
15/06/2019 14:47:04;100;0;198.60;17;-26.27;-17.78;18.5;14.00;70437;5123.708;-12836.878;275;-300;-297.0;73;72.9;-34;-33.8;28.9;0.0;
15/06/2019 14:47:24;100;0;210.23;17;-27.24;-11.69;22.6;14.00;70402;5123.708;-12836.878;275;-300;-297.0;73;72.9;-20;-19.9;28.9;0.0;
15/06/2019 14:47:44;100;0;200.79;17;-26.94;-5.21;26.9;13.90;70370;5123.708;-12836.878;275;-300;-297.0;73;72.9;-26;-26.2;28.9;0.0;
15/06/2019 14:48:04;100;0;201.80;17;-26.08;-8.88;30.9;13.90;70324;5123.708;-12836.878;275;-300;-297.0;73;72.9;-25;-24.4;28.9;0.0;
15/06/2019 14:48:24;100;0;213.52;17;-25.60;-7.49;34.7;13.80;70259;5123.708;-12836.878;275;-300;-297.0;73;72.7;-17;-17.1;28.9;0.0;
15/06/2019 14:48:44;100;0;209.52;17;-25.32;-3.85;38.4;13.70;70212;5123.708;-12836.878;275;-300;-297.0;73;72.9;-23;-23.0;28.9;0.0;
15/06/2019 14:49:04;100;0;205.62;17;-25.37;-7.22;42.3;13.70;70170;5123.708;-12836.878;275;-300;-297.0;73;72.9;-26;-26.2;28.9;0.0;
15/06/2019 14:49:24;100;0;206.24;17;-25.08;-8.75;46.2;13.60;70142;5123.708;-12836.878;275;-300;-295.0;73;72.9;-25;-24.8;28.9;0.0;
15/06/2019 14:49:44;100;0;207.82;17;-24.95;-7.60;50.1;13.50;70115;5123.708;-12836.878;275;-300;-297.0;73;72.9;-24;-23.9;28.9;0.0;
15/06/2019 14:50:04;100;0;207.50;17;-25.24;-7.13;53.9;13.50;70081;5123.708;-12836.878;275;-300;-295.0;73;72.9;-24;-23.0;28.9;0.0;
15/06/2019 14:50:24;100;0;207.23;17;-24.69;-6.99;57.8;13.40;70072;5123.708;-12836.878;275;-300;-295.0;73;72.9;-24;-23.0;28.9;0.0;
15/06/2019 14:50:44;100;0;207.38;17;-24.69;-7.11;61.6;13.30;70054;5123.708;-12836.878;275;-300;-297.0;73;72.9;-24;-23.0;28.9;0.0;
15/06/2019 14:51:04;100;0;205.21;17;-24.61;-7.05;65.3;13.30;70031;5123.708;-12836.878;275;-300;-295.0;73;72.9;-26;-26.2;28.9;0.0;
15/06/2019 14:51:24;100;0;206.60;17;-24.74;-8.72;69.0;13.20;70027;5123.708;-12836.878;275;-300;-295.0;73;72.9;-25;-24.8;28.9;0.0;
15/06/2019 14:51:44;100;0;205.83;17;-24.33;-7.53;72.6;13.10;69997;5123.708;-12836.878;275;-300;-295.0;73;72.9;-25;-23.9;28.9;0.0;
15/06/2019 14:52:04;100;0;206.44;17;-24.21;-7.69;76.0;13.10;69985;5123.708;-12836.878;275;-300;-295.0;73;72.9;-25;-23.9;28.9;0.0;
15/06/2019 14:52:24;100;0;219.94;17;-24.35;-7.71;79.3;13.00;69978;5123.708;-12836.878;275;-300;-295.0;73;72.9;-17;-16.7;28.9;0.0;
15/06/2019 14:52:44;100;0;222.81;17;-24.07;-3.79;82.5;12.90;69957;5123.708;-12836.878;275;-300;-297.0;73;72.9;-18;-18.1;28.9;0.0;
15/06/2019 14:53:04;100;0;220.33;17;-23.31;-4.78;85.7;12.90;69937;5123.708;-12836.878;275;-300;-295.0;73;72.9;-21;-21.7;28.9;0.0;
15/06/2019 14:53:24;100;0;217.82;17;-23.53;-6.59;89.0;12.80;69929;5123.708;-12836.878;275;-300;-297.0;73;72.9;-23;-23.5;28.9;0.0;
15/06/2019 14:53:44;100;0;209.03;17;-23.69;-7.54;92.2;12.70;69916;5123.708;-12836.878;275;-300;-295.0;73;72.7;-27;-27.5;28.9;0.0;
15/06/2019 14:54:04;100;0;208.02;17;-23.36;-9.53;95.3;12.70;69905;5123.708;-12836.878;275;-300;-297.0;73;72.9;-26;-26.2;28.8;0.0;
15/06/2019 14:54:24;100;0;210.43;17;-22.44;-8.28;98.6;12.60;69893;5123.708;-12836.878;275;-300;-295.0;73;72.7;-24;-23.9;28.9;0.0;
15/06/2019 14:54:44;100;0;211.09;17;-22.58;-7.30;101.6;12.50;69888;5123.708;-12836.878;275;-300;-295.0;73;72.9;-23;-22.6;28.9;0.0;
15/06/2019 14:55:04;100;0;203.32;17;-21.72;-6.73;104.7;12.50;69870;5123.708;-12836.878;275;-300;-295.0;73;72.7;-28;-28.0;28.9;0.0;
15/06/2019 14:55:24;100;0;201.90;17;-21.46;-9.78;107.6;12.40;69856;5123.708;-12836.878;275;-300;-295.0;73;72.9;-28;-28.4;28.9;0.0;
15/06/2019 14:55:44;100;0;201.87;17;-20.99;-9.83;110.3;12.40;69851;5123.708;-12836.878;275;-300;-295.0;73;72.7;-27;-27.1;28.9;0.0;
15/06/2019 14:56:04;100;0;198.85;17;-21.28;-8.77;113.0;12.30;69828;5123.708;-12836.878;275;-300;-295.0;73;72.9;-28;-28.0;28.9;0.0;
15/06/2019 14:56:24;100;0;192.76;17;-21.04;-9.84;115.5;12.20;69811;5123.708;-12836.878;275;-300;-295.0;73;72.9;-31;-31.6;28.9;0.0;
15/06/2019 14:56:44;100;0;194.80;17;-20.89;-11.49;117.9;12.20;69801;5123.708;-12836.878;275;-300;-293.1;73;72.7;-28;-28.0;28.9;0.0;
15/06/2019 14:57:04;100;0;195.54;17;-21.19;-9.26;120.4;12.10;69790;5123.708;-12836.878;275;-300;-295.0;73;72.7;-27;-27.1;28.9;0.0;
15/06/2019 14:57:24;100;0;195.17;17;-21.10;-9.35;122.8;12.10;69789;5123.708;-12836.878;275;-300;-293.1;73;72.9;-27;-27.1;28.9;0.0;
15/06/2019 14:57:44;100;0;196.50;17;-20.68;-9.28;125.2;12.00;69778;5123.708;-12836.878;275;-300;-295.0;73;72.9;-26;-25.7;28.9;0.0;
15/06/2019 14:58:04;100;0;197.02;17;-20.32;-8.43;127.6;12.00;69762;5123.708;-12836.878;275;-300;-295.0;73;72.9;-26;-25.3;28.9;0.0;
15/06/2019 14:58:24;100;0;202.61;17;-20.19;-8.47;129.9;11.90;69751;5123.708;-12836.878;275;-300;-295.0;73;72.9;-23;-23.0;28.9;0.0;
15/06/2019 14:58:44;100;0;205.76;17;-20.74;-7.14;132.1;11.90;69753;5123.708;-12836.878;275;-300;-295.0;73;72.9;-23;-22.1;28.9;0.0;
15/06/2019 14:59:04;100;0;209.38;17;-20.09;-7.08;134.1;11.80;69741;5123.708;-12836.878;275;-300;-295.0;73;72.7;-21;-21.2;28.9;0.0;
15/06/2019 14:59:24;100;0;208.77;17;-20.19;-6.11;136.2;11.70;69725;5123.708;-12836.878;275;-300;-295.0;73;72.9;-23;-23.0;28.9;0.0;
15/06/2019 14:59:44;100;0;210.81;17;-20.28;-7.60;138.1;11.70;69714;5123.708;-12836.878;275;-300;-295.0;73;72.7;-23;-23.0;28.9;0.0;
15/06/2019 15:00:04;100;0;221.48;17;-20.16;-7.62;140.2;11.60;69722;5123.708;-12836.878;275;-300;-293.1;73;72.7;-17;-16.7;28.9;0.0;
15/06/2019 15:00:24;100;0;226.13;17;-19.63;-3.85;142.2;11.60;69693;5123.708;-12836.878;275;-300;-295.0;73;72.7;-16;-15.8;28.9;0.0;
15/06/2019 15:00:44;100;0;229.03;17;-19.37;-3.87;144.4;11.50;69686;5123.708;-12836.878;275;-300;-293.1;73;72.9;-17;-17.1;28.9;0.0;
15/06/2019 15:01:04;100;0;236.02;17;-19.59;-4.93;146.2;11.50;69668;5123.708;-12836.878;275;-300;-295.0;73;72.9;-14;-14.0;28.9;0.0;
15/06/2019 15:01:24;100;0;239.71;17;-19.43;-2.71;148.3;11.40;69655;5123.708;-12836.878;275;-300;-293.1;73;72.7;-15;-14.9;28.9;0.0;
15/06/2019 15:01:44;100;0;239.20;17;-19.09;-3.78;150.3;11.30;69647;5123.708;-12836.878;275;-300;-295.0;73;72.9;-16;-16.2;28.9;0.0;
15/06/2019 15:02:04;100;0;239.79;17;-18.97;-4.28;152.3;11.30;69638;5123.708;-12836.878;275;-300;-293.1;73;72.7;-17;-17.6;28.9;0.0;
15/06/2019 15:02:24;100;0;237.94;17;-18.66;-4.87;154.4;11.20;69630;5123.708;-12836.878;275;-300;-293.1;73;72.9;-19;-19.0;28.9;4.6;
15/06/2019 15:02:44;118;0;237.04;17;-18.86;-5.78;156.4;11.20;69612;5123.708;-12836.878;275;150;-277.2;57;56.8;0;0.5;28.9;0.0;
15/06/2019 15:02:54;118;0;172.73;17;2.50;3.98;157.2;11.10;69520;5123.708;-12836.878;275;150;-118.8;57;57.2;0;0.9;28.4;0.0;
15/06/2019 15:03:04;118;0;174.48;17;19.47;3.65;156.8;11.10;69309;5123.708;-12836.878;275;150;33.7;57;57.2;0;0.9;28.4;-1.0;
15/06/2019 15:03:14;118;0;176.33;17;23.46;3.77;155.9;11.10;69049;5123.708;-12836.878;275;150;156.4;57;57.1;0;0.9;28.4;-1.0;
15/06/2019 15:03:24;118;0;225.21;17;24.42;3.73;154.6;11.10;68877;5123.708;-12836.878;275;150;156.4;57;57.2;0;0.9;28.9;-1.0;
15/06/2019 15:03:34;118;0;226.55;17;26.38;3.94;153.0;11.00;68880;5123.708;-12836.878;275;150;156.4;57;57.2;0;0.9;28.9;-1.0;
15/06/2019 15:03:44;117;0;224.58;17;26.79;3.79;151.0;11.00;68867;5123.708;-12836.878;275;150;156.4;57;57.2;0;0.9;28.9;-1.0;
15/06/2019 15:04:04;117;0;223.36;17;27.02;3.79;146.9;11.00;68872;5123.708;-12836.878;275;150;158.4;57;57.1;27;27.1;28.9;-1.0;
15/06/2019 15:04:24;117;0;225.48;17;27.34;17.00;142.1;11.00;68881;5123.708;-12836.878;275;150;156.4;57;57.2;23;22.6;28.9;-1.0;
15/06/2019 15:04:44;117;0;222.56;17;27.12;14.31;137.8;10.90;68869;5123.708;-12836.878;275;150;158.4;57;57.1;24;24.4;28.9;-1.0;
15/06/2019 15:05:04;117;0;228.73;17;26.43;15.56;133.7;10.80;68881;5123.708;-12836.878;275;150;156.4;57;57.1;19;19.0;28.9;-1.0;
15/06/2019 15:05:24;117;0;235.39;17;26.45;12.39;129.5;10.80;68884;5123.708;-12836.878;275;150;156.4;57;57.2;16;15.8;28.9;-1.0;
15/06/2019 15:05:44;117;0;239.82;17;26.00;10.56;125.2;10.80;68904;5123.708;-12836.878;275;150;158.4;57;57.2;15;14.9;28.9;-1.0;
15/06/2019 15:06:04;117;0;243.60;17;25.91;10.62;121.2;10.70;68901;5123.708;-12836.878;275;150;156.4;57;57.2;14;14.0;28.9;-1.0;
15/06/2019 15:06:24;117;0;258.37;17;24.82;10.00;117.5;10.70;68906;5123.708;-12836.878;275;150;158.4;57;57.2;14;13.5;28.9;-1.0;
15/06/2019 15:06:45;117;0;269.91;17;24.49;9.73;113.9;10.70;68923;5123.708;-12836.878;275;150;156.4;57;57.1;4;3.6;28.9;-1.0;
15/06/2019 15:07:05;117;0;271.28;17;24.68;4.80;110.5;10.60;68928;5123.708;-12836.878;275;150;158.4;57;57.1;6;5.9;28.9;-1.0;
15/06/2019 15:07:25;117;0;272.00;17;23.95;6.43;107.2;10.60;68931;5123.708;-12836.878;275;150;156.4;57;57.2;8;8.1;28.9;-1.0;
15/06/2019 15:07:45;117;0;271.47;17;23.61;7.74;104.0;10.60;68927;5123.708;-12836.878;275;150;156.4;57;57.2;9;9.0;28.9;-1.0;
15/06/2019 15:08:05;117;0;270.33;17;22.99;7.71;100.9;10.50;68936;5123.708;-12836.878;275;150;158.4;57;57.2;9;9.0;28.9;-1.0;
15/06/2019 15:08:25;117;0;267.61;17;22.91;7.73;98.1;10.50;68951;5123.708;-12836.878;275;150;158.4;57;57.2;11;10.8;28.9;-1.0;
15/06/2019 15:08:45;117;0;269.22;17;22.46;8.82;95.1;10.50;68948;5123.708;-12836.878;275;150;156.4;57;57.1;9;9.0;28.9;-1.0;
15/06/2019 15:09:05;117;0;266.77;17;22.05;7.43;92.3;10.50;68961;5123.708;-12836.878;275;150;158.4;57;57.2;10;9.9;28.9;-1.0;
15/06/2019 15:09:25;117;0;277.28;17;21.19;8.84;89.7;10.50;68958;5123.708;-12836.878;275;150;158.4;57;57.1;3;3.2;28.9;-1.0;
15/06/2019 15:09:45;117;0;276.56;17;21.83;4.15;87.3;10.50;68976;5123.708;-12836.878;275;150;158.4;57;57.2;5;5.0;28.9;-1.0;
15/06/2019 15:10:05;117;0;279.90;17;21.27;5.90;84.6;10.40;68981;5123.708;-12836.878;275;150;158.4;57;57.2;3;3.2;28.9;-1.0;
15/06/2019 15:10:25;117;0;278.00;17;21.04;4.49;82.1;10.40;68973;5123.708;-12836.878;275;150;158.4;57;57.1;4;4.1;28.9;-1.0;
15/06/2019 15:10:45;117;0;274.99;17;21.89;5.14;79.4;10.40;68979;5123.708;-12836.878;275;150;158.4;57;57.1;6;5.9;28.9;-1.0;
15/06/2019 15:11:05;117;0;279.42;17;20.74;6.64;76.4;10.40;68994;5123.708;-12836.878;275;150;158.4;57;57.2;2;1.8;28.9;-1.0;
15/06/2019 15:11:25;117;0;289.52;17;20.02;3.74;73.6;10.40;69001;5123.708;-12836.878;275;150;158.4;57;57.1;-3;-3.2;28.9;-1.0;
15/06/2019 15:11:45;117;0;284.06;17;19.80;1.42;71.1;10.40;69021;5123.708;-12836.878;275;150;158.4;57;57.2;1;0.9;28.9;-1.0;
15/06/2019 15:12:05;117;0;283.78;17;19.77;4.05;68.5;10.40;69013;5123.708;-12836.878;275;150;158.4;57;57.1;1;1.4;28.9;-1.0;
15/06/2019 15:12:25;117;0;286.23;17;19.48;3.87;66.0;10.40;69022;5123.708;-12836.878;275;150;158.4;57;57.1;-1;-0.9;28.9;-1.0;
15/06/2019 15:12:45;117;0;281.59;17;19.62;2.54;63.6;10.40;69033;5123.708;-12836.878;275;150;158.4;57;57.2;1;0.9;28.9;-1.0;
15/06/2019 15:13:05;117;0;279.84;17;19.63;4.05;61.2;10.40;69035;5123.708;-12836.878;275;150;158.4;57;57.2;1;1.8;28.9;-1.0;
15/06/2019 15:13:25;117;0;280.25;17;19.53;4.01;58.8;10.40;69044;5123.708;-12836.878;275;150;158.4;57;57.1;0;0.0;28.9;-1.0;
15/06/2019 15:13:45;117;0;275.54;17;19.67;2.86;56.4;10.40;69049;5123.708;-12836.878;275;150;156.4;57;57.2;1;0.9;28.9;-1.0;
15/06/2019 15:14:05;117;0;268.05;17;19.39;4.03;54.3;10.40;69050;5123.708;-12836.878;275;150;158.4;57;57.2;4;4.1;28.9;-1.0;
15/06/2019 15:14:25;117;0;269.11;17;18.96;5.51;52.0;10.40;69067;5123.708;-12836.878;275;150;158.4;57;57.2;1;0.5;28.9;-1.0;
15/06/2019 15:14:45;117;0;266.14;17;18.91;3.24;49.8;10.40;69072;5123.708;-12836.878;275;150;158.4;57;57.1;2;1.8;28.9;-1.0;
15/06/2019 15:15:05;117;0;263.83;17;18.96;4.50;47.7;10.40;69075;5123.708;-12836.878;275;150;158.4;57;57.2;2;2.3;28.9;-1.0;
15/06/2019 15:15:25;117;0;263.61;17;18.70;4.48;45.6;10.40;69085;5123.708;-12836.878;275;150;158.4;57;57.2;1;0.5;28.9;-1.0;
15/06/2019 15:15:45;117;0;260.50;17;18.62;3.36;43.4;10.40;69102;5123.708;-12836.878;275;150;158.4;57;57.1;2;1.8;28.9;-1.0;
15/06/2019 15:16:05;117;0;259.48;17;18.54;4.49;41.4;10.40;69105;5123.708;-12836.878;275;150;158.4;57;57.2;2;2.7;28.9;-1.0;
15/06/2019 15:16:25;117;0;259.39;17;18.27;4.48;39.5;10.40;69112;5123.708;-12836.878;275;150;156.4;57;57.1;1;0.5;28.9;-1.0;
15/06/2019 15:16:45;117;0;259.26;17;18.66;3.49;37.4;10.40;69110;5123.708;-12836.878;275;150;158.4;57;57.2;1;0.0;28.9;-1.0;
15/06/2019 15:17:05;117;0;262.18;17;18.14;3.25;35.4;10.40;69124;5123.708;-12836.878;275;150;158.4;57;57.2;0;0.0;28.9;-1.0;
15/06/2019 15:17:25;117;0;257.48;17;18.45;3.34;33.3;10.40;69141;5123.708;-12836.878;275;150;158.4;57;57.2;0;0.0;28.9;-1.0;
15/06/2019 15:17:45;117;0;255.04;17;17.85;3.40;31.0;10.40;69158;5123.708;-12836.878;275;150;158.4;57;57.2;0;0.5;28.9;-1.0;
15/06/2019 15:18:05;117;0;256.45;17;17.45;3.27;28.9;10.40;69181;5123.708;-12836.878;275;150;158.4;57;57.1;0;0.0;28.9;-1.0;
15/06/2019 15:18:25;117;0;253.09;17;16.78;3.40;26.9;10.40;69210;5123.708;-12836.878;275;150;158.4;57;57.1;3;3.2;28.9;-1.0;
15/06/2019 15:18:45;117;0;254.29;17;16.00;5.11;25.1;10.50;69248;5123.708;-12836.878;275;150;158.4;57;57.2;2;1.4;28.9;-1.0;
15/06/2019 15:19:05;117;0;258.25;17;15.76;3.91;23.4;10.50;69276;5123.708;-12836.878;275;150;158.4;57;57.2;2;0.9;28.9;-1.0;
15/06/2019 15:19:25;117;0;262.46;17;15.93;3.88;21.6;10.50;69307;5123.708;-12836.878;275;150;158.4;57;57.2;-1;-0.9;28.9;-1.0;
15/06/2019 15:19:45;117;0;261.32;17;15.66;2.72;19.9;10.60;69327;5123.708;-12836.878;275;150;158.4;57;57.2;0;0.5;28.9;-1.0;
15/06/2019 15:20:05;117;0;264.73;17;16.01;3.91;18.2;10.60;69340;5123.708;-12836.878;275;150;158.4;57;57.1;-1;-0.9;28.9;-1.0;
15/06/2019 15:20:25;117;0;267.64;17;15.98;2.76;16.5;10.60;69364;5123.708;-12836.878;275;150;160.4;57;57.2;-3;-3.2;28.9;-1.0;
15/06/2019 15:20:45;117;0;266.63;17;16.21;1.57;14.8;10.70;69382;5123.708;-12836.878;275;150;158.4;57;57.2;-1;-0.5;28.9;-1.0;
15/06/2019 15:21:05;117;0;269.24;17;15.57;3.36;13.0;10.70;69409;5123.708;-12836.878;275;150;158.4;57;57.2;-3;-3.2;28.9;-1.0;
15/06/2019 15:21:25;117;0;271.05;17;15.62;1.51;11.5;10.70;69426;5123.708;-12836.878;275;150;158.4;57;57.2;-4;-4.1;28.9;-1.0;
