Timestamp;NavState;SecurityLevel;Heading;Declination;Pitch;Roll;Depth;Temperature;Pa;Lat;Lon;DesiredH;BallastCmd;BallastPos;LinCmd;LinPos;AngCmd;AngPos;Voltage;Altitude;
14/06/2019 04:49:45;117;0;158.38;17;24.87;3.58;28.4;12.70;69495;5138.182;-12820.419;207;100;106.9;54;54.1;-1;-0.9;29.2;-1.0;
14/06/2019 04:49:55;110;0;157.18;17;23.88;2.64;27.3;12.70;69508;5138.182;-12820.419;207;-250;-83.2;71;71.1;0;0.9;29.2;-1.0;
14/06/2019 04:50:05;110;0;142.83;17;-2.01;4.21;26.5;12.70;69957;5138.182;-12820.419;207;-250;-251.5;71;70.8;0;0.9;29.2;-1.0;
14/06/2019 04:50:15;110;0;146.90;17;-16.42;4.35;27.0;12.70;70113;5138.182;-12820.419;207;-250;-251.5;71;70.8;0;0.9;29.2;-1.0;
14/06/2019 04:50:25;100;0;142.06;17;-20.83;4.12;28.2;12.70;70111;5138.182;-12820.419;207;-250;-251.5;71;70.8;0;0.9;29.2;-1.0;
14/06/2019 04:50:45;100;0;129.12;17;-20.49;4.19;30.9;12.70;70107;5138.182;-12820.419;207;-250;-251.5;71;70.8;-18;-18.1;29.2;0.0;
14/06/2019 04:51:05;100;0;127.57;17;-20.58;-4.87;34.1;12.70;70086;5138.182;-12820.419;207;-250;-253.5;71;70.8;-17;-17.1;29.2;0.0;
14/06/2019 04:51:25;100;0;128.96;17;-20.31;-3.98;36.9;12.60;70079;5138.182;-12820.419;207;-250;-253.5;71;70.8;-16;-15.3;29.2;0.0;
14/06/2019 04:51:45;100;0;131.89;17;-19.95;-3.09;39.7;12.60;70070;5138.182;-12820.419;207;-250;-253.5;71;70.8;-16;-14.4;29.2;0.0;
14/06/2019 04:52:05;100;0;130.35;17;-19.73;-3.05;42.6;12.60;70054;5138.182;-12820.419;207;-250;-253.5;71;70.8;-19;-19.0;29.2;0.0;
14/06/2019 04:52:25;100;0;133.12;17;-19.85;-5.43;45.4;12.60;70041;5138.182;-12820.419;207;-250;-253.5;71;70.8;-19;-19.4;29.2;0.0;
14/06/2019 04:52:45;100;0;135.04;17;-19.74;-5.47;48.1;12.50;70008;5138.182;-12820.419;207;-250;-253.5;71;70.8;-21;-21.2;29.2;0.0;
14/06/2019 04:53:05;118;0;135.96;17;-20.20;-6.65;50.7;12.50;70013;5138.182;-12820.419;207;100;-241.6;54;53.8;0;0.5;29.2;0.0;
14/06/2019 04:53:15;118;0;120.82;17;0.08;4.09;51.7;12.40;69916;5138.182;-12820.419;207;100;-85.1;54;54.1;0;0.5;28.9;0.0;
14/06/2019 04:53:25;118;0;120.54;17;18.30;3.81;51.5;12.40;69708;5138.182;-12820.419;207;100;65.3;54;54.1;0;0.5;28.9;-1.0;
14/06/2019 04:53:35;118;0;120.52;17;24.81;3.80;50.7;12.40;69449;5138.182;-12820.419;207;100;105.0;54;54.1;0;0.9;28.9;-1.0;
14/06/2019 04:53:45;118;0;138.10;17;25.55;3.82;49.7;12.40;69413;5138.182;-12820.419;207;100;105.0;54;54.1;0;0.9;29.2;-1.0;
14/06/2019 04:53:55;117;0;137.51;17;26.78;3.78;48.5;12.40;69411;5138.182;-12820.419;207;100;106.9;54;54.1;0;0.5;29.2;-1.0;
14/06/2019 04:54:15;117;0;133.91;17;26.11;3.78;45.9;12.30;69406;5138.182;-12820.419;207;100;105.0;54;54.1;25;25.3;29.2;-1.0;
14/06/2019 04:54:35;117;0;134.29;17;26.41;16.09;43.1;12.30;69400;5138.182;-12820.419;207;100;106.9;54;54.1;25;25.3;29.2;-1.0;
14/06/2019 04:54:55;117;0;139.59;17;25.64;16.12;40.5;12.20;69401;5138.182;-12820.419;207;100;105.0;54;54.1;22;22.1;29.2;-1.0;
14/06/2019 04:55:15;117;0;143.28;17;25.82;13.56;38.1;12.20;69411;5138.182;-12820.419;207;100;106.9;54;54.1;21;21.2;29.2;-1.0;
14/06/2019 04:55:35;117;0;139.56;17;25.58;13.63;35.6;12.20;69422;5138.182;-12820.419;207;100;105.0;54;54.1;25;25.3;29.2;-1.0;
14/06/2019 04:55:55;117;0;141.78;17;25.43;15.98;33.3;12.20;69415;5138.182;-12820.419;207;100;105.0;54;54.1;23;23.0;29.2;-1.0;
14/06/2019 04:56:15;117;0;149.82;17;24.55;14.42;31.0;12.10;69436;5138.182;-12820.419;207;100;105.0;54;54.1;19;18.5;29.2;-1.0;
14/06/2019 04:56:35;117;0;159.38;17;24.67;12.23;28.8;12.10;69433;5138.182;-12820.419;207;100;105.0;54;54.1;15;14.4;29.2;-1.0;
14/06/2019 04:56:55;117;0;161.83;17;24.24;9.86;26.6;12.10;69459;5138.182;-12820.419;207;100;106.9;54;54.1;17;17.1;29.2;-1.0;
14/06/2019 04:57:15;117;0;162.22;17;23.45;11.99;24.6;12.10;69473;5138.182;-12820.419;207;100;106.9;54;54.1;18;18.5;29.3;-1.0;
14/06/2019 04:57:35;117;0;161.06;17;24.08;12.62;22.7;12.10;69508;5138.182;-12820.419;207;100;105.0;54;54.1;19;19.0;29.2;-1.0;
14/06/2019 04:57:55;117;0;163.17;17;22.71;12.78;20.8;12.10;69523;5138.182;-12820.419;207;100;106.9;54;54.1;19;19.0;29.2;-1.0;
14/06/2019 04:58:15;117;0;167.45;17;22.98;12.61;19.2;12.10;69551;5138.182;-12820.419;207;100;105.0;54;54.1;17;17.1;29.2;-1.0;
14/06/2019 04:58:35;117;0;171.58;17;23.00;11.33;17.5;12.10;69575;5138.182;-12820.419;207;100;106.9;54;54.1;16;15.8;29.2;-1.0;
14/06/2019 04:58:55;117;0;174.44;17;22.50;10.70;15.7;12.10;69612;5138.182;-12820.419;207;100;105.0;54;54.1;15;14.9;29.2;-1.0;
14/06/2019 04:59:15;117;0;175.56;17;22.49;10.73;14.0;12.10;69654;5138.182;-12820.419;207;100;106.9;54;54.1;16;15.8;29.2;-1.0;
14/06/2019 04:59:35;117;0;202.71;17;20.04;10.80;12.4;12.10;69680;5138.182;-12820.419;207;100;106.9;54;54.1;16;16.2;29.2;-1.0;
14/06/2019 04:59:56;117;0;218.03;17;20.40;11.59;11.2;12.10;69705;5138.182;-12820.419;207;100;106.9;54;54.1;-3;-3.2;29.2;-1.0;
