Timestamp;NavState;SecurityLevel;Heading;Declination;Pitch;Roll;Depth;Temperature;Pa;Lat;Lon;DesiredH;BallastCmd;BallastPos;LinCmd;LinPos;AngCmd;AngPos;Voltage;Altitude;
16/06/2019 10:10:29;117;0;33.74;17;16.51;2.04;9.3;10.60;69435;5125.179;-12837.774;52;150;158.4;57;57.1;-1;-0.9;28.7;-1.0;
16/06/2019 10:10:40;110;0;34.39;17;15.94;3.42;8.5;10.60;69449;5125.179;-12837.774;52;-300;-55.4;73;73.2;0;0.0;28.7;-1.0;
16/06/2019 10:10:50;110;0;38.84;17;-10.51;3.70;8.1;10.60;69957;5125.179;-12837.774;52;-300;-301.0;73;72.9;0;0.0;28.6;-1.0;
16/06/2019 10:11:00;110;0;26.35;17;-24.76;4.28;8.7;10.60;70239;5125.179;-12837.774;52;-300;-303.0;73;73.0;0;-0.5;28.7;-1.0;
16/06/2019 10:11:10;100;0;22.61;17;-27.66;3.70;10.5;10.60;70229;5125.179;-12837.774;52;-300;-303.0;73;73.0;0;0.0;28.8;-1.0;
16/06/2019 10:11:30;100;0;14.58;17;-26.47;3.44;14.7;10.70;70241;5125.179;-12837.774;52;-300;-305.0;73;72.9;-10;-10.4;28.7;0.0;
16/06/2019 10:11:50;100;0;12.96;17;-26.51;-1.37;19.2;10.80;70231;5125.179;-12837.774;52;-300;-303.0;73;72.9;-8;-8.1;28.7;0.0;
16/06/2019 10:12:10;100;0;7.50;17;-25.98;0.16;23.5;10.80;70228;5125.179;-12837.774;52;-300;-305.0;73;72.9;-10;-9.9;28.7;0.0;
16/06/2019 10:12:30;100;0;5.43;17;-25.21;-1.28;27.8;10.80;70187;5125.179;-12837.774;52;-300;-305.0;73;73.0;-10;-10.4;28.7;0.0;
16/06/2019 10:12:50;100;0;6.23;17;-25.31;-1.36;31.8;10.80;70134;5125.179;-12837.774;52;-300;-303.0;73;72.9;-8;-8.1;28.7;0.0;
16/06/2019 10:13:10;100;0;4.26;17;-24.90;0.23;35.6;10.90;70101;5125.179;-12837.774;52;-300;-305.0;73;72.9;-10;-9.9;28.7;0.0;
16/06/2019 10:13:30;100;0;1.89;17;-24.98;-1.26;39.5;10.90;70070;5125.179;-12837.774;52;-300;-305.0;73;72.9;-11;-10.8;28.7;0.0;
16/06/2019 10:13:50;100;0;1.29;17;-24.74;-1.52;43.3;10.80;70044;5125.179;-12837.774;52;-300;-303.0;73;73.0;-11;-11.3;28.7;0.0;
16/06/2019 10:14:10;100;0;3.24;17;-25.21;-1.73;47.1;10.80;70030;5125.179;-12837.774;52;-300;-305.0;73;72.9;-10;-9.9;28.7;0.0;
16/06/2019 10:14:30;100;0;358.53;17;-24.79;-0.92;51.0;10.80;70016;5125.179;-12837.774;52;-300;-303.0;73;72.9;-14;-14.0;28.7;0.0;
16/06/2019 10:14:50;100;0;355.19;17;-24.78;-3.29;54.8;10.80;69990;5125.179;-12837.774;52;-300;-303.0;73;73.0;-15;-15.3;28.7;0.0;
16/06/2019 10:15:10;100;0;349.52;17;-24.62;-3.92;58.4;10.80;69974;5125.179;-12837.774;52;-300;-305.0;73;73.0;-19;-19.0;28.8;0.0;
16/06/2019 10:15:30;100;0;345.99;17;-24.87;-5.42;62.2;10.80;69952;5125.179;-12837.774;52;-300;-305.0;73;72.9;-22;-22.1;28.7;0.0;
16/06/2019 10:15:50;100;0;345.92;17;-24.88;-6.98;65.8;10.80;69934;5125.179;-12837.774;52;-300;-305.0;73;72.9;-23;-23.0;28.7;0.0;
16/06/2019 10:16:10;100;0;350.30;17;-24.29;-7.17;69.4;10.80;69920;5125.179;-12837.774;52;-300;-303.0;73;72.9;-19;-19.0;28.7;0.0;
16/06/2019 10:16:30;100;0;353.18;17;-24.09;-4.94;72.8;10.80;69898;5125.179;-12837.774;52;-300;-305.0;73;73.0;-19;-17.6;28.7;0.0;
16/06/2019 10:16:50;100;0;353.97;17;-25.00;-4.55;76.0;10.80;69883;5125.179;-12837.774;52;-300;-305.0;73;73.0;-20;-20.3;28.7;19.2;
16/06/2019 10:17:10;118;0;350.43;17;-24.39;-6.01;79.7;10.70;69865;5125.179;-12837.774;52;150;-293.1;57;56.8;0;0.5;28.7;0.0;
16/06/2019 10:17:20;118;0;18.97;17;-7.49;3.95;81.2;10.70;69780;5125.179;-12837.774;52;150;-138.6;57;56.6;0;0.5;28.3;0.0;
16/06/2019 10:17:30;118;0;15.49;17;7.72;3.74;81.4;10.80;69569;5125.179;-12837.774;52;150;17.8;57;57.1;0;0.5;28.3;-1.0;
16/06/2019 10:17:40;118;0;13.28;17;16.50;3.64;80.9;10.70;69307;5125.179;-12837.774;52;150;154.5;57;57.1;0;0.5;28.3;-1.0;
16/06/2019 10:17:50;118;0;329.14;17;17.25;4.59;80.1;10.70;69095;5125.179;-12837.774;52;150;154.5;57;57.1;0;0.5;28.7;-1.0;
16/06/2019 10:18:00;118;0;329.63;17;19.54;3.97;79.1;10.70;69114;5125.179;-12837.774;52;150;156.4;57;57.1;0;0.5;28.7;-1.0;
16/06/2019 10:18:10;117;0;331.30;17;19.62;3.78;78.0;10.70;69106;5125.179;-12837.774;52;150;154.5;57;57.1;0;0.5;28.7;-1.0;
16/06/2019 10:18:30;117;0;334.92;17;20.13;4.13;76.0;10.70;69104;5125.179;-12837.774;52;150;156.4;57;57.1;33;33.4;28.7;-1.0;
16/06/2019 10:18:50;117;0;343.56;17;19.46;20.54;73.7;10.70;69104;5125.179;-12837.774;52;150;154.5;57;56.9;25;24.8;28.8;-1.0;
16/06/2019 10:19:10;117;0;348.53;17;20.04;15.01;71.7;10.70;69098;5125.179;-12837.774;52;150;154.5;57;56.9;22;21.7;28.8;-1.0;
16/06/2019 10:19:30;117;0;353.27;17;19.57;13.41;69.4;10.70;69098;5125.179;-12837.774;52;150;154.5;57;57.1;20;19.9;28.7;-1.0;
16/06/2019 10:19:50;117;0;354.00;17;19.75;12.99;67.2;10.70;69104;5125.179;-12837.774;52;150;156.4;57;57.1;21;21.7;28.7;-1.0;
16/06/2019 10:20:10;117;0;0.11;17;19.63;14.43;64.9;10.70;69102;5125.179;-12837.774;52;150;156.4;57;56.9;18;17.6;28.7;-1.0;
16/06/2019 10:20:30;117;0;9.98;17;18.98;11.72;62.7;10.70;69101;5125.179;-12837.774;52;150;154.5;57;57.1;15;14.9;28.7;-1.0;
16/06/2019 10:20:50;117;0;15.32;17;19.27;10.34;60.6;10.70;69114;5125.179;-12837.774;52;150;156.4;57;57.1;14;14.0;28.7;-1.0;
16/06/2019 10:21:10;117;0;20.93;17;19.01;9.99;58.4;10.70;69128;5125.179;-12837.774;52;150;158.4;57;57.1;13;13.1;28.7;-1.0;
16/06/2019 10:21:30;117;0;28.92;17;18.74;9.38;56.4;10.60;69127;5125.179;-12837.774;52;150;156.4;57;56.9;11;10.8;28.7;-1.0;
16/06/2019 10:21:50;117;0;36.55;17;18.83;8.31;54.4;10.60;69146;5125.179;-12837.774;52;150;154.5;57;56.9;11;9.9;28.7;-1.0;
16/06/2019 10:22:10;117;0;39.40;17;18.51;8.07;52.4;10.60;69138;5125.179;-12837.774;52;150;156.4;57;57.1;10;9.9;28.7;-1.0;
16/06/2019 10:22:30;117;0;43.63;17;18.47;8.12;50.4;10.60;69146;5125.179;-12837.774;52;150;156.4;57;56.9;9;8.6;28.7;-1.0;
16/06/2019 10:22:50;117;0;44.05;17;18.74;7.44;48.5;10.60;69166;5125.179;-12837.774;52;150;156.4;57;56.9;10;10.4;28.7;-1.0;
16/06/2019 10:23:10;117;0;45.94;17;18.73;8.91;46.3;10.70;69183;5125.179;-12837.774;52;150;156.4;57;57.1;10;11.3;28.7;-1.0;
16/06/2019 10:23:30;117;0;49.49;17;18.47;8.92;44.1;10.70;69181;5125.179;-12837.774;52;150;156.4;57;56.9;8;8.1;28.7;-1.0;
16/06/2019 10:23:50;117;0;50.42;17;18.64;7.04;41.9;10.70;69195;5125.179;-12837.774;52;150;156.4;57;57.1;8;7.7;28.7;-1.0;
16/06/2019 10:24:10;117;0;53.01;17;18.48;7.07;39.8;10.70;69203;5125.179;-12837.774;52;150;156.4;57;56.9;6;5.9;28.7;-1.0;
16/06/2019 10:24:30;117;0;54.97;17;18.23;5.81;37.7;10.70;69203;5125.179;-12837.774;52;150;156.4;57;57.1;6;5.0;28.7;-1.0;
16/06/2019 10:24:50;117;0;55.78;17;18.37;5.95;35.6;10.70;69221;5125.179;-12837.774;52;150;156.4;57;56.9;5;5.0;28.7;-1.0;
16/06/2019 10:25:10;117;0;55.54;17;18.29;5.83;33.5;10.70;69216;5125.179;-12837.774;52;150;158.4;57;56.9;5;5.0;28.7;-1.0;
16/06/2019 10:25:30;117;0;60.48;17;18.24;6.03;31.4;10.70;69232;5125.179;-12837.774;52;150;156.4;57;57.1;2;1.8;28.7;-1.0;
16/06/2019 10:25:50;117;0;62.08;17;17.68;3.92;29.4;10.70;69253;5125.179;-12837.774;52;150;156.4;57;57.1;1;0.5;28.7;-1.0;
16/06/2019 10:26:10;117;0;57.69;17;17.52;3.17;27.3;10.70;69265;5125.179;-12837.774;52;150;156.4;57;57.1;4;4.1;28.7;-1.0;
16/06/2019 10:26:30;117;0;50.86;17;17.16;5.53;25.5;10.80;69280;5125.179;-12837.774;52;150;158.4;57;57.1;7;7.2;28.7;-1.0;
16/06/2019 10:26:50;117;0;54.83;17;16.93;7.19;23.8;10.80;69305;5125.179;-12837.774;52;150;156.4;57;57.1;3;3.2;28.7;-1.0;
16/06/2019 10:27:10;117;0;54.78;17;16.27;4.60;22.2;10.80;69324;5125.179;-12837.774;52;150;156.4;57;56.9;2;1.4;28.7;-1.0;
16/06/2019 10:27:30;117;0;57.38;17;16.45;3.87;20.8;10.80;69346;5125.179;-12837.774;52;150;156.4;57;57.1;0;-0.5;28.7;-1.0;
16/06/2019 10:27:50;117;0;59.64;17;16.14;2.92;19.0;10.80;69372;5125.179;-12837.774;52;150;156.4;57;57.1;0;-0.9;28.7;-1.0;
16/06/2019 10:28:10;117;0;62.68;17;15.82;2.80;17.4;10.90;69398;5125.179;-12837.774;52;150;156.4;57;56.9;-2;-2.3;28.7;-1.0;
16/06/2019 10:28:30;117;0;62.14;17;16.09;2.10;15.7;10.90;69429;5125.179;-12837.774;52;150;156.4;57;56.9;-2;-2.7;28.7;-1.0;
16/06/2019 10:28:50;117;0;60.94;17;15.73;2.09;14.1;10.90;69452;5125.179;-12837.774;52;150;158.4;57;57.1;-1;-0.9;28.7;-1.0;
16/06/2019 10:29:10;117;0;61.44;17;15.65;3.33;12.5;11.00;69478;5125.179;-12837.774;52;150;156.4;57;57.1;-2;-1.8;28.7;-1.0;
16/06/2019 10:29:30;117;0;57.78;17;16.19;2.08;10.9;11.00;69485;5125.179;-12837.774;52;150;156.4;57;57.1;0;0.0;28.7;-1.0;
