Timestamp;NavState;SecurityLevel;Heading;Declination;Pitch;Roll;Depth;Temperature;Pa;Lat;Lon;DesiredH;BallastCmd;BallastPos;LinCmd;LinPos;AngCmd;AngPos;Voltage;Altitude;
14/06/2019 12:33:42;117;0;211.05;17;18.96;-1.96;9.0;10.50;69388;5134.266;-12822.584;212;150;156.4;55;55.3;-1;-0.5;29.2;-1.0;
14/06/2019 12:33:52;115;0;209.64;17;17.44;3.71;8.2;10.60;69390;5134.266;-12822.584;212;500;170.3;100;100.1;0;0.0;29.1;-1.0;
14/06/2019 12:34:02;115;0;178.73;17;-25.93;4.34;7.6;10.60;69306;5134.266;-12822.584;212;500;318.8;100;100.0;0;0.0;28.8;-1.0;
14/06/2019 12:34:12;115;0;173.02;17;-67.30;-2.49;8.2;10.60;69107;5134.266;-12822.584;212;500;471.3;100;100.0;0;0.5;28.8;-1.0;
14/06/2019 12:34:22;115;0;198.84;17;-61.11;0.96;7.3;10.70;68879;5134.266;-12822.584;212;500;505.0;100;99.9;0;0.5;28.8;-1.0;
14/06/2019 12:34:32;115;0;266.41;17;-38.22;-0.39;4.1;10.70;68853;5134.266;-12822.584;212;500;506.9;100;100.0;0;0.5;29.1;-1.0;
14/06/2019 12:34:42;116;0;324.59;17;-37.29;3.48;1.3;10.70;68862;5134.266;-12822.584;212;500;508.9;100;99.9;0;0.0;29.1;-1.0;
14/06/2019 12:35:02;116;0;320.39;17;-13.36;6.92;1.2;10.80;68885;5133.979;-12822.883;212;500;508.9;100;99.9;0;0.5;29.1;-1.0;
14/06/2019 12:35:22;116;0;310.00;17;-5.46;1.90;1.1;10.80;68898;5133.971;-12822.887;212;500;508.9;100;99.9;0;0.0;29.1;-1.0;
14/06/2019 12:35:42;116;0;302.71;17;-37.92;-2.96;1.3;10.90;68913;5133.972;-12822.889;212;500;508.9;100;99.9;0;0.0;29.1;-1.0;
14/06/2019 12:36:02;116;0;341.80;17;-4.58;8.53;1.2;11.00;68926;5133.970;-12822.892;212;500;506.9;100;99.7;0;0.5;29.2;-1.0;
14/06/2019 12:36:22;116;0;317.94;17;-27.18;2.24;1.3;11.10;68945;5133.969;-12822.966;212;500;508.9;100;99.9;0;0.5;29.1;-1.0;
14/06/2019 12:41:05;116;0;318.65;17;-10.61;2.94;1.1;12.40;69035;5133.970;-12822.975;212;500;508.9;100;99.9;0;0.5;29.1;-1.0;
14/06/2019 12:41:34;116;0;329.22;17;-35.66;5.55;1.6;12.50;69046;5133.969;-12822.976;212;500;508.9;100;99.9;0;0.5;29.1;-1.0;
14/06/2019 12:41:54;116;0;296.85;17;-12.40;-2.77;1.1;12.60;69041;5133.969;-12822.977;212;500;508.9;100;99.9;0;0.5;29.1;-1.0;
14/06/2019 12:42:14;116;0;314.91;17;-22.02;1.16;1.2;12.70;69049;5133.968;-12822.981;212;500;510.9;100;99.9;0;0.5;29.1;-1.0;
14/06/2019 12:42:34;116;0;310.89;17;-24.47;3.20;1.3;12.80;69046;5133.961;-12822.988;212;500;508.9;100;99.9;0;0.5;29.0;-1.0;
14/06/2019 12:43:17;116;0;301.86;17;-15.85;-0.44;1.2;12.90;69062;5133.959;-12822.987;212;500;508.9;100;99.9;0;0.5;29.1;-1.0;
14/06/2019 12:43:37;116;0;316.98;17;-7.66;7.95;1.1;13.10;69069;5133.964;-12822.998;212;500;508.9;100;99.7;0;0.5;29.2;-1.0;
14/06/2019 12:43:57;116;0;326.70;17;-37.75;0.97;1.6;13.20;69070;5133.963;-12823.016;212;500;508.9;100;99.9;0;0.5;29.0;-1.0;
14/06/2019 12:45:11;116;0;307.51;17;-37.60;2.55;1.5;13.60;69092;5133.963;-12823.017;212;500;508.9;100;99.9;0;0.0;29.2;-1.0;
14/06/2019 12:45:31;116;0;307.25;17;-18.06;4.37;1.1;13.70;69090;5133.962;-12823.021;212;500;508.9;100;99.9;0;0.5;29.1;-1.0;
14/06/2019 12:45:51;116;0;302.72;17;-6.08;5.22;1.1;13.80;69106;5133.961;-12823.024;212;500;508.9;100;99.7;0;0.5;29.1;-1.0;
14/06/2019 12:46:11;116;0;284.85;17;-26.32;9.14;1.2;13.80;69101;5133.960;-12823.029;212;500;508.9;100;99.9;0;0.5;29.1;-1.0;
14/06/2019 12:46:31;116;0;309.96;17;-9.45;5.47;1.1;13.90;69102;5133.959;-12823.035;212;500;508.9;100;99.9;0;0.5;29.1;-1.0;
14/06/2019 12:46:51;116;0;322.37;17;-8.49;1.70;1.2;13.90;69106;5133.958;-12823.039;212;500;508.9;100;99.9;0;0.5;29.1;-1.0;
14/06/2019 12:47:11;116;0;300.24;17;-8.18;-0.39;1.1;14.00;69108;5133.958;-12823.046;212;500;508.9;100;99.9;0;0.5;29.1;-1.0;
14/06/2019 12:47:31;116;0;336.90;17;-15.93;2.06;1.2;14.00;69118;5133.958;-12823.054;212;500;510.9;100;99.9;0;0.5;29.2;-1.0;
14/06/2019 12:47:51;116;0;316.10;17;-13.41;3.52;1.2;14.10;69111;5133.956;-12823.056;212;500;510.9;100;99.9;0;0.5;29.1;-1.0;
14/06/2019 12:48:11;116;0;328.91;17;-7.69;0.83;1.2;14.20;69126;5133.956;-12823.071;212;500;508.9;100;99.9;0;0.5;29.1;-1.0;
14/06/2019 12:49:05;116;0;320.94;17;-22.94;2.74;1.3;14.30;69132;5133.956;-12823.073;212;500;508.9;100;99.9;0;0.5;29.1;-1.0;
14/06/2019 12:49:25;116;0;287.06;17;-11.19;6.80;1.1;14.30;69122;5133.956;-12823.075;212;500;510.9;100;99.9;0;0.5;29.1;-1.0;
14/06/2019 12:49:45;116;0;296.37;17;-7.11;0.69;1.1;14.30;69116;5133.954;-12823.083;212;500;510.9;100;99.9;0;0.5;29.1;-1.0;
14/06/2019 12:50:05;116;0;298.33;17;-15.92;6.86;1.1;14.40;69120;5133.954;-12823.088;212;500;508.9;100;99.9;0;0.5;29.1;-1.0;
14/06/2019 12:50:29;116;0;314.72;17;-23.92;1.46;1.2;14.40;69132;5133.954;-12823.089;212;500;508.9;100;99.9;0;0.5;29.1;-1.0;
14/06/2019 12:50:49;116;0;322.89;17;-12.43;5.57;1.1;14.50;69140;5133.953;-12823.094;212;500;508.9;100;99.9;0;0.5;29.1;-1.0;
14/06/2019 12:51:09;116;0;323.64;17;-8.34;3.17;1.1;14.50;69135;5133.954;-12823.100;212;500;508.9;100;99.9;0;0.0;29.1;-1.0;
14/06/2019 12:51:29;116;0;319.36;17;-20.93;2.34;1.2;14.50;69136;5133.955;-12823.103;212;500;510.9;100;99.9;0;0.5;29.2;-1.0;
14/06/2019 12:51:49;116;0;338.30;17;-13.43;5.49;1.1;14.60;69135;5133.954;-12823.107;212;500;508.9;100;99.7;0;0.5;29.1;-1.0;
14/06/2019 12:52:09;116;0;315.70;17;-8.72;3.70;1.1;14.60;69145;5133.953;-12823.113;212;500;510.9;100;99.9;0;0.5;29.1;-1.0;
14/06/2019 12:52:29;116;0;326.84;17;-6.36;2.28;1.2;14.60;69142;5133.953;-12823.116;212;500;508.9;100;99.7;0;0.5;29.1;-1.0;
14/06/2019 12:52:49;110;0;335.62;17;-27.44;7.13;1.2;14.70;69154;5133.953;-12823.116;212;-300;405.9;100;99.9;0;0.5;29.1;-1.0;
14/06/2019 12:52:59;110;0;344.66;17;-10.15;3.93;1.1;14.70;69386;5133.953;-12823.116;212;-300;267.3;100;99.9;0;0.5;29.0;-1.0;
14/06/2019 12:53:09;110;0;327.07;17;-5.76;4.27;1.1;14.70;69570;5133.953;-12823.116;212;-300;130.7;100;99.9;0;0.5;29.1;-1.0;
14/06/2019 12:53:19;110;0;344.60;17;-4.56;0.57;1.1;14.70;69802;5133.953;-12823.116;212;-300;-5.9;100;99.7;0;0.5;29.1;-1.0;
14/06/2019 12:53:29;110;0;326.41;17;-18.77;10.59;1.3;14.70;70026;5133.953;-12823.116;212;-300;-172.3;100;99.9;0;0.0;29.0;-1.0;
14/06/2019 12:53:39;110;0;335.53;17;-53.67;5.55;2.7;14.70;70297;5133.953;-12823.116;212;-300;-301.0;84;83.9;0;0.5;29.1;-1.0;
14/06/2019 12:53:49;110;0;328.54;17;-53.73;6.64;6.0;14.70;70493;5133.953;-12823.116;212;-300;-303.0;73;72.9;0;0.0;29.1;-1.0;
14/06/2019 12:53:59;100;0;328.37;17;-37.81;3.55;9.4;14.70;70477;5133.953;-12823.116;212;-300;-301.0;73;72.9;0;0.5;29.1;-1.0;
14/06/2019 12:54:19;100;0;325.54;17;-28.00;3.80;14.9;14.60;70449;5133.953;-12823.116;212;-300;-297.0;73;72.9;45;45.1;29.1;0.0;
14/06/2019 12:54:39;100;0;298.74;17;-22.61;25.75;19.4;14.60;70395;5133.953;-12823.116;212;-300;-297.0;73;72.7;40;40.2;29.1;0.0;
14/06/2019 12:54:59;100;0;283.86;17;-21.46;22.09;23.1;14.50;70374;5133.953;-12823.116;212;-300;-297.0;73;72.7;30;29.8;29.1;0.0;
14/06/2019 12:55:19;100;0;272.76;17;-23.91;17.10;26.4;14.40;70318;5133.953;-12823.116;212;-300;-297.0;73;72.7;26;26.2;29.1;0.0;
14/06/2019 12:55:39;100;0;252.09;17;-23.17;15.42;29.9;14.40;70270;5133.953;-12823.116;212;-300;-297.0;73;72.7;16;15.8;29.1;0.0;
14/06/2019 12:55:59;100;0;237.12;17;-23.30;10.30;33.5;14.30;70231;5133.953;-12823.116;212;-300;-295.0;73;72.7;12;12.2;29.1;0.0;
14/06/2019 12:56:19;100;0;223.15;17;-23.12;8.54;37.0;14.20;70200;5133.953;-12823.116;212;-300;-297.0;73;72.7;10;9.9;29.1;0.0;
14/06/2019 12:56:39;100;0;210.42;17;-23.53;7.30;40.5;14.10;70156;5133.953;-12823.116;212;-300;-297.0;73;72.7;7;6.8;29.1;0.0;
14/06/2019 12:56:59;100;0;199.37;17;-23.79;6.07;44.0;14.00;70139;5133.953;-12823.116;212;-300;-295.0;73;72.7;6;5.9;29.2;0.0;
14/06/2019 12:57:19;100;0;190.52;17;-23.98;5.38;47.5;13.90;70122;5133.953;-12823.116;212;-300;-297.0;73;72.7;6;5.0;29.1;0.0;
14/06/2019 12:57:39;100;0;181.19;17;-23.77;5.43;51.0;13.80;70090;5133.953;-12823.116;212;-300;-297.0;73;72.7;4;4.1;29.1;0.0;
14/06/2019 12:57:59;100;0;172.96;17;-23.67;4.81;54.5;13.80;70074;5133.953;-12823.116;212;-300;-297.0;73;72.7;2;1.8;29.1;0.0;
14/06/2019 12:58:19;100;0;165.30;17;-23.30;3.57;58.0;13.70;70055;5133.953;-12823.116;212;-300;-297.0;73;72.7;1;0.9;29.1;0.0;
14/06/2019 12:58:39;100;0;162.51;17;-23.62;3.75;61.5;13.60;70043;5133.953;-12823.116;212;-300;-295.0;73;72.7;1;0.9;29.1;0.0;
14/06/2019 12:58:59;100;0;162.87;17;-23.57;3.61;64.8;13.50;70018;5133.953;-12823.116;212;-300;-295.0;73;72.7;3;3.2;29.1;0.0;
14/06/2019 12:59:19;100;0;150.86;17;-22.92;5.30;68.2;13.50;70008;5133.953;-12823.116;212;-300;-297.0;73;72.6;-3;-3.2;29.1;0.0;
14/06/2019 12:59:39;100;0;141.29;17;-23.21;1.54;71.4;13.40;69997;5133.953;-12823.116;212;-300;-297.0;73;72.7;-7;-7.7;29.1;0.0;
14/06/2019 12:59:59;100;0;135.17;17;-22.73;-0.50;74.7;13.30;69968;5133.953;-12823.116;212;-300;-295.0;73;72.7;-10;-9.9;29.1;0.0;
14/06/2019 13:00:19;100;0;133.62;17;-23.14;-1.39;77.8;13.20;69972;5133.953;-12823.116;212;-300;-297.0;73;72.7;-11;-10.8;29.2;0.0;
14/06/2019 13:00:39;100;0;127.07;17;-21.95;-1.92;81.1;13.20;69966;5133.953;-12823.116;212;-300;-295.0;73;72.7;-15;-15.3;29.1;0.0;
14/06/2019 13:00:59;100;0;125.94;17;-21.79;-3.82;84.1;13.10;69958;5133.953;-12823.116;212;-300;-295.0;73;72.7;-17;-17.6;29.1;0.0;
14/06/2019 13:01:19;100;0;125.96;17;-22.68;-4.92;86.8;13.00;69935;5133.953;-12823.116;212;-300;-295.0;73;72.7;-18;-18.1;29.1;0.0;
14/06/2019 13:01:39;100;0;119.39;17;-21.23;-5.00;89.7;13.00;69912;5133.953;-12823.116;212;-300;-295.0;73;72.7;-24;-23.9;29.1;0.0;
14/06/2019 13:01:59;100;0;113.54;17;-21.26;-7.99;92.3;12.90;69906;5133.953;-12823.116;212;-300;-295.0;73;72.7;-30;-30.2;29.1;0.0;
14/06/2019 13:02:19;100;0;111.06;17;-21.19;-10.75;94.9;12.80;69907;5133.953;-12823.116;212;-300;-295.0;73;72.7;-32;-32.0;29.1;0.0;
14/06/2019 13:02:39;100;0;111.84;17;-21.40;-11.63;97.6;12.80;69886;5133.953;-12823.116;212;-300;-293.1;73;72.7;-32;-32.5;29.1;0.0;
14/06/2019 13:02:59;100;0;113.44;17;-21.00;-11.60;100.1;12.70;69876;5133.953;-12823.116;212;-300;-295.0;73;72.7;-31;-31.1;29.1;21.3;
14/06/2019 13:03:19;100;0;116.85;17;-20.98;-10.82;102.6;12.70;69876;5133.953;-12823.116;212;-300;-293.1;73;72.7;-29;-28.4;29.1;0.0;
14/06/2019 13:03:39;100;0;125.14;17;-21.11;-9.69;105.0;12.60;69859;5133.953;-12823.116;212;-300;-295.0;73;72.7;-24;-23.9;29.1;0.0;
14/06/2019 13:03:59;100;0;127.71;17;-20.86;-7.48;107.4;12.50;69841;5133.953;-12823.116;212;-300;-295.0;73;72.7;-25;-25.3;29.1;0.0;
14/06/2019 13:04:19;100;0;123.87;17;-20.51;-8.53;109.9;12.50;69840;5133.953;-12823.116;212;-300;-295.0;73;72.7;-29;-28.9;29.1;0.0;
14/06/2019 13:04:39;100;0;128.32;17;-20.20;-10.27;112.3;12.40;69817;5133.953;-12823.116;212;-300;-295.0;73;72.7;-26;-26.2;29.1;0.0;
14/06/2019 13:04:59;100;0;136.45;17;-19.94;-8.55;114.7;12.40;69819;5133.953;-12823.116;212;-300;-293.1;73;72.7;-22;-22.1;29.2;0.0;
14/06/2019 13:05:19;100;0;133.18;17;-19.93;-6.32;117.1;12.30;69800;5133.953;-12823.116;212;-300;-293.1;73;72.7;-26;-26.6;29.1;0.0;
14/06/2019 13:05:39;100;0;131.53;17;-19.93;-9.08;119.5;12.20;69798;5133.953;-12823.116;212;-300;-295.0;73;72.7;-27;-27.1;29.2;0.0;
14/06/2019 13:05:59;100;0;137.57;17;-19.90;-9.46;121.9;12.20;69788;5133.953;-12823.116;212;-300;-293.1;73;72.7;-24;-23.5;29.1;0.0;
14/06/2019 13:06:19;100;0;136.96;17;-19.63;-7.17;124.2;12.10;69770;5133.953;-12823.116;212;-300;-293.1;73;72.7;-25;-24.8;29.1;0.0;
14/06/2019 13:06:39;100;0;134.69;17;-20.00;-8.45;126.4;12.10;69759;5133.953;-12823.116;212;-300;-293.1;73;72.7;-27;-27.5;29.1;0.0;
14/06/2019 13:06:59;100;0;131.48;17;-19.94;-9.61;128.6;12.00;69752;5133.953;-12823.116;212;-300;-293.1;73;72.7;-28;-28.0;29.1;43.8;
14/06/2019 13:07:19;100;0;140.37;17;-19.46;-9.81;130.8;11.90;69746;5133.953;-12823.116;212;-300;-293.1;73;72.7;-23;-22.6;29.1;41.5;
14/06/2019 13:07:39;100;0;141.79;17;-18.78;-6.82;132.9;11.90;69734;5133.953;-12823.116;212;-300;-293.1;73;72.7;-23;-22.1;29.1;39.2;
14/06/2019 13:07:59;100;0;142.05;17;-19.11;-6.94;135.2;11.80;69709;5133.953;-12823.116;212;-300;-293.1;73;72.6;-24;-23.9;29.2;36.9;
14/06/2019 13:08:19;100;0;142.37;17;-19.50;-8.54;137.3;11.80;69704;5133.953;-12823.116;212;-300;-293.1;73;72.7;-24;-24.4;29.1;34.7;
14/06/2019 13:08:39;100;0;142.58;17;-19.10;-8.08;139.6;11.70;69696;5133.953;-12823.116;212;-300;-293.1;73;72.6;-25;-25.3;29.1;32.4;
14/06/2019 13:08:59;100;0;141.85;17;-18.51;-8.75;141.8;11.60;69689;5133.953;-12823.116;212;-300;-295.0;73;72.7;-25;-25.7;29.1;30.3;
14/06/2019 13:09:19;100;0;143.20;17;-18.91;-8.52;143.9;11.60;69681;5133.953;-12823.116;212;-300;-293.1;73;72.7;-24;-23.9;29.1;27.9;
14/06/2019 13:09:39;100;0;144.47;17;-19.19;-7.56;146.1;11.50;69676;5133.953;-12823.116;212;-300;-293.1;73;72.6;-24;-23.0;29.1;25.7;
14/06/2019 13:09:59;100;0;145.18;17;-19.21;-7.29;148.1;11.50;69660;5133.953;-12823.116;212;-300;-293.1;73;72.7;-24;-23.0;29.1;23.4;
14/06/2019 13:10:19;100;0;146.83;17;-18.97;-7.57;150.3;11.40;69658;5133.953;-12823.116;212;-300;-293.1;73;72.7;-23;-23.0;29.1;21.3;
14/06/2019 13:10:39;100;0;147.40;17;-19.18;-7.56;152.4;11.40;69650;5133.953;-12823.116;212;-300;-293.1;73;72.7;-23;-23.0;29.1;19.1;
14/06/2019 13:10:59;118;0;150.03;17;-19.25;-7.36;154.5;11.30;69646;5133.953;-12823.116;212;150;-277.2;56;55.9;0;0.5;29.1;17.0;
14/06/2019 13:11:09;118;0;125.95;17;2.98;3.85;155.5;11.30;69566;5133.953;-12823.116;212;150;-120.8;56;56.2;0;0.5;28.6;17.0;
14/06/2019 13:11:19;118;0;125.80;17;21.62;3.49;155.1;11.30;69356;5133.953;-12823.116;212;150;35.6;56;56.2;0;0.5;28.6;-1.0;
14/06/2019 13:11:29;118;0;124.53;17;25.73;3.70;154.3;11.20;69108;5133.953;-12823.116;212;150;156.4;56;56.2;0;0.5;28.6;-1.0;
14/06/2019 13:11:39;118;0;152.73;17;26.82;3.54;153.0;11.20;68917;5133.953;-12823.116;212;150;156.4;56;56.2;0;0.5;29.1;-1.0;
14/06/2019 13:11:49;118;0;154.11;17;28.60;3.60;151.3;11.20;68919;5133.953;-12823.116;212;150;156.4;56;56.2;0;0.5;29.1;-1.0;
14/06/2019 13:11:59;117;0;154.39;17;29.36;3.58;149.3;11.20;68923;5133.953;-12823.116;212;150;158.4;56;56.2;0;0.5;29.1;-1.0;
14/06/2019 13:12:19;117;0;153.44;17;29.46;3.62;144.9;11.10;68905;5133.953;-12823.116;212;150;158.4;56;56.2;20;19.9;29.1;-1.0;
14/06/2019 13:12:39;117;0;161.34;17;29.32;13.37;139.8;11.10;68919;5133.953;-12823.116;212;150;158.4;56;56.0;17;16.7;29.2;-1.0;
14/06/2019 13:12:59;117;0;164.27;17;29.20;11.28;135.4;11.00;68909;5133.953;-12823.116;212;150;156.4;56;56.0;17;16.2;29.1;-1.0;
14/06/2019 13:13:19;117;0;163.92;17;29.61;11.18;130.8;11.00;68899;5133.953;-12823.116;212;150;158.4;56;56.2;20;19.9;29.1;-1.0;
14/06/2019 13:13:39;117;0;179.43;17;28.54;13.67;126.1;10.90;68906;5133.953;-12823.116;212;150;158.4;56;56.0;11;10.8;29.1;-1.0;
14/06/2019 13:13:59;117;0;178.93;17;28.90;8.41;121.7;10.90;68915;5133.953;-12823.116;212;150;158.4;56;56.2;15;14.9;29.1;-1.0;
14/06/2019 13:14:19;117;0;186.37;17;28.35;10.38;117.4;10.80;68913;5133.953;-12823.116;212;150;158.4;56;56.0;12;12.2;29.1;-1.0;
14/06/2019 13:14:39;117;0;181.80;17;28.55;8.88;112.9;10.80;68934;5133.953;-12823.116;212;150;158.4;56;56.0;17;17.1;29.1;-1.0;
14/06/2019 13:14:59;117;0;187.55;17;27.76;11.79;108.7;10.70;68936;5133.953;-12823.116;212;150;158.4;56;56.0;13;13.1;29.1;-1.0;
14/06/2019 13:15:19;117;0;188.78;17;28.04;9.40;104.4;10.70;68942;5133.953;-12823.116;212;150;156.4;56;56.2;14;14.0;29.0;-1.0;
14/06/2019 13:15:39;117;0;195.70;17;27.53;10.47;99.9;10.70;68957;5133.953;-12823.116;212;150;156.4;56;56.2;14;14.9;29.1;-1.0;
14/06/2019 13:15:59;117;0;201.56;17;26.75;10.39;95.8;10.70;68965;5133.953;-12823.116;212;150;158.4;56;56.2;9;8.6;29.1;-1.0;
14/06/2019 13:16:19;117;0;201.80;17;26.72;7.05;92.0;10.60;68951;5133.953;-12823.116;212;150;158.4;56;56.2;11;10.8;29.1;-1.0;
14/06/2019 13:16:39;117;0;201.54;17;26.42;8.74;88.4;10.60;68971;5133.953;-12823.116;212;150;158.4;56;56.0;12;12.2;29.1;-1.0;
14/06/2019 13:16:59;117;0;204.17;17;25.27;9.26;84.9;10.60;68966;5133.953;-12823.116;212;150;158.4;56;56.2;10;9.9;29.1;-1.0;
14/06/2019 13:17:19;117;0;212.52;17;25.56;7.61;81.5;10.60;68978;5133.953;-12823.116;212;150;158.4;56;56.2;6;5.9;29.1;-1.0;
14/06/2019 13:17:39;117;0;213.89;17;24.51;5.75;78.2;10.50;68984;5133.953;-12823.116;212;150;156.4;56;56.0;6;5.0;29.1;-1.0;
14/06/2019 13:17:59;117;0;207.89;17;24.04;5.68;75.2;10.50;68983;5133.953;-12823.116;212;150;158.4;56;56.2;10;9.9;29.1;-1.0;
14/06/2019 13:18:19;117;0;208.94;17;23.85;8.31;72.3;10.50;69000;5133.953;-12823.116;212;150;158.4;56;56.0;9;8.6;29.2;-1.0;
14/06/2019 13:18:39;117;0;211.54;17;23.15;7.01;69.5;10.50;69002;5133.953;-12823.116;212;150;158.4;56;56.0;6;5.9;29.1;-1.0;
14/06/2019 13:18:59;117;0;217.12;17;22.39;5.57;66.8;10.50;69007;5133.953;-12823.116;212;150;158.4;56;56.2;3;3.2;29.1;-1.0;
14/06/2019 13:19:19;117;0;214.57;17;23.52;4.33;64.1;10.50;69012;5133.953;-12823.116;212;150;158.4;56;56.2;5;5.0;29.1;-1.0;
14/06/2019 13:19:39;117;0;213.31;17;23.01;5.94;61.3;10.50;69021;5133.953;-12823.116;212;150;158.4;56;56.2;5;5.4;29.1;-1.0;
14/06/2019 13:20:00;117;0;210.48;17;22.64;5.90;58.4;10.50;69025;5133.953;-12823.116;212;150;158.4;56;56.2;6;5.9;29.2;-1.0;
14/06/2019 13:20:20;117;0;214.13;17;21.88;6.50;55.6;10.50;69035;5133.953;-12823.116;212;150;158.4;56;56.2;3;3.2;29.1;-1.0;
14/06/2019 13:20:40;117;0;213.54;17;21.93;4.39;53.1;10.40;69024;5133.953;-12823.116;212;150;158.4;56;56.2;3;2.7;29.1;-1.0;
14/06/2019 13:21:00;117;0;211.47;17;21.81;4.49;50.6;10.40;69032;5133.953;-12823.116;212;150;158.4;56;56.0;4;4.1;29.1;-1.0;
14/06/2019 13:21:20;117;0;217.13;17;21.62;5.68;48.3;10.40;69034;5133.953;-12823.116;212;150;158.4;56;56.0;0;-0.5;29.1;-1.0;
14/06/2019 13:21:40;117;0;216.88;17;21.90;2.52;45.8;10.40;69048;5133.953;-12823.116;212;150;158.4;56;56.2;0;-0.9;29.1;-1.0;
14/06/2019 13:22:00;117;0;216.85;17;21.43;2.63;43.3;10.40;69056;5133.953;-12823.116;212;150;158.4;56;56.2;0;-0.9;29.1;-1.0;
14/06/2019 13:22:20;117;0;217.47;17;21.40;2.59;40.8;10.40;69073;5133.953;-12823.116;212;150;158.4;56;56.2;0;-0.9;29.1;-1.0;
14/06/2019 13:22:40;117;0;220.36;17;21.31;2.60;38.4;10.40;69067;5133.953;-12823.116;212;150;158.4;56;56.0;-2;-2.3;29.1;-1.0;
14/06/2019 13:23:00;117;0;219.77;17;21.11;1.81;36.0;10.40;69098;5133.953;-12823.116;212;150;158.4;56;56.0;-1;-0.9;29.1;-1.0;
14/06/2019 13:23:20;117;0;223.46;17;20.65;3.07;33.6;10.40;69103;5133.953;-12823.116;212;150;158.4;56;56.2;-4;-4.1;29.1;-1.0;
14/06/2019 13:23:40;117;0;226.69;17;20.81;1.07;31.4;10.40;69103;5133.953;-12823.116;212;150;158.4;56;56.0;-6;-6.3;29.1;-1.0;
14/06/2019 13:24:00;117;0;223.85;17;20.81;-0.17;29.2;10.40;69128;5133.953;-12823.116;212;150;158.4;56;56.2;-3;-2.7;29.1;-1.0;
14/06/2019 13:24:20;117;0;227.91;17;20.37;2.32;27.0;10.40;69138;5133.953;-12823.116;212;150;158.4;56;56.0;-6;-5.9;29.1;-1.0;
14/06/2019 13:24:40;117;0;224.09;17;20.37;0.53;24.7;10.50;69165;5133.953;-12823.116;212;150;158.4;56;56.2;-5;-5.0;29.1;-1.0;
14/06/2019 13:25:00;117;0;213.17;17;19.52;1.34;22.5;10.50;69176;5133.953;-12823.116;212;150;158.4;56;56.2;0;0.0;29.1;-1.0;
14/06/2019 13:25:20;117;0;218.42;17;18.88;3.76;20.5;10.50;69219;5133.953;-12823.116;212;150;158.4;56;56.2;-5;-5.0;29.1;-1.0;
14/06/2019 13:25:40;117;0;221.09;17;18.78;0.83;18.5;10.50;69264;5133.953;-12823.116;212;150;158.4;56;56.2;-7;-7.2;29.1;-1.0;
14/06/2019 13:26:00;117;0;221.99;17;19.09;-0.47;16.2;10.50;69292;5133.953;-12823.116;212;150;158.4;56;56.2;-7;-7.7;29.1;-1.0;
14/06/2019 13:26:20;117;0;221.50;17;18.43;-0.61;14.2;10.60;69324;5133.953;-12823.116;212;150;158.4;56;56.0;-8;-8.6;29.2;-1.0;
14/06/2019 13:26:40;117;0;221.33;17;18.89;-0.97;12.4;10.60;69356;5133.953;-12823.116;212;150;158.4;56;56.2;-8;-8.6;29.1;-1.0;
14/06/2019 13:27:00;117;0;220.75;17;18.44;-1.18;10.6;10.60;69365;5133.953;-12823.116;212;150;160.4;56;56.2;-8;-9.0;29.1;-1.0;
