Timestamp;NavState;SecurityLevel;Heading;Declination;Pitch;Roll;Depth;Temperature;Pa;Lat;Lon;DesiredH;BallastCmd;BallastPos;LinCmd;LinPos;AngCmd;AngPos;Voltage;Altitude;
14/06/2019 17:28:57;117;0;188.62;17;13.01;3.15;13.6;10.50;69348;5133.337;-12823.833;211;150;158.4;58;58.1;0;0.0;29.1;-1.0;
14/06/2019 17:29:07;110;0;187.70;17;13.17;3.62;12.9;10.50;69355;5133.337;-12823.833;211;-300;33.7;73;73.3;0;0.9;29.1;-1.0;
14/06/2019 17:29:17;110;0;181.97;17;-11.30;4.18;12.5;10.50;69663;5133.337;-12823.833;211;-300;-140.6;73;72.9;0;0.9;29.0;-1.0;
14/06/2019 17:29:27;110;0;182.87;17;-24.52;4.28;13.0;10.50;69905;5133.337;-12823.833;211;-300;-301.0;73;72.9;0;0.9;29.1;-1.0;
14/06/2019 17:29:37;110;0;185.42;17;-27.06;3.77;14.4;10.50;70153;5133.337;-12823.833;211;-300;-303.0;73;72.9;0;0.9;29.1;-1.0;
14/06/2019 17:29:47;100;0;184.63;17;-27.20;3.88;16.0;10.60;70144;5133.337;-12823.833;211;-300;-301.0;73;72.9;0;0.9;29.1;-1.0;
14/06/2019 17:30:07;100;0;170.99;17;-25.60;4.11;19.9;10.60;70146;5133.337;-12823.833;211;-300;-301.0;73;72.9;-10;-9.9;29.1;0.0;
14/06/2019 17:30:27;100;0;170.56;17;-25.14;-1.39;24.1;10.70;70098;5133.337;-12823.833;211;-300;-303.0;73;72.9;-7;-7.2;29.1;0.0;
14/06/2019 17:30:47;100;0;168.01;17;-25.38;0.74;27.7;10.70;70038;5133.337;-12823.833;211;-300;-301.0;73;72.9;-7;-6.3;29.1;0.0;
14/06/2019 17:31:07;100;0;166.23;17;-24.56;0.72;31.6;10.70;70007;5133.337;-12823.833;211;-300;-303.0;73;72.9;-7;-6.3;29.0;0.0;
14/06/2019 17:31:27;100;0;162.53;17;-24.07;0.77;35.3;10.70;69966;5133.337;-12823.833;211;-300;-303.0;73;72.9;-9;-9.0;29.1;0.0;
14/06/2019 17:31:47;100;0;160.42;17;-24.34;-0.91;39.0;10.70;69949;5133.337;-12823.833;211;-300;-301.0;73;72.9;-10;-9.9;29.1;0.0;
14/06/2019 17:32:07;100;0;156.41;17;-24.23;-1.00;42.6;10.60;69920;5133.337;-12823.833;211;-300;-303.0;73;72.9;-12;-12.2;29.1;0.0;
14/06/2019 17:32:27;100;0;147.84;17;-24.30;-2.30;46.2;10.60;69908;5133.337;-12823.833;211;-300;-303.0;73;72.9;-17;-17.6;29.1;0.0;
14/06/2019 17:32:47;100;0;140.55;17;-24.44;-4.79;49.8;10.60;69884;5133.337;-12823.833;211;-300;-305.0;73;72.9;-21;-21.2;29.0;0.0;
14/06/2019 17:33:07;100;0;139.43;17;-24.63;-6.25;53.3;10.60;69864;5133.337;-12823.833;211;-300;-303.0;73;73.0;-21;-21.7;29.1;0.0;
14/06/2019 17:33:27;100;0;135.70;17;-24.08;-6.52;57.1;10.50;69859;5133.337;-12823.833;211;-300;-303.0;73;72.9;-25;-24.8;29.1;0.0;
14/06/2019 17:33:47;100;0;131.06;17;-23.95;-8.19;60.7;10.60;69842;5133.337;-12823.833;211;-300;-303.0;73;73.0;-28;-28.0;29.1;0.0;
14/06/2019 17:34:07;100;0;136.92;17;-24.01;-9.76;64.0;10.50;69841;5133.337;-12823.833;211;-300;-303.0;73;72.9;-26;-26.2;29.1;0.0;
14/06/2019 17:34:27;100;0;143.58;17;-23.96;-8.07;67.5;10.50;69835;5133.337;-12823.833;211;-300;-303.0;73;72.9;-22;-22.1;29.1;0.0;
14/06/2019 17:34:47;100;0;137.70;17;-23.69;-6.34;70.9;10.50;69822;5133.337;-12823.833;211;-300;-303.0;73;73.0;-27;-27.1;29.1;0.0;
14/06/2019 17:35:07;100;0;136.53;17;-23.36;-9.33;74.1;10.50;69825;5133.337;-12823.833;211;-300;-303.0;73;72.9;-27;-27.5;29.1;0.0;
14/06/2019 17:35:27;100;0;136.05;17;-23.54;-9.29;77.2;10.50;69807;5133.337;-12823.833;211;-300;-303.0;73;72.9;-26;-26.2;29.1;0.0;
14/06/2019 17:35:47;100;0;138.57;17;-22.59;-8.37;80.2;10.50;69802;5133.337;-12823.833;211;-300;-301.0;73;72.9;-25;-24.8;29.1;0.0;
14/06/2019 17:36:07;100;0;149.07;17;-22.58;-7.91;83.2;10.50;69799;5133.337;-12823.833;211;-300;-303.0;73;72.9;-19;-18.5;29.1;0.0;
14/06/2019 17:36:27;100;0;151.47;17;-22.02;-4.76;86.2;10.40;69789;5133.337;-12823.833;211;-300;-303.0;73;72.9;-20;-19.9;29.1;0.0;
14/06/2019 17:36:47;100;0;153.79;17;-22.38;-5.86;89.1;10.40;69789;5133.337;-12823.833;211;-300;-303.0;73;73.0;-20;-20.3;29.1;0.0;
14/06/2019 17:37:07;100;0;160.06;17;-21.57;-5.83;92.1;10.40;69791;5133.337;-12823.833;211;-300;-303.0;73;72.9;-17;-16.7;29.1;0.0;
14/06/2019 17:37:28;100;0;157.82;17;-21.12;-3.94;95.1;10.40;69768;5133.337;-12823.833;211;-300;-301.0;73;72.9;-21;-21.7;29.1;0.0;
14/06/2019 17:37:48;100;0;155.87;17;-21.40;-6.77;97.9;10.40;69765;5133.337;-12823.833;211;-300;-303.0;73;72.9;-22;-22.1;29.1;0.0;
14/06/2019 17:38:08;100;0;157.50;17;-21.23;-6.79;100.8;10.30;69749;5133.337;-12823.833;211;-300;-303.0;73;72.9;-21;-20.8;29.1;0.0;
14/06/2019 17:38:28;100;0;154.89;17;-21.08;-5.85;103.5;10.30;69752;5133.337;-12823.833;211;-300;-303.0;73;72.9;-23;-23.0;29.1;0.0;
14/06/2019 17:38:48;100;0;151.77;17;-21.29;-7.52;106.2;10.30;69738;5133.337;-12823.833;211;-300;-301.0;73;72.9;-24;-24.4;29.1;0.0;
14/06/2019 17:39:08;100;0;151.87;17;-20.81;-8.06;108.8;10.30;69735;5133.337;-12823.833;211;-300;-303.0;73;72.9;-24;-24.4;29.1;0.0;
14/06/2019 17:39:28;100;0;151.97;17;-21.15;-8.09;111.3;10.30;69733;5133.337;-12823.833;211;-300;-303.0;73;72.9;-23;-23.0;29.1;0.0;
14/06/2019 17:39:48;100;0;149.36;17;-21.05;-6.91;113.9;10.30;69725;5133.337;-12823.833;211;-300;-303.0;73;72.9;-24;-23.9;29.1;0.0;
14/06/2019 17:40:08;100;0;148.95;17;-20.69;-8.00;116.4;10.20;69717;5133.337;-12823.833;211;-300;-303.0;73;73.0;-24;-24.4;29.1;0.0;
14/06/2019 17:40:28;100;0;150.34;17;-20.72;-8.02;119.0;10.20;69715;5133.337;-12823.833;211;-300;-303.0;73;72.9;-23;-22.6;29.1;0.0;
14/06/2019 17:40:48;100;0;151.36;17;-20.50;-6.82;121.6;10.20;69711;5133.337;-12823.833;211;-300;-303.0;73;72.9;-22;-22.1;29.1;0.0;
14/06/2019 17:41:08;100;0;152.34;17;-20.33;-6.80;124.0;10.20;69700;5133.337;-12823.833;211;-300;-301.0;73;72.9;-22;-22.1;29.1;0.0;
14/06/2019 17:41:28;100;0;156.07;17;-20.38;-6.90;126.3;10.20;69701;5133.337;-12823.833;211;-300;-303.0;73;72.9;-20;-19.9;29.1;0.0;
14/06/2019 17:41:48;100;0;157.57;17;-20.41;-5.35;128.6;10.10;69688;5133.337;-12823.833;211;-300;-303.0;73;73.0;-20;-19.0;29.1;0.0;
14/06/2019 17:42:08;100;0;157.57;17;-20.47;-5.42;130.9;10.10;69689;5133.337;-12823.833;211;-300;-303.0;73;72.9;-21;-21.7;29.1;0.0;
14/06/2019 17:42:28;100;0;167.44;17;-20.31;-6.84;133.2;10.10;69688;5133.337;-12823.833;211;-300;-303.0;73;72.9;-16;-15.8;29.1;0.0;
14/06/2019 17:42:48;100;0;171.06;17;-19.77;-3.44;135.6;10.10;69681;5133.337;-12823.833;211;-300;-303.0;73;72.9;-15;-14.9;29.1;42.6;
14/06/2019 17:43:08;100;0;181.00;17;-19.31;-3.45;138.2;10.10;69673;5133.337;-12823.833;211;-300;-303.0;73;72.9;-11;-10.8;29.1;40.0;
14/06/2019 17:43:28;100;0;185.23;17;-19.03;-1.04;140.5;10.00;69654;5133.337;-12823.833;211;-300;-303.0;73;73.0;-12;-12.2;29.1;37.6;
14/06/2019 17:43:48;100;0;181.45;17;-18.85;-2.61;142.8;10.00;69648;5133.337;-12823.833;211;-300;-303.0;73;72.9;-16;-15.8;29.1;35.3;
14/06/2019 17:44:08;100;0;178.68;17;-19.24;-4.27;145.0;10.00;69636;5133.337;-12823.833;211;-300;-303.0;73;72.9;-18;-18.1;29.1;33.1;
14/06/2019 17:44:28;100;0;178.10;17;-19.34;-5.19;147.2;10.00;69621;5133.337;-12823.833;211;-300;-303.0;73;72.9;-18;-18.5;29.1;30.9;
14/06/2019 17:44:48;100;0;178.34;17;-19.41;-5.18;149.3;9.90;69614;5133.337;-12823.833;211;-300;-303.0;73;72.9;-18;-18.5;29.1;28.8;
14/06/2019 17:45:08;100;0;179.87;17;-19.54;-5.27;151.4;9.90;69606;5133.337;-12823.833;211;-300;-303.0;73;72.9;-17;-17.1;29.1;26.5;
14/06/2019 17:45:28;100;0;177.25;17;-19.08;-4.16;153.6;9.90;69590;5133.337;-12823.833;211;-300;-303.0;73;72.9;-18;-18.5;29.1;24.3;
14/06/2019 17:45:48;100;0;176.43;17;-19.08;-5.25;155.8;9.90;69592;5133.337;-12823.833;211;-300;-301.0;73;72.9;-19;-19.0;29.1;22.0;
14/06/2019 17:46:08;100;0;177.19;17;-18.83;-5.55;158.0;9.80;69588;5133.337;-12823.833;211;-300;-303.0;73;72.9;-18;-17.6;29.1;19.7;
14/06/2019 17:46:28;118;0;177.80;17;-18.87;-4.56;160.3;9.80;69579;5133.337;-12823.833;211;150;-289.1;58;57.8;0;0.9;29.1;17.5;
14/06/2019 17:46:38;118;0;141.72;17;0.43;3.87;161.2;9.80;69487;5133.337;-12823.833;211;150;-132.7;58;58.1;0;0.9;28.6;17.5;
14/06/2019 17:46:48;118;0;141.42;17;16.35;3.59;161.0;9.80;69278;5133.337;-12823.833;211;150;21.8;58;58.1;0;0.9;28.6;-1.0;
14/06/2019 17:46:58;118;0;141.08;17;20.79;3.79;160.1;9.80;69028;5133.337;-12823.833;211;150;156.4;58;58.1;0;0.9;28.6;-1.0;
14/06/2019 17:47:08;118;0;178.47;17;21.71;4.13;159.1;9.80;68832;5133.337;-12823.833;211;150;154.5;58;58.1;0;0.9;29.1;-1.0;
14/06/2019 17:47:18;118;0;178.29;17;23.93;3.83;157.7;9.80;68838;5133.337;-12823.833;211;150;156.4;58;58.1;0;0.9;29.1;-1.0;
14/06/2019 17:47:28;117;0;178.01;17;24.73;3.68;156.1;9.80;68823;5133.337;-12823.833;211;150;156.4;58;58.1;0;0.9;29.1;-1.0;
14/06/2019 17:47:48;117;0;179.44;17;24.92;3.84;152.6;9.70;68817;5133.337;-12823.833;211;150;156.4;58;58.1;17;17.1;29.1;-1.0;
14/06/2019 17:48:08;117;0;185.95;17;24.78;12.00;148.5;9.70;68814;5133.337;-12823.833;211;150;156.4;58;58.1;14;14.0;29.1;-1.0;
14/06/2019 17:48:28;117;0;189.85;17;24.88;9.78;144.6;9.70;68832;5133.337;-12823.833;211;150;154.5;58;58.1;13;13.1;29.1;-1.0;
14/06/2019 17:48:48;117;0;193.37;17;24.44;9.59;140.7;9.70;68828;5133.337;-12823.833;211;150;156.4;58;58.1;13;13.1;29.1;-1.0;
14/06/2019 17:49:08;117;0;186.33;17;24.75;9.70;136.9;9.70;68829;5133.337;-12823.833;211;150;156.4;58;58.1;17;17.1;29.0;-1.0;
14/06/2019 17:49:28;117;0;186.09;17;23.87;12.02;133.4;9.60;68839;5133.337;-12823.833;211;150;156.4;58;58.1;16;15.3;29.1;-1.0;
14/06/2019 17:49:48;117;0;182.60;17;24.17;10.67;129.8;9.60;68847;5133.337;-12823.833;211;150;156.4;58;58.3;18;18.1;29.1;-1.0;
14/06/2019 17:50:08;117;0;188.08;17;23.40;12.67;126.2;9.60;68862;5133.337;-12823.833;211;150;156.4;58;58.1;14;13.5;29.1;-1.0;
14/06/2019 17:50:28;117;0;189.88;17;23.30;9.63;122.6;9.60;68860;5133.337;-12823.833;211;150;156.4;58;58.1;14;13.1;29.1;-1.0;
14/06/2019 17:50:48;117;0;191.61;17;23.13;9.62;119.1;9.60;68859;5133.337;-12823.833;211;150;156.4;58;58.1;14;13.1;29.0;-1.0;
14/06/2019 17:51:08;117;0;193.89;17;22.76;9.65;115.7;9.60;68875;5133.337;-12823.833;211;150;156.4;58;58.1;14;13.1;29.1;-1.0;
14/06/2019 17:51:28;117;0;198.45;17;22.14;9.69;112.4;9.60;68878;5133.337;-12823.833;211;150;156.4;58;58.0;11;10.4;29.1;-1.0;
14/06/2019 17:51:48;117;0;205.36;17;22.31;8.27;109.2;9.50;68869;5133.337;-12823.833;211;150;156.4;58;58.1;8;8.1;29.1;-1.0;
14/06/2019 17:52:08;117;0;208.69;17;22.39;6.88;105.9;9.50;68871;5133.337;-12823.833;211;150;156.4;58;58.1;8;7.2;29.1;-1.0;
14/06/2019 17:52:28;117;0;210.83;17;22.13;7.01;102.7;9.50;68882;5133.337;-12823.833;211;150;156.4;58;58.1;7;7.2;29.1;-1.0;
14/06/2019 17:52:48;117;0;214.94;17;21.88;6.70;99.7;9.50;68885;5133.337;-12823.833;211;150;156.4;58;58.1;6;5.9;29.1;-1.0;
14/06/2019 17:53:08;117;0;216.38;17;22.47;5.89;96.7;9.50;68882;5133.337;-12823.833;211;150;156.4;58;58.1;5;5.0;29.1;-1.0;
14/06/2019 17:53:28;117;0;216.12;17;21.65;5.52;93.6;9.50;68882;5133.337;-12823.833;211;150;156.4;58;58.1;6;6.3;29.1;-1.0;
14/06/2019 17:53:48;117;0;213.15;17;21.53;6.89;90.6;9.50;68899;5133.337;-12823.833;211;150;156.4;58;58.1;7;7.2;29.1;-1.0;
14/06/2019 17:54:08;117;0;209.84;17;21.31;7.52;87.7;9.50;68904;5133.337;-12823.833;211;150;156.4;58;58.1;9;9.0;29.1;-1.0;
14/06/2019 17:54:28;117;0;212.32;17;20.66;8.14;84.7;9.50;68904;5133.337;-12823.833;211;150;156.4;58;58.1;5;5.0;29.1;-1.0;
14/06/2019 17:54:48;117;0;208.35;17;20.75;5.89;81.7;9.50;68912;5133.337;-12823.833;211;150;156.4;58;58.0;7;7.2;29.1;-1.0;
14/06/2019 17:55:08;117;0;206.64;17;20.12;7.43;78.6;9.50;68915;5133.337;-12823.833;211;150;156.4;58;58.1;7;8.1;29.1;-1.0;
14/06/2019 17:55:28;117;0;208.55;17;19.39;7.51;75.9;9.50;68922;5133.337;-12823.833;211;150;158.4;58;58.1;5;5.0;29.1;-1.0;
14/06/2019 17:55:48;117;0;213.74;17;18.70;5.70;73.4;9.50;68926;5133.337;-12823.833;211;150;156.4;58;58.1;1;0.5;29.1;-1.0;
14/06/2019 17:56:08;117;0;216.11;17;18.66;3.36;70.9;9.50;68946;5133.337;-12823.833;211;150;156.4;58;58.1;0;0.0;29.1;-1.0;
14/06/2019 17:56:28;117;0;215.57;17;18.65;3.36;68.7;9.50;68940;5133.337;-12823.833;211;150;156.4;58;58.1;1;0.9;29.1;-1.0;
14/06/2019 17:56:48;117;0;217.88;17;18.03;4.07;66.4;9.50;68954;5133.337;-12823.833;211;150;156.4;58;58.1;0;0.0;29.1;-1.0;
14/06/2019 17:57:08;117;0;210.90;17;18.32;2.91;64.3;9.50;68953;5133.337;-12823.833;211;150;156.4;58;58.1;3;3.2;29.1;-1.0;
14/06/2019 17:57:28;117;0;210.49;17;18.11;5.37;62.2;9.50;68962;5133.337;-12823.833;211;150;156.4;58;58.1;2;1.4;29.1;-1.0;
14/06/2019 17:57:48;117;0;211.50;17;17.35;3.83;60.1;9.50;68957;5133.337;-12823.833;211;150;156.4;58;58.1;0;0.0;29.1;-1.0;
14/06/2019 17:58:08;117;0;210.40;17;17.35;3.00;58.1;9.50;68959;5133.337;-12823.833;211;150;156.4;58;58.1;0;-0.9;29.1;-1.0;
14/06/2019 17:58:28;117;0;210.27;17;17.32;3.02;56.1;9.50;68951;5133.337;-12823.833;211;150;154.5;58;58.1;0;-0.9;29.1;-1.0;
14/06/2019 17:58:48;117;0;210.05;17;17.29;2.92;54.0;9.50;68961;5133.337;-12823.833;211;150;156.4;58;58.1;-1;-0.9;29.1;-1.0;
14/06/2019 17:59:08;117;0;208.09;17;17.27;2.97;52.0;9.50;68964;5133.337;-12823.833;211;150;156.4;58;58.1;0;0.5;29.1;-1.0;
14/06/2019 17:59:28;117;0;207.34;17;16.98;3.93;50.1;9.50;68969;5133.337;-12823.833;211;150;156.4;58;58.1;0;0.5;29.1;-1.0;
14/06/2019 17:59:48;117;0;209.98;17;16.67;3.84;48.0;9.50;68969;5133.337;-12823.833;211;150;156.4;58;58.1;-3;-3.2;29.1;-1.0;
14/06/2019 18:00:08;117;0;209.29;17;16.74;1.67;46.0;9.50;68971;5133.337;-12823.833;211;150;156.4;58;58.1;-3;-4.1;29.1;-1.0;
14/06/2019 18:00:28;117;0;209.86;17;16.74;1.60;43.9;9.50;68979;5133.337;-12823.833;211;150;156.4;58;58.1;-3;-3.6;29.1;-1.0;
14/06/2019 18:00:48;117;0;210.56;17;16.70;1.65;41.9;9.50;68973;5133.337;-12823.833;211;150;156.4;58;58.1;-5;-5.0;29.1;-1.0;
14/06/2019 18:01:08;117;0;208.78;17;16.73;0.67;39.8;9.60;68992;5133.337;-12823.833;211;150;156.4;58;58.1;-4;-4.1;29.1;-1.0;
14/06/2019 18:01:28;117;0;208.07;17;16.30;1.93;37.8;9.60;68989;5133.337;-12823.833;211;150;156.4;58;58.1;-5;-5.0;29.1;-1.0;
14/06/2019 18:01:48;117;0;205.13;17;16.45;0.80;35.8;9.60;68995;5133.337;-12823.833;211;150;156.4;58;58.0;-3;-3.2;29.1;-1.0;
14/06/2019 18:02:08;117;0;201.18;17;16.18;2.25;33.9;9.60;68997;5133.337;-12823.833;211;150;156.4;58;58.1;-2;-1.4;29.0;-1.0;
14/06/2019 18:02:28;117;0;200.74;17;15.66;3.10;32.0;9.60;69013;5133.337;-12823.833;211;150;156.4;58;58.1;-3;-3.2;29.1;-1.0;
14/06/2019 18:02:48;117;0;197.75;17;15.71;1.73;30.2;9.60;69021;5133.337;-12823.833;211;150;156.4;58;58.1;-2;-1.8;29.1;-1.0;
14/06/2019 18:03:08;117;0;196.17;17;15.45;2.97;28.4;9.60;69036;5133.337;-12823.833;211;150;156.4;58;58.1;-2;-0.9;29.1;-1.0;
14/06/2019 18:03:28;117;0;191.10;17;15.76;2.86;26.8;9.60;69044;5133.337;-12823.833;211;150;158.4;58;58.1;-2;-0.9;29.1;-1.0;
14/06/2019 18:03:48;117;0;189.41;17;15.42;2.94;25.0;9.60;69067;5133.337;-12823.833;211;150;156.4;58;58.1;0;0.0;29.1;-1.0;
14/06/2019 18:04:08;117;0;192.38;17;15.20;3.76;23.2;9.60;69069;5133.337;-12823.833;211;150;156.4;58;58.1;-3;-3.2;29.1;-1.0;
14/06/2019 18:04:28;117;0;192.37;17;15.09;1.87;21.5;9.70;69084;5133.337;-12823.833;211;150;156.4;58;58.1;-3;-3.6;29.1;-1.0;
14/06/2019 18:04:48;117;0;186.32;17;14.23;1.63;19.9;9.70;69098;5133.337;-12823.833;211;150;156.4;58;58.1;0;0.0;29.1;-1.0;
14/06/2019 18:05:08;117;0;183.63;17;13.74;3.87;18.3;9.70;69160;5133.337;-12823.833;211;150;156.4;58;58.1;1;0.9;29.1;-1.0;
14/06/2019 18:05:28;117;0;185.97;17;13.19;4.05;16.7;9.70;69183;5133.337;-12823.833;211;150;156.4;58;58.1;0;0.0;29.1;-1.0;
14/06/2019 18:05:48;117;0;186.56;17;13.53;2.99;15.2;9.80;69225;5133.337;-12823.833;211;150;156.4;58;58.1;0;-0.9;29.1;-1.0;
14/06/2019 18:06:08;117;0;185.32;17;13.28;3.11;13.7;9.80;69254;5133.337;-12823.833;211;150;156.4;58;58.1;0;-0.9;29.1;-1.0;
14/06/2019 18:06:28;117;0;182.40;17;13.32;2.95;12.2;9.90;69284;5133.337;-12823.833;211;150;156.4;58;58.1;2;1.8;29.1;-1.0;
14/06/2019 18:06:48;117;0;185.32;17;13.52;4.95;10.8;9.90;69315;5133.337;-12823.833;211;150;156.4;58;58.1;0;0.0;29.1;-1.0;
