Timestamp;NavState;SecurityLevel;Heading;Declination;Pitch;Roll;Depth;Temperature;Pa;Lat;Lon;DesiredH;BallastCmd;BallastPos;LinCmd;LinPos;AngCmd;AngPos;Voltage;Altitude;
15/06/2019 04:24:38;117;0;226.97;17;14.19;2.33;9.4;10.60;69430;5127.810;-12828.596;245;150;156.4;57;57.1;-4;-4.1;29.0;-1.0;
15/06/2019 04:24:48;115;0;228.76;17;13.80;1.16;8.7;10.60;69440;5127.810;-12828.596;245;500;166.3;100;100.7;0;0.9;29.0;-1.0;
15/06/2019 04:24:58;115;0;199.93;17;-30.94;4.67;8.2;10.60;69360;5127.810;-12828.596;245;500;318.8;100;100.0;0;0.9;28.7;-1.0;
15/06/2019 04:25:08;115;0;181.97;17;-69.59;2.76;8.6;10.70;69167;5127.810;-12828.596;245;500;469.3;100;100.0;0;0.9;28.6;-1.0;
15/06/2019 04:25:18;115;0;153.37;17;-57.52;1.71;7.2;10.70;68926;5127.810;-12828.596;245;500;505.0;100;100.0;0;0.9;28.7;-1.0;
15/06/2019 04:25:28;115;0;161.17;17;-39.72;5.24;4.0;10.70;68903;5127.810;-12828.596;245;500;506.9;100;100.0;0;0.9;29.0;-1.0;
15/06/2019 04:25:38;116;0;88.70;17;-28.70;2.16;1.4;10.70;68914;5127.810;-12828.596;245;500;508.9;100;99.9;0;0.9;29.0;-1.0;
15/06/2019 04:25:58;116;0;75.04;17;-17.36;4.19;1.3;10.80;68942;5127.810;-12828.596;245;500;508.9;100;99.9;0;1.4;29.0;-1.0;
15/06/2019 04:26:18;116;0;68.12;17;-31.42;3.97;1.5;10.90;68958;5127.675;-12828.746;245;500;508.9;100;99.9;0;0.9;29.0;-1.0;
15/06/2019 04:26:38;116;0;66.69;17;-23.37;2.08;1.3;11.00;68963;5127.674;-12828.746;246;500;508.9;100;99.9;0;0.9;29.0;-1.0;
15/06/2019 04:26:58;116;0;51.34;17;-25.12;8.36;1.3;11.10;68975;5127.670;-12828.744;246;500;508.9;100;99.9;0;0.9;29.0;-1.0;
15/06/2019 04:28:04;116;0;355.98;17;-26.06;1.85;1.4;11.60;69005;5127.670;-12828.744;246;500;508.9;100;99.9;0;0.9;29.0;-1.0;
15/06/2019 04:28:24;116;0;331.15;17;-20.15;4.18;1.2;11.80;69022;5127.670;-12828.742;246;500;508.9;100;99.9;0;0.9;29.0;-1.0;
15/06/2019 04:28:44;116;0;303.80;17;-10.07;4.88;1.2;11.90;69025;5127.667;-12828.766;246;500;508.9;100;99.9;0;0.9;29.0;-1.0;
15/06/2019 04:34:20;116;0;288.99;17;-16.51;1.75;1.3;13.10;69124;5127.667;-12828.766;246;500;508.9;100;99.9;0;0.9;28.9;-1.0;
15/06/2019 04:34:40;116;0;285.50;17;-5.58;5.46;1.2;13.10;69128;5127.667;-12828.767;246;500;508.9;100;99.9;0;0.9;29.0;-1.0;
15/06/2019 04:35:00;116;0;275.47;17;-5.41;-0.95;1.2;13.20;69123;5127.667;-12828.769;246;500;508.9;100;99.9;0;0.9;29.0;-1.0;
15/06/2019 04:35:20;116;0;274.18;17;-11.02;3.81;1.2;13.30;69132;5127.667;-12828.770;246;500;510.9;100;99.9;0;0.9;29.0;-1.0;
15/06/2019 04:35:40;116;0;299.12;17;-35.10;1.98;1.5;13.30;69139;5127.667;-12828.770;246;500;508.9;100;99.9;0;0.9;29.0;-1.0;
15/06/2019 04:36:00;116;0;302.78;17;-14.83;4.96;1.2;13.40;69151;5127.667;-12828.773;246;500;508.9;100;99.9;0;0.9;29.0;-1.0;
15/06/2019 04:36:20;116;0;300.98;17;-9.63;-0.10;1.2;13.40;69137;5127.666;-12828.774;246;500;508.9;100;99.9;0;0.9;29.0;-1.0;
15/06/2019 04:36:40;116;0;289.03;17;-7.12;6.30;1.2;13.50;69153;5127.666;-12828.773;246;500;508.9;100;99.9;0;0.9;29.0;-1.0;
15/06/2019 04:37:00;116;0;273.56;17;-10.96;3.81;1.2;13.50;69149;5127.666;-12828.774;246;500;508.9;100;99.9;0;0.9;29.0;-1.0;
15/06/2019 04:37:20;116;0;274.02;17;-9.35;-0.45;1.2;13.60;69154;5127.666;-12828.777;246;500;508.9;100;99.9;0;0.9;29.0;-1.0;
15/06/2019 04:37:57;116;0;264.67;17;-6.50;-0.29;1.2;13.70;69167;5127.666;-12828.777;246;500;508.9;100;99.9;0;0.9;29.0;-1.0;
15/06/2019 04:38:17;116;0;272.51;17;-5.85;1.09;1.2;13.70;69170;5127.667;-12828.779;246;500;508.9;100;99.7;0;0.9;29.0;-1.0;
15/06/2019 04:38:37;116;0;253.26;17;-9.69;5.65;1.2;13.80;69164;5127.665;-12828.784;246;500;508.9;100;99.9;0;0.9;29.0;-1.0;
15/06/2019 04:38:59;110;0;261.57;17;-7.90;0.50;1.2;13.80;69171;5127.665;-12828.784;246;-300;407.9;100;99.9;0;0.9;29.0;-1.0;
15/06/2019 04:39:09;110;0;265.22;17;-10.73;5.48;1.2;13.90;69417;5127.665;-12828.784;246;-300;265.3;100;99.9;0;0.9;28.9;-1.0;
15/06/2019 04:39:19;110;0;272.12;17;-5.93;5.79;1.2;13.90;69592;5127.665;-12828.784;246;-300;124.8;100;99.9;0;0.9;28.9;-1.0;
15/06/2019 04:39:29;110;0;285.74;17;-24.37;4.77;1.5;13.90;69836;5127.665;-12828.784;246;-300;-41.6;100;100.0;0;0.9;28.9;-1.0;
15/06/2019 04:39:39;110;0;300.30;17;-60.20;3.33;2.7;13.90;70103;5127.665;-12828.784;246;-300;-247.5;96;95.8;0;0.9;28.9;-1.0;
15/06/2019 04:39:49;110;0;295.66;17;-62.24;5.68;4.8;13.90;70458;5127.665;-12828.784;246;-300;-303.0;78;77.9;0;0.9;28.9;-1.0;
15/06/2019 04:39:59;110;0;293.45;17;-46.21;3.90;8.2;13.90;70512;5127.665;-12828.784;246;-300;-303.0;73;72.9;0;0.9;29.0;-1.0;
15/06/2019 04:40:09;100;0;280.94;17;-37.66;4.21;11.9;13.90;70498;5127.665;-12828.784;246;-300;-301.0;73;72.9;0;0.9;29.0;-1.0;
15/06/2019 04:40:29;100;0;280.19;17;-28.68;4.31;18.1;14.00;70475;5127.665;-12828.784;246;-300;-297.0;73;72.9;32;32.0;29.0;0.0;
15/06/2019 04:40:49;100;0;263.65;17;-23.57;18.85;23.2;13.90;70432;5127.665;-12828.784;246;-300;-297.0;73;72.7;13;13.1;29.0;0.0;
15/06/2019 04:41:09;100;0;252.09;17;-24.42;8.90;27.3;13.90;70380;5127.665;-12828.784;246;-300;-297.0;73;72.9;6;5.9;29.0;0.0;
15/06/2019 04:41:29;100;0;248.47;17;-24.48;5.87;31.1;13.80;70308;5127.665;-12828.784;246;-300;-297.0;73;72.9;5;5.0;29.0;0.0;
15/06/2019 04:41:49;100;0;238.39;17;-24.32;5.16;34.9;13.80;70253;5127.665;-12828.784;246;-300;-297.0;73;72.7;1;0.9;29.0;0.0;
15/06/2019 04:42:09;100;0;232.30;17;-24.67;3.40;38.6;13.70;70198;5127.665;-12828.784;246;-300;-295.0;73;72.7;0;-0.5;29.0;0.0;
15/06/2019 04:42:29;100;0;221.00;17;-24.39;2.86;42.4;13.60;70174;5127.665;-12828.784;246;-300;-295.0;73;72.7;0;-0.9;29.0;0.0;
15/06/2019 04:42:49;100;0;209.46;17;-24.17;2.84;46.2;13.50;70126;5127.665;-12828.784;246;-300;-297.0;73;72.7;-7;-7.7;29.0;0.0;
15/06/2019 04:43:09;100;0;203.85;17;-24.00;-0.36;50.0;13.50;70095;5127.665;-12828.784;246;-300;-297.0;73;72.7;-8;-8.1;29.0;0.0;
15/06/2019 04:43:29;100;0;204.36;17;-24.72;-0.32;53.5;13.40;70074;5127.665;-12828.784;246;-300;-295.0;73;72.7;-5;-5.0;29.0;0.0;
15/06/2019 04:43:49;100;0;195.93;17;-23.82;1.67;57.0;13.30;70046;5127.665;-12828.784;246;-300;-297.0;73;72.7;-9;-9.5;29.0;0.0;
15/06/2019 04:44:09;100;0;191.46;17;-24.13;-1.14;60.4;13.30;70034;5127.665;-12828.784;246;-300;-295.0;73;72.7;-10;-9.9;29.0;0.0;
15/06/2019 04:44:29;100;0;190.94;17;-23.97;-1.18;63.7;13.20;70015;5127.665;-12828.784;246;-300;-293.1;73;72.7;-9;-9.0;29.0;0.0;
15/06/2019 04:44:49;100;0;187.88;17;-23.83;-0.42;67.1;13.10;69996;5127.665;-12828.784;246;-300;-295.0;73;72.7;-10;-9.9;29.0;0.0;
15/06/2019 04:45:09;100;0;179.69;17;-23.65;-1.61;70.3;13.10;69984;5127.665;-12828.784;246;-300;-295.0;73;72.7;-15;-14.9;29.0;0.0;
15/06/2019 04:45:29;100;0;179.20;17;-23.67;-3.92;73.5;13.00;69972;5127.665;-12828.784;246;-300;-295.0;73;72.7;-15;-15.8;29.0;0.0;
15/06/2019 04:45:49;100;0;176.87;17;-23.76;-3.94;76.7;12.90;69959;5127.665;-12828.784;246;-300;-295.0;73;72.7;-18;-18.1;29.0;0.0;
15/06/2019 04:46:09;100;0;178.07;17;-23.28;-5.02;79.8;12.90;69954;5127.665;-12828.784;246;-300;-295.0;73;72.7;-18;-18.5;29.0;0.0;
15/06/2019 04:46:29;100;0;172.56;17;-23.60;-5.00;82.9;12.80;69953;5127.665;-12828.784;246;-300;-295.0;73;72.7;-23;-23.0;29.0;0.0;
15/06/2019 04:46:49;100;0;171.64;17;-23.26;-7.35;86.1;12.70;69921;5127.665;-12828.784;246;-300;-293.1;73;72.7;-25;-24.8;29.0;0.0;
15/06/2019 04:47:09;100;0;174.61;17;-22.83;-8.51;89.3;12.70;69914;5127.665;-12828.784;246;-300;-295.0;73;72.7;-25;-25.3;29.0;0.0;
15/06/2019 04:47:29;100;0;180.35;17;-23.31;-8.71;92.4;12.60;69912;5127.665;-12828.784;246;-300;-295.0;73;72.7;-22;-22.1;29.0;0.0;
15/06/2019 04:47:49;100;0;193.10;17;-22.72;-6.41;95.5;12.60;69896;5127.665;-12828.784;246;-300;-295.0;73;72.7;-15;-14.4;29.0;0.0;
15/06/2019 04:48:09;100;0;197.37;17;-21.38;-2.75;98.7;12.50;69881;5127.665;-12828.784;246;-300;-295.0;73;72.7;-16;-15.8;29.0;0.0;
15/06/2019 04:48:29;100;0;191.81;17;-21.01;-4.03;101.6;12.50;69875;5127.665;-12828.784;246;-300;-293.1;73;72.7;-22;-22.1;29.0;0.0;
15/06/2019 04:48:49;100;0;189.22;17;-21.15;-7.07;104.4;12.40;69865;5127.665;-12828.784;246;-300;-293.1;73;72.7;-23;-23.0;29.0;0.0;
15/06/2019 04:49:09;100;0;188.43;17;-21.50;-7.20;107.1;12.40;69853;5127.665;-12828.784;246;-300;-295.0;73;72.7;-23;-22.6;29.0;0.0;
15/06/2019 04:49:29;100;0;196.78;17;-21.65;-7.06;109.6;12.30;69843;5127.665;-12828.784;246;-300;-295.0;73;72.7;-18;-18.1;29.0;0.0;
15/06/2019 04:49:49;100;0;191.55;17;-21.17;-4.42;112.4;12.20;69836;5127.665;-12828.784;246;-300;-295.0;73;72.7;-22;-22.1;29.0;0.0;
15/06/2019 04:50:09;100;0;185.34;17;-21.10;-6.99;115.0;12.20;69814;5127.665;-12828.784;246;-300;-293.1;73;72.7;-26;-26.6;29.0;0.0;
15/06/2019 04:50:29;100;0;187.32;17;-21.44;-9.31;117.3;12.20;69825;5127.665;-12828.784;246;-300;-295.0;73;72.7;-23;-23.0;29.0;0.0;
15/06/2019 04:50:49;100;0;197.10;17;-20.79;-6.93;119.8;12.10;69805;5127.665;-12828.784;246;-300;-293.1;73;72.7;-17;-17.1;29.0;0.0;
15/06/2019 04:51:09;100;0;201.99;17;-20.06;-4.04;122.2;12.00;69791;5127.665;-12828.784;246;-300;-293.1;73;72.7;-17;-16.7;29.0;0.0;
15/06/2019 04:51:29;100;0;195.80;17;-19.82;-4.04;124.7;12.00;69770;5127.665;-12828.784;246;-300;-295.0;73;72.7;-22;-22.6;29.0;0.0;
15/06/2019 04:51:49;100;0;188.69;17;-20.17;-7.27;126.9;11.90;69777;5127.665;-12828.784;246;-300;-293.1;73;72.7;-25;-24.8;29.0;0.0;
15/06/2019 04:52:09;100;0;193.79;17;-19.84;-8.39;129.2;11.90;69762;5127.665;-12828.784;246;-300;-293.1;73;72.7;-21;-21.2;29.0;0.0;
15/06/2019 04:52:29;100;0;198.71;17;-19.46;-5.99;131.4;11.80;69744;5127.665;-12828.784;246;-300;-295.0;73;72.7;-18;-18.1;29.0;0.0;
15/06/2019 04:52:49;100;0;199.69;17;-19.73;-4.55;133.5;11.80;69725;5127.665;-12828.784;246;-300;-293.1;73;72.7;-19;-19.0;29.0;0.0;
15/06/2019 04:53:09;100;0;202.42;17;-18.84;-5.52;135.8;11.70;69725;5127.665;-12828.784;246;-300;-295.0;73;72.7;-18;-17.6;29.0;0.0;
15/06/2019 04:53:29;100;0;202.42;17;-18.79;-4.39;137.8;11.70;69707;5127.665;-12828.784;246;-300;-293.1;73;72.7;-19;-19.0;29.0;0.0;
15/06/2019 04:53:49;100;0;198.83;17;-18.92;-5.50;140.0;11.60;69685;5127.665;-12828.784;246;-300;-293.1;73;72.7;-21;-21.2;29.0;0.0;
15/06/2019 04:54:09;100;0;196.23;17;-18.83;-6.62;142.1;11.50;69675;5127.665;-12828.784;246;-300;-293.1;73;72.7;-22;-22.1;29.0;0.0;
15/06/2019 04:54:29;100;0;197.05;17;-18.70;-7.13;144.2;11.50;69656;5127.665;-12828.784;246;-300;-293.1;73;72.7;-21;-21.2;29.0;0.0;
15/06/2019 04:54:49;100;0;200.35;17;-18.64;-6.03;146.3;11.40;69643;5127.665;-12828.784;246;-300;-293.1;73;72.7;-19;-19.0;29.0;0.0;
15/06/2019 04:55:09;100;0;200.00;17;-18.65;-5.13;148.4;11.40;69636;5127.665;-12828.784;246;-300;-293.1;73;72.7;-20;-19.9;29.0;0.0;
15/06/2019 04:55:29;100;0;199.99;17;-18.87;-6.05;150.4;11.30;69622;5127.665;-12828.784;246;-300;-293.1;73;72.7;-20;-20.3;29.0;0.0;
15/06/2019 04:55:49;100;0;201.93;17;-18.83;-6.05;152.4;11.20;69613;5127.665;-12828.784;246;-300;-293.1;73;72.7;-19;-19.0;29.0;0.0;
15/06/2019 04:56:09;100;0;202.46;17;-18.83;-5.12;154.5;11.20;69610;5127.665;-12828.784;246;-300;-293.1;73;72.7;-19;-18.1;29.0;44.8;
15/06/2019 04:56:29;100;0;201.25;17;-18.85;-5.07;156.6;11.10;69586;5127.665;-12828.784;246;-300;-293.1;73;72.7;-20;-19.9;29.0;42.8;
15/06/2019 04:56:49;100;0;201.21;17;-18.83;-5.96;158.7;11.10;69590;5127.665;-12828.784;246;-300;-293.1;73;72.7;-20;-20.3;29.0;40.6;
15/06/2019 04:57:09;100;0;200.92;17;-18.68;-5.96;160.8;11.00;69576;5127.665;-12828.784;246;-300;-293.1;73;72.7;-20;-20.3;29.0;38.5;
15/06/2019 04:57:29;100;0;200.91;17;-18.69;-5.99;162.7;11.00;69573;5127.665;-12828.784;246;-300;-293.1;73;72.7;-20;-20.3;29.0;36.4;
15/06/2019 04:57:49;100;0;200.77;17;-18.65;-5.97;164.8;11.00;69564;5127.665;-12828.784;246;-300;-293.1;73;72.7;-20;-20.3;29.0;34.3;
15/06/2019 04:58:10;100;0;200.04;17;-18.72;-5.96;166.8;10.90;69557;5127.665;-12828.784;246;-300;-295.0;73;72.7;-20;-20.3;29.0;32.2;
15/06/2019 04:58:30;100;0;198.29;17;-18.62;-5.96;168.8;10.80;69544;5127.665;-12828.784;246;-300;-293.1;73;72.7;-21;-21.2;29.0;30.1;
15/06/2019 04:58:50;100;0;197.81;17;-18.63;-6.87;170.9;10.80;69555;5127.665;-12828.784;246;-300;-293.1;73;72.7;-21;-22.1;29.0;28.1;
15/06/2019 04:59:10;100;0;198.62;17;-18.63;-6.78;172.9;10.80;69546;5127.665;-12828.784;246;-300;-293.1;73;72.7;-21;-22.1;29.0;26.1;
15/06/2019 04:59:30;100;0;199.50;17;-18.68;-6.87;174.9;10.70;69538;5127.665;-12828.784;246;-300;-293.1;73;72.7;-20;-19.4;29.0;23.9;
15/06/2019 04:59:50;100;0;200.54;17;-18.64;-5.40;176.8;10.70;69536;5127.665;-12828.784;246;-300;-293.1;73;72.7;-20;-19.0;29.0;21.9;
15/06/2019 05:00:10;100;0;200.32;17;-18.75;-5.36;178.7;10.60;69520;5127.665;-12828.784;246;-300;-295.0;73;72.7;-20;-19.0;29.0;19.8;
15/06/2019 05:00:30;118;0;201.16;17;-18.38;-5.37;180.9;10.60;69521;5127.665;-12828.784;246;150;-277.2;57;56.8;0;0.9;29.0;17.8;
15/06/2019 05:00:40;118;0;152.32;17;2.82;4.03;181.6;10.60;69432;5127.665;-12828.784;246;150;-120.8;57;57.1;0;0.9;28.4;17.8;
15/06/2019 05:00:50;118;0;152.45;17;20.04;3.84;181.3;10.50;69231;5127.665;-12828.784;246;150;33.7;57;57.1;0;0.9;28.4;-1.0;
15/06/2019 05:01:00;118;0;152.60;17;23.78;3.99;180.4;10.50;68982;5127.665;-12828.784;246;150;156.4;57;57.1;0;0.9;28.4;-1.0;
15/06/2019 05:01:10;118;0;196.57;17;24.75;3.71;179.2;10.50;68792;5127.665;-12828.784;246;150;156.4;57;57.1;0;0.9;29.0;-1.0;
15/06/2019 05:01:20;118;0;196.94;17;26.96;3.89;177.6;10.50;68800;5127.665;-12828.784;246;150;156.4;57;57.1;0;0.9;29.0;-1.0;
15/06/2019 05:01:30;117;0;197.12;17;27.69;3.80;175.7;10.50;68790;5127.665;-12828.784;246;150;156.4;57;57.1;0;0.9;29.0;-1.0;
15/06/2019 05:01:50;117;0;196.30;17;28.05;3.98;171.5;10.50;68800;5127.665;-12828.784;246;150;156.4;57;56.9;22;22.1;29.0;-1.0;
15/06/2019 05:02:10;117;0;207.68;17;27.39;14.49;166.8;10.40;68792;5127.665;-12828.784;246;150;156.4;57;57.1;16;15.8;29.0;-1.0;
15/06/2019 05:02:30;117;0;212.13;17;27.70;10.36;162.5;10.40;68787;5127.665;-12828.784;246;150;156.4;57;57.1;14;13.5;29.0;-1.0;
15/06/2019 05:02:50;117;0;216.57;17;27.89;9.56;158.1;10.30;68789;5127.665;-12828.784;246;150;156.4;57;57.1;14;13.1;29.0;-1.0;
15/06/2019 05:03:10;117;0;219.34;17;28.04;9.61;153.6;10.30;68779;5127.665;-12828.784;246;150;156.4;57;57.1;14;13.1;29.0;-1.0;
15/06/2019 05:03:30;117;0;222.25;17;28.08;9.70;149.3;10.20;68782;5127.665;-12828.784;246;150;156.4;57;57.1;13;13.1;29.0;-1.0;
15/06/2019 05:03:50;117;0;225.71;17;27.49;9.50;144.8;10.20;68790;5127.665;-12828.784;246;150;156.4;57;57.1;13;13.5;29.0;-1.0;
15/06/2019 05:04:10;117;0;227.42;17;26.86;9.35;140.7;10.10;68783;5127.665;-12828.784;246;150;156.4;57;57.1;13;13.1;29.0;-1.0;
15/06/2019 05:04:30;117;0;225.74;17;27.29;9.40;136.8;10.10;68796;5127.665;-12828.784;246;150;156.4;57;57.1;15;14.9;29.0;-1.0;
15/06/2019 05:04:50;117;0;225.48;17;26.98;10.54;132.8;10.10;68808;5127.665;-12828.784;246;150;156.4;57;57.1;15;15.3;29.0;-1.0;
15/06/2019 05:05:10;117;0;223.45;17;26.44;10.91;128.7;10.10;68831;5127.665;-12828.784;246;150;154.5;57;57.1;16;15.8;29.0;-1.0;
15/06/2019 05:05:30;117;0;237.18;17;24.82;11.45;124.9;10.00;68829;5127.665;-12828.784;246;150;156.4;57;57.1;16;16.7;29.0;-1.0;
15/06/2019 05:05:50;117;0;232.58;17;26.62;11.54;121.4;10.00;68845;5127.665;-12828.784;246;150;156.4;57;57.1;13;13.1;29.0;-1.0;
15/06/2019 05:06:10;117;0;230.84;17;25.87;9.41;117.3;10.00;68852;5127.665;-12828.784;246;150;156.4;57;57.1;14;14.0;29.0;-1.0;
15/06/2019 05:06:30;117;0;242.26;17;24.80;10.50;113.4;10.00;68864;5127.665;-12828.784;246;150;156.4;57;57.1;7;6.8;29.0;-1.0;
15/06/2019 05:06:50;117;0;248.34;17;24.17;6.21;110.0;10.00;68871;5127.665;-12828.784;246;150;156.4;57;57.1;5;5.0;29.0;-1.0;
15/06/2019 05:07:10;117;0;242.44;17;25.41;5.61;106.6;10.00;68884;5127.665;-12828.784;246;150;158.4;57;57.1;10;9.9;29.0;-1.0;
15/06/2019 05:07:30;117;0;251.10;17;24.15;8.20;103.1;10.00;68890;5127.665;-12828.784;246;150;156.4;57;57.1;4;4.1;29.0;-1.0;
15/06/2019 05:07:50;117;0;252.88;17;23.79;4.82;99.7;10.00;68890;5127.665;-12828.784;246;150;154.5;57;57.1;5;5.0;29.0;-1.0;
15/06/2019 05:08:10;117;0;251.62;17;23.75;6.02;96.7;9.90;68897;5127.665;-12828.784;246;150;158.4;57;57.1;6;5.9;29.0;-1.0;
15/06/2019 05:08:30;117;0;238.17;17;24.13;5.86;93.6;9.90;68900;5127.665;-12828.784;246;150;156.4;57;57.1;13;13.1;29.0;-1.0;
15/06/2019 05:08:50;117;0;228.75;17;24.55;10.16;90.5;9.90;68901;5127.665;-12828.784;246;150;156.4;57;57.1;13;13.5;29.0;-1.0;
15/06/2019 05:09:10;117;0;234.84;17;22.31;9.81;87.4;9.90;68913;5127.665;-12828.784;246;150;158.4;57;57.1;10;9.9;29.0;-1.0;
15/06/2019 05:09:30;117;0;236.02;17;22.35;7.66;84.5;9.90;68918;5127.665;-12828.784;246;150;156.4;57;57.1;8;8.1;29.0;-1.0;
15/06/2019 05:09:50;117;0;237.33;17;21.77;6.86;81.7;9.90;68929;5127.665;-12828.784;246;150;156.4;57;57.1;7;7.2;29.0;-1.0;
15/06/2019 05:10:10;117;0;242.52;17;21.60;6.77;79.0;9.90;68941;5127.665;-12828.784;246;150;158.4;57;57.1;4;4.1;29.0;-1.0;
15/06/2019 05:10:30;117;0;245.24;17;21.45;4.92;76.3;9.90;68938;5127.665;-12828.784;246;150;158.4;57;57.1;3;3.2;29.0;-1.0;
15/06/2019 05:10:50;117;0;243.21;17;21.49;4.54;73.7;9.90;68940;5127.665;-12828.784;246;150;156.4;57;57.1;5;5.0;29.0;-1.0;
15/06/2019 05:11:10;117;0;249.74;17;20.69;5.97;71.1;9.90;68945;5127.665;-12828.784;246;150;156.4;57;57.1;1;0.9;29.0;-1.0;
15/06/2019 05:11:30;117;0;253.77;17;20.80;3.24;68.5;9.90;68952;5127.665;-12828.784;246;150;158.4;57;57.1;0;-0.5;29.0;-1.0;
15/06/2019 05:11:50;117;0;252.24;17;20.65;2.71;66.0;9.90;68960;5127.665;-12828.784;246;150;156.4;57;57.1;0;-0.9;29.0;-1.0;
15/06/2019 05:12:10;117;0;254.48;17;20.14;2.64;63.3;9.90;68969;5127.665;-12828.784;246;150;156.4;57;57.1;0;-0.9;29.0;-1.0;
15/06/2019 05:12:30;117;0;256.15;17;20.13;2.68;60.7;9.90;68969;5127.665;-12828.784;246;150;156.4;57;57.1;-1;-0.9;29.0;-1.0;
15/06/2019 05:12:50;117;0;257.67;17;19.65;2.75;58.1;9.90;68989;5127.665;-12828.784;246;150;158.4;57;57.1;-2;-1.8;29.0;-1.0;
15/06/2019 05:13:10;117;0;256.40;17;19.53;2.25;55.7;9.90;68980;5127.665;-12828.784;246;150;158.4;57;57.1;-1;-0.9;29.0;-1.0;
15/06/2019 05:13:30;117;0;256.41;17;19.47;2.85;53.3;9.90;69003;5127.665;-12828.784;246;150;158.4;57;56.9;-2;-1.8;29.0;-1.0;
15/06/2019 05:13:50;117;0;253.30;17;19.63;2.23;51.0;9.90;68995;5127.665;-12828.784;246;150;156.4;57;57.1;0;0.0;29.0;-1.0;
15/06/2019 05:14:10;117;0;258.46;17;18.74;3.61;48.4;9.90;69006;5127.665;-12828.784;246;150;156.4;57;57.1;-4;-4.1;29.0;-1.0;
15/06/2019 05:14:30;117;0;257.90;17;18.77;1.01;46.2;9.90;69015;5127.665;-12828.784;246;150;156.4;57;57.1;-4;-4.5;29.0;-1.0;
15/06/2019 05:14:50;117;0;255.42;17;18.57;1.02;44.0;10.00;69025;5127.665;-12828.784;246;150;156.4;57;57.1;-3;-2.7;29.0;-1.0;
15/06/2019 05:15:10;117;0;258.24;17;18.77;2.30;41.8;10.00;69026;5127.665;-12828.784;246;150;156.4;57;57.1;-6;-5.9;29.0;-1.0;
15/06/2019 05:15:30;117;0;258.48;17;18.37;0.23;39.5;10.00;69043;5127.665;-12828.784;246;150;158.4;57;57.1;-6;-6.3;29.0;-1.0;
15/06/2019 05:15:50;117;0;255.31;17;18.43;0.13;37.3;10.00;69058;5127.665;-12828.784;246;150;156.4;57;57.1;-5;-5.0;29.0;-1.0;
15/06/2019 05:16:10;117;0;249.93;17;17.97;1.10;35.0;10.00;69064;5127.665;-12828.784;246;150;158.4;57;57.1;-2;-1.4;29.0;-1.0;
15/06/2019 05:16:30;117;0;247.28;17;18.15;2.95;32.9;10.00;69083;5127.665;-12828.784;246;150;156.4;57;57.1;-3;-3.2;29.0;-1.0;
15/06/2019 05:16:50;117;0;248.77;17;17.58;1.31;30.7;10.00;69094;5127.665;-12828.784;246;150;158.4;57;57.1;-5;-5.0;29.0;-1.0;
15/06/2019 05:17:10;117;0;246.75;17;16.51;0.54;28.6;10.10;69141;5127.665;-12828.784;246;150;160.4;57;57.1;-5;-5.4;29.0;-1.0;
15/06/2019 05:17:30;117;0;248.28;17;16.02;0.49;26.7;10.10;69169;5127.665;-12828.784;246;150;158.4;57;57.1;-7;-7.2;29.0;-1.0;
15/06/2019 05:17:50;117;0;245.49;17;16.29;-0.62;24.9;10.10;69208;5127.665;-12828.784;246;150;158.4;57;57.1;-6;-5.4;29.0;-1.0;
15/06/2019 05:18:10;117;0;239.03;17;15.94;1.02;23.2;10.20;69249;5127.665;-12828.784;246;150;158.4;57;57.1;-4;-4.1;29.0;-1.0;
15/06/2019 05:18:30;117;0;236.45;17;15.82;1.55;21.5;10.20;69266;5127.665;-12828.784;246;150;158.4;57;57.1;-3;-3.2;29.0;-1.0;
15/06/2019 05:18:50;117;0;240.48;17;16.04;2.35;19.9;10.20;69302;5127.665;-12828.784;246;150;158.4;57;57.1;-7;-7.2;29.0;-1.0;
15/06/2019 05:19:10;117;0;235.33;17;15.85;-0.48;18.3;10.30;69321;5127.665;-12828.784;246;150;156.4;57;56.9;-5;-5.0;29.0;-1.0;
15/06/2019 05:19:30;117;0;236.52;17;15.48;1.22;16.7;10.30;69328;5127.665;-12828.784;246;150;158.4;57;57.1;-6;-5.9;29.0;-1.0;
15/06/2019 05:19:50;117;0;237.42;17;15.30;0.19;15.3;10.40;69364;5127.665;-12828.784;246;150;158.4;57;57.1;-8;-8.6;29.0;-1.0;
15/06/2019 05:20:10;117;0;228.68;17;14.47;-1.13;14.0;10.40;69371;5127.665;-12828.784;246;150;158.4;57;57.1;-8;-8.6;29.0;-1.0;
15/06/2019 05:20:30;117;0;220.65;17;14.10;-1.22;12.7;10.40;69390;5127.665;-12828.784;246;150;158.4;57;57.1;0;0.0;29.0;-1.0;
15/06/2019 05:20:50;117;0;218.04;17;13.68;3.50;11.3;10.50;69419;5127.665;-12828.784;246;150;158.4;57;57.1;0;0.5;29.0;-1.0;
15/06/2019 05:21:10;117;0;219.80;17;14.25;3.46;10.0;10.50;69426;5127.665;-12828.784;246;150;158.4;57;57.1;-2;-2.3;29.0;-1.0;
