Timestamp;NavState;SecurityLevel;Heading;Declination;Pitch;Roll;Depth;Temperature;Pa;Lat;Lon;DesiredH;BallastCmd;BallastPos;LinCmd;LinPos;AngCmd;AngPos;Voltage;Altitude;
14/06/2019 20:31:16;117;0;203.82;17;16.68;4.22;13.9;10.60;69373;5131.527;-12824.183;219;150;158.4;57;57.1;1;0.9;29.0;-1.0;
14/06/2019 20:31:26;110;0;211.85;17;14.28;3.64;13.1;10.60;69383;5131.527;-12824.183;219;-300;29.7;73;73.3;0;0.5;29.1;-1.0;
14/06/2019 20:31:36;110;0;218.76;17;-12.23;3.95;12.6;10.60;69703;5131.527;-12824.183;219;-300;-144.6;73;73.0;0;0.5;29.0;-1.0;
14/06/2019 20:31:46;110;0;210.07;17;-24.37;4.31;13.3;10.60;69944;5131.527;-12824.183;219;-300;-301.0;73;73.0;0;0.5;29.0;-1.0;
14/06/2019 20:31:56;110;0;206.09;17;-28.56;3.56;14.5;10.70;70223;5131.527;-12824.183;219;-300;-303.0;73;72.9;0;0.5;29.1;-1.0;
14/06/2019 20:32:06;100;0;211.14;17;-28.65;3.40;16.5;10.70;70189;5131.527;-12824.183;219;-300;-303.0;73;73.0;0;0.5;29.1;-1.0;
14/06/2019 20:32:26;100;0;202.75;17;-26.35;3.71;20.7;10.70;70185;5131.527;-12824.183;219;-300;-301.0;73;73.0;0;0.5;29.0;0.0;
14/06/2019 20:32:46;100;0;191.11;17;-26.04;3.60;25.3;10.80;70179;5131.527;-12824.183;219;-300;-303.0;73;73.0;-5;-5.4;29.0;0.0;
14/06/2019 20:33:06;100;0;183.87;17;-26.13;1.07;29.2;10.80;70153;5131.527;-12824.183;219;-300;-303.0;73;73.0;-8;-8.1;29.0;0.0;
14/06/2019 20:33:26;100;0;188.94;17;-25.63;-0.06;33.4;10.80;70135;5131.527;-12824.183;219;-300;-303.0;73;73.0;-3;-2.7;29.0;0.0;
14/06/2019 20:33:46;100;0;178.23;17;-24.83;2.64;37.3;10.80;70069;5131.527;-12824.183;219;-300;-301.0;73;73.0;-9;-9.0;29.1;0.0;
14/06/2019 20:34:06;100;0;165.53;17;-24.71;-1.01;41.1;10.80;70015;5131.527;-12824.183;219;-300;-299.0;73;73.0;-16;-15.8;29.1;0.0;
14/06/2019 20:34:26;100;0;163.07;17;-24.40;-3.76;45.1;10.80;69990;5131.527;-12824.183;219;-300;-303.0;73;73.0;-14;-14.0;29.1;0.0;
14/06/2019 20:34:46;100;0;157.60;17;-24.35;-2.34;48.9;10.80;69953;5131.527;-12824.183;219;-300;-303.0;73;73.0;-16;-15.8;29.1;0.0;
14/06/2019 20:35:06;100;0;154.73;17;-24.83;-3.80;52.5;10.80;69930;5131.527;-12824.183;219;-300;-303.0;73;72.9;-17;-17.1;29.0;0.0;
14/06/2019 20:35:26;100;0;153.12;17;-24.92;-4.70;56.2;10.70;69905;5131.527;-12824.183;219;-300;-303.0;73;73.0;-18;-18.1;29.0;0.0;
14/06/2019 20:35:46;100;0;150.87;17;-24.65;-4.81;60.1;10.70;69880;5131.527;-12824.183;219;-300;-303.0;73;73.0;-21;-21.2;29.1;0.0;
14/06/2019 20:36:06;100;0;142.91;17;-24.69;-6.55;63.8;10.70;69874;5131.527;-12824.183;219;-300;-303.0;73;73.0;-27;-27.1;29.1;0.0;
14/06/2019 20:36:26;100;0;143.42;17;-24.48;-9.22;67.6;10.70;69869;5131.527;-12824.183;219;-300;-301.0;73;72.9;-26;-26.2;29.1;0.0;
14/06/2019 20:36:46;100;0;143.71;17;-24.14;-8.33;71.3;10.70;69870;5131.527;-12824.183;219;-300;-303.0;73;73.0;-27;-27.1;29.0;0.0;
14/06/2019 20:37:06;100;0;149.14;17;-23.50;-9.21;74.9;10.70;69859;5131.527;-12824.183;219;-300;-301.0;73;73.0;-23;-22.6;29.1;0.0;
14/06/2019 20:37:26;100;0;144.18;17;-23.72;-6.67;78.5;10.60;69837;5131.527;-12824.183;219;-300;-303.0;73;73.0;-27;-27.1;29.0;0.0;
14/06/2019 20:37:46;100;0;149.58;17;-23.37;-9.35;82.0;10.60;69825;5131.527;-12824.183;219;-300;-303.0;73;73.0;-24;-23.9;29.1;0.0;
14/06/2019 20:38:06;100;0;162.54;17;-22.79;-7.30;85.3;10.60;69818;5131.527;-12824.183;219;-300;-303.0;73;72.9;-17;-16.7;29.1;0.0;
14/06/2019 20:38:26;100;0;160.11;17;-22.65;-3.77;88.4;10.60;69814;5131.527;-12824.183;219;-300;-303.0;73;73.0;-21;-21.2;29.1;0.0;
14/06/2019 20:38:46;100;0;157.77;17;-22.00;-6.59;91.6;10.60;69798;5131.527;-12824.183;219;-300;-301.0;73;72.9;-23;-23.0;29.1;0.0;
14/06/2019 20:39:06;100;0;157.54;17;-21.27;-7.36;94.8;10.50;69785;5131.527;-12824.183;219;-300;-303.0;73;73.0;-23;-23.5;29.1;0.0;
14/06/2019 20:39:26;100;0;158.72;17;-21.53;-7.48;97.5;10.50;69777;5131.527;-12824.183;219;-300;-303.0;73;72.9;-23;-23.5;29.1;0.0;
14/06/2019 20:39:46;100;0;164.38;17;-21.18;-7.40;100.2;10.50;69765;5131.527;-12824.183;219;-300;-303.0;73;72.9;-19;-19.0;29.1;0.0;
14/06/2019 20:40:06;100;0;167.25;17;-21.03;-4.98;102.8;10.50;69758;5131.527;-12824.183;219;-300;-303.0;73;72.9;-19;-18.1;29.1;0.0;
14/06/2019 20:40:27;100;0;168.19;17;-21.14;-4.97;105.4;10.50;69743;5131.527;-12824.183;219;-300;-303.0;73;72.9;-20;-20.3;29.1;0.0;
14/06/2019 20:40:47;100;0;168.40;17;-20.75;-5.98;107.9;10.50;69733;5131.527;-12824.183;219;-300;-303.0;73;72.9;-20;-20.3;29.1;0.0;
14/06/2019 20:41:07;100;0;166.95;17;-20.56;-6.05;110.5;10.40;69721;5131.527;-12824.183;219;-300;-303.0;73;72.9;-22;-22.1;29.0;0.0;
14/06/2019 20:41:27;100;0;172.13;17;-20.54;-7.24;112.8;10.40;69721;5131.527;-12824.183;219;-300;-303.0;73;73.0;-18;-18.1;29.1;0.0;
14/06/2019 20:41:47;100;0;176.40;17;-21.02;-4.59;115.0;10.40;69707;5131.527;-12824.183;219;-300;-303.0;73;72.9;-17;-17.1;29.0;0.0;
14/06/2019 20:42:07;100;0;182.02;17;-20.63;-4.57;117.4;10.40;69700;5131.527;-12824.183;219;-300;-303.0;73;72.9;-15;-14.9;29.1;0.0;
14/06/2019 20:42:27;100;0;182.34;17;-20.11;-2.87;120.0;10.30;69692;5131.527;-12824.183;219;-300;-303.0;73;73.0;-17;-17.1;29.1;6.7;
14/06/2019 20:42:47;118;0;180.78;17;-20.00;-4.59;122.6;10.30;69685;5131.527;-12824.183;219;150;-289.1;57;56.6;0;0.9;29.1;0.0;
14/06/2019 20:42:57;118;0;144.71;17;-1.24;3.97;123.7;10.30;69586;5131.527;-12824.183;219;150;-132.7;57;57.1;0;0.9;28.6;0.0;
14/06/2019 20:43:07;118;0;145.61;17;14.91;3.66;123.5;10.30;69386;5131.527;-12824.183;219;150;23.8;57;57.1;0;0.9;28.6;-1.0;
14/06/2019 20:43:17;118;0;146.35;17;21.46;3.99;122.6;10.30;69128;5131.527;-12824.183;219;150;156.4;57;57.1;0;0.9;28.6;-1.0;
14/06/2019 20:43:27;118;0;183.32;17;21.98;4.19;121.5;10.30;68925;5131.527;-12824.183;219;150;156.4;57;57.1;0;0.9;29.0;-1.0;
14/06/2019 20:43:37;118;0;183.91;17;25.10;4.06;120.3;10.30;68946;5131.527;-12824.183;219;150;156.4;57;57.1;0;0.9;29.1;-1.0;
14/06/2019 20:43:47;117;0;182.54;17;25.63;3.89;118.7;10.30;68934;5131.527;-12824.183;219;150;156.4;57;56.9;0;0.9;29.0;-1.0;
14/06/2019 20:44:07;117;0;177.89;17;26.13;3.80;115.3;10.30;68931;5131.527;-12824.183;219;150;156.4;57;56.9;20;19.9;29.0;-1.0;
14/06/2019 20:44:27;117;0;179.68;17;26.36;13.30;111.2;10.20;68936;5131.527;-12824.183;219;150;156.4;57;56.9;19;19.0;29.1;-1.0;
14/06/2019 20:44:47;117;0;183.14;17;25.43;12.04;107.1;10.20;68932;5131.527;-12824.183;219;150;156.4;57;56.9;17;17.1;29.0;-1.0;
14/06/2019 20:45:07;117;0;186.40;17;25.11;11.46;103.5;10.20;68927;5131.527;-12824.183;219;150;158.4;57;57.1;16;15.8;29.1;-1.0;
14/06/2019 20:45:27;117;0;186.78;17;25.40;10.40;99.9;10.20;68936;5131.527;-12824.183;219;150;156.4;57;56.9;17;17.1;29.1;-1.0;
14/06/2019 20:45:47;117;0;186.77;17;25.06;11.92;96.2;10.10;68929;5131.527;-12824.183;219;150;156.4;57;57.1;17;17.6;29.0;-1.0;
14/06/2019 20:46:07;117;0;191.22;17;23.94;11.82;92.7;10.10;68935;5131.527;-12824.183;219;150;156.4;57;57.1;14;14.0;29.1;-1.0;
14/06/2019 20:46:27;117;0;193.03;17;23.26;9.46;89.5;10.10;68936;5131.527;-12824.183;219;150;156.4;57;57.1;14;13.1;29.1;-1.0;
14/06/2019 20:46:47;117;0;191.21;17;23.19;9.59;86.6;10.10;68938;5131.527;-12824.183;219;150;154.5;57;56.9;16;15.8;29.1;-1.0;
14/06/2019 20:47:07;117;0;196.38;17;21.92;11.37;83.8;10.10;68951;5131.527;-12824.183;219;150;158.4;57;56.9;14;13.5;29.1;-1.0;
14/06/2019 20:47:27;117;0;189.44;17;22.54;9.64;80.9;10.10;68964;5131.527;-12824.183;219;150;156.4;57;57.1;19;19.4;29.1;-1.0;
14/06/2019 20:47:47;117;0;193.50;17;21.64;13.05;78.0;10.10;68970;5131.527;-12824.183;219;150;156.4;57;56.9;15;14.9;29.1;-1.0;
14/06/2019 20:48:07;117;0;197.60;17;20.66;10.24;75.2;10.00;68970;5131.527;-12824.183;219;150;154.5;57;56.9;13;13.1;29.1;-1.0;
14/06/2019 20:48:27;117;0;199.85;17;20.99;9.23;72.6;10.10;68988;5131.527;-12824.183;219;150;156.4;57;57.1;13;12.2;29.1;-1.0;
14/06/2019 20:48:47;117;0;200.67;17;20.78;9.21;69.9;10.00;68998;5131.527;-12824.183;219;150;156.4;57;57.1;13;12.6;29.0;-1.0;
14/06/2019 20:49:07;117;0;204.25;17;20.42;9.13;67.2;10.00;68993;5131.527;-12824.183;219;150;156.4;57;57.1;13;12.6;29.1;-1.0;
14/06/2019 20:49:27;117;0;204.29;17;19.98;9.28;64.7;10.00;69005;5131.527;-12824.183;219;150;156.4;57;57.1;13;12.6;29.1;-1.0;
14/06/2019 20:49:47;117;0;208.94;17;19.37;9.05;62.2;10.00;68998;5131.527;-12824.183;219;150;156.4;57;56.9;11;10.8;29.0;-1.0;
14/06/2019 20:50:07;117;0;215.23;17;19.63;8.23;60.0;10.00;69009;5131.527;-12824.183;219;150;156.4;57;57.1;7;6.8;29.1;-1.0;
14/06/2019 20:50:27;117;0;214.66;17;20.12;6.25;57.6;10.00;69009;5131.527;-12824.183;219;150;156.4;57;57.1;9;9.5;29.0;-1.0;
14/06/2019 20:50:47;117;0;213.38;17;20.13;8.32;55.3;10.00;68999;5131.527;-12824.183;219;150;156.4;57;57.1;10;9.9;29.0;-1.0;
14/06/2019 20:51:07;117;0;220.57;17;19.08;8.28;53.1;10.00;69010;5131.527;-12824.183;219;150;156.4;57;57.1;6;5.9;29.0;-1.0;
14/06/2019 20:51:27;117;0;226.79;17;19.07;5.78;50.9;10.00;69021;5131.527;-12824.183;219;150;156.4;57;56.9;3;3.2;29.1;-1.0;
14/06/2019 20:51:47;117;0;229.14;17;19.04;4.41;48.7;10.00;69021;5131.527;-12824.183;219;150;156.4;57;57.1;3;2.7;29.0;-1.0;
14/06/2019 20:52:07;117;0;226.64;17;19.15;4.51;46.4;10.00;69031;5131.527;-12824.183;219;150;156.4;57;56.9;5;5.0;29.0;-1.0;
14/06/2019 20:52:27;117;0;226.49;17;19.08;5.98;44.3;10.00;69043;5131.527;-12824.183;219;150;156.4;57;57.1;5;5.4;29.0;-1.0;
14/06/2019 20:52:47;117;0;229.08;17;18.67;5.97;42.3;10.00;69045;5131.527;-12824.183;219;150;156.4;57;56.9;2;1.4;29.1;-1.0;
14/06/2019 20:53:07;117;0;229.18;17;18.51;3.67;40.6;10.00;69043;5131.527;-12824.183;219;150;156.4;57;56.9;2;0.9;29.1;-1.0;
14/06/2019 20:53:27;117;0;230.28;17;18.71;3.73;38.7;10.00;69059;5131.527;-12824.183;219;150;156.4;57;57.1;2;0.9;29.1;-1.0;
14/06/2019 20:53:47;117;0;231.21;17;18.33;3.62;37.0;10.00;69059;5131.527;-12824.183;219;150;156.4;57;56.9;1;0.9;29.1;-1.0;
14/06/2019 20:54:07;117;0;229.28;17;18.34;3.65;35.2;10.00;69070;5131.527;-12824.183;219;150;156.4;57;56.9;2;2.3;29.1;-1.0;
14/06/2019 20:54:27;117;0;235.25;17;17.59;4.55;33.3;10.00;69086;5131.527;-12824.183;219;150;156.4;57;56.9;-2;-2.3;29.0;-1.0;
14/06/2019 20:54:47;117;0;226.35;17;17.29;1.95;31.5;10.10;69136;5131.527;-12824.183;219;150;156.4;57;57.1;3;3.2;29.1;-1.0;
14/06/2019 20:55:07;117;0;224.15;17;17.13;5.17;29.9;10.10;69153;5131.527;-12824.183;219;150;156.4;57;57.1;2;1.8;29.0;-1.0;
14/06/2019 20:55:27;117;0;217.87;17;17.27;3.60;28.2;10.10;69183;5131.527;-12824.183;219;150;156.4;57;56.9;5;5.0;29.0;-1.0;
14/06/2019 20:55:47;117;0;218.61;17;16.80;6.15;26.6;10.10;69196;5131.527;-12824.183;219;150;156.4;57;57.1;2;1.8;29.1;-1.0;
14/06/2019 20:56:07;117;0;224.54;17;16.36;3.72;25.0;10.20;69222;5131.527;-12824.183;219;150;156.4;57;56.9;-2;-1.8;29.0;-1.0;
14/06/2019 20:56:27;117;0;225.25;17;16.36;2.19;23.4;10.20;69258;5131.527;-12824.183;219;150;156.4;57;57.1;-2;-2.3;29.1;-1.0;
14/06/2019 20:56:47;117;0;226.75;17;15.99;2.11;21.9;10.20;69275;5131.527;-12824.183;219;150;158.4;57;56.9;-3;-3.2;29.1;-1.0;
14/06/2019 20:57:07;117;0;229.29;17;15.99;1.54;20.3;10.20;69298;5131.527;-12824.183;219;150;156.4;57;57.1;-5;-5.0;29.0;-1.0;
14/06/2019 20:57:27;117;0;229.07;17;16.29;0.58;18.8;10.30;69326;5131.527;-12824.183;219;150;156.4;57;56.9;-5;-5.4;29.0;-1.0;
14/06/2019 20:57:47;117;0;226.63;17;16.26;0.53;17.1;10.30;69342;5131.527;-12824.183;219;150;156.4;57;57.1;-3;-3.2;29.0;-1.0;
14/06/2019 20:58:07;117;0;217.74;17;16.30;1.65;15.3;10.40;69359;5131.527;-12824.183;219;150;156.4;57;57.1;0;0.0;29.1;-1.0;
14/06/2019 20:58:27;117;0;213.80;17;15.91;3.55;13.8;10.40;69363;5131.527;-12824.183;219;150;156.4;57;57.1;0;0.5;29.1;-1.0;
14/06/2019 20:58:47;117;0;211.27;17;13.96;3.54;12.3;10.40;69388;5131.527;-12824.183;219;150;156.4;57;57.1;0;0.5;29.0;-1.0;
14/06/2019 20:59:07;117;0;212.36;17;13.58;3.72;10.9;10.50;69432;5131.527;-12824.183;219;150;156.4;57;57.1;-2;-1.8;29.1;-1.0;
