Timestamp;NavState;SecurityLevel;Heading;Declination;Pitch;Roll;Depth;Temperature;Pa;Lat;Lon;DesiredH;BallastCmd;BallastPos;LinCmd;LinPos;AngCmd;AngPos;Voltage;Altitude;
16/06/2019 07:18:22;117;0;38.50;17;15.07;0.80;9.8;9.80;69278;5124.389;-12839.755;52;150;158.4;57;57.2;0;0.0;28.8;-1.0;
16/06/2019 07:18:32;115;0;39.42;17;15.43;3.72;9.1;9.90;69289;5124.389;-12839.755;52;500;168.3;100;100.1;0;0.9;28.8;-1.0;
16/06/2019 07:18:42;115;0;50.15;17;-25.88;4.47;8.5;9.90;69214;5124.389;-12839.755;52;500;318.8;100;99.9;0;0.9;28.3;-1.0;
16/06/2019 07:18:52;115;0;41.46;17;-66.10;4.35;9.3;9.90;69031;5124.389;-12839.755;52;500;469.3;100;99.9;0;0.9;28.4;-1.0;
16/06/2019 07:19:02;115;0;46.33;17;-58.47;2.54;8.3;9.90;68790;5124.389;-12839.755;52;500;503.0;100;99.9;0;0.5;28.4;-1.0;
16/06/2019 07:19:12;115;0;32.24;17;-33.96;2.32;5.4;10.00;68766;5124.389;-12839.755;52;500;505.0;100;99.9;0;0.9;28.7;-1.0;
16/06/2019 07:19:22;116;0;82.76;17;-70.84;-21.56;1.7;10.00;68796;5124.389;-12839.755;52;500;505.0;100;99.9;0;0.9;28.7;-1.0;
16/06/2019 07:19:42;116;0;165.50;17;-18.61;4.86;1.4;10.10;68835;5124.389;-12839.755;52;500;506.9;100;99.7;0;0.9;28.7;-1.0;
16/06/2019 07:20:02;116;0;189.51;17;-6.71;-1.29;1.4;10.20;68869;5125.044;-12838.285;52;500;506.9;100;99.7;0;0.9;28.7;-1.0;
16/06/2019 07:20:22;116;0;174.61;17;-6.98;3.02;1.3;10.30;68890;5125.042;-12838.283;51;500;508.9;100;99.7;0;0.9;28.7;-1.0;
16/06/2019 07:20:42;116;0;180.61;17;-8.30;4.45;1.3;10.50;68907;5125.034;-12838.280;51;500;508.9;100;99.9;0;0.5;28.7;-1.0;
16/06/2019 07:22:04;116;0;173.58;17;-4.35;2.33;1.3;11.10;68970;5125.034;-12838.280;51;500;508.9;100;99.7;0;0.5;28.7;-1.0;
16/06/2019 07:22:24;116;0;210.29;17;-7.89;4.60;1.3;11.30;68987;5125.033;-12838.280;51;500;508.9;100;99.7;0;0.9;28.7;-1.0;
16/06/2019 07:22:44;116;0;198.76;17;-8.10;3.90;1.5;11.40;68994;5125.033;-12838.281;51;500;508.9;100;99.7;0;0.5;28.7;-1.0;
16/06/2019 07:23:04;116;0;195.67;17;-19.98;3.35;1.3;11.50;69011;5125.031;-12838.281;51;500;508.9;100;99.7;0;0.5;28.7;-1.0;
16/06/2019 07:23:29;116;0;207.00;17;-7.09;5.17;1.4;11.70;69013;5125.031;-12838.281;51;500;508.9;100;99.7;0;0.9;28.7;-1.0;
16/06/2019 07:23:49;116;0;197.89;17;-6.74;4.57;1.4;11.80;69024;5125.030;-12838.282;51;500;506.9;100;99.7;0;0.9;28.8;-1.0;
16/06/2019 07:24:09;116;0;184.07;17;-7.04;2.61;1.3;11.90;69043;5125.028;-12838.277;51;500;508.9;100;99.7;0;0.5;28.7;-1.0;
16/06/2019 07:24:43;116;0;176.67;17;-15.96;3.13;1.4;12.10;69047;5125.035;-12838.284;51;500;506.9;100;99.7;0;0.9;28.7;-1.0;
16/06/2019 07:26:04;116;0;178.10;17;-19.59;0.22;1.4;12.80;69074;5125.035;-12838.283;51;500;506.9;100;99.7;0;0.5;28.7;-1.0;
16/06/2019 07:26:24;116;0;200.94;17;-14.24;-1.23;1.4;13.00;69089;5125.030;-12838.287;51;500;508.9;100;99.7;0;0.5;28.7;-1.0;
16/06/2019 07:26:55;116;0;169.72;17;-6.26;5.91;1.3;13.20;69101;5125.028;-12838.288;51;500;508.9;100;99.7;0;0.5;28.7;-1.0;
16/06/2019 07:27:15;116;0;181.21;17;-22.93;6.11;1.4;13.30;69102;5125.022;-12838.288;51;500;506.9;100;99.7;0;0.9;28.7;-1.0;
16/06/2019 07:27:35;116;0;192.92;17;-9.55;1.52;1.3;13.50;69106;5125.015;-12838.275;51;500;506.9;100;99.7;0;0.9;28.7;-1.0;
16/06/2019 07:27:55;116;0;181.68;17;-5.04;6.84;1.3;13.60;69115;5125.013;-12838.275;51;500;508.9;100;99.7;0;0.9;28.7;-1.0;
16/06/2019 07:28:15;110;0;177.07;17;-10.70;5.60;1.4;13.70;69123;5125.013;-12838.275;51;-300;407.9;100;99.7;0;0.5;28.7;-1.0;
16/06/2019 07:28:25;110;0;173.08;17;-8.26;2.55;1.4;13.80;69366;5125.013;-12838.275;51;-300;269.3;100;99.7;0;0.5;28.7;-1.0;
16/06/2019 07:28:35;110;0;174.40;17;-9.84;0.57;1.3;13.80;69532;5125.013;-12838.275;51;-300;132.7;100;99.7;0;0.9;28.7;-1.0;
16/06/2019 07:28:45;110;0;166.17;17;-8.63;-0.12;1.3;13.80;69763;5125.013;-12838.275;51;-300;-4.0;100;99.7;0;0.5;28.6;-1.0;
16/06/2019 07:28:55;110;0;180.65;17;-9.03;1.78;1.3;13.90;69992;5125.013;-12838.275;51;-300;-146.5;100;99.7;0;0.9;28.7;-1.0;
16/06/2019 07:29:05;110;0;198.79;17;-30.87;3.22;1.8;13.90;70226;5125.013;-12838.275;51;-300;-301.0;87;86.9;0;0.5;28.6;-1.0;
16/06/2019 07:29:15;110;0;210.72;17;-48.60;4.83;3.9;13.90;70470;5125.013;-12838.275;51;-300;-303.0;73;73.0;0;0.9;28.8;-1.0;
16/06/2019 07:29:25;100;0;211.40;17;-36.75;3.17;6.9;13.90;70469;5125.013;-12838.275;51;-300;-301.0;73;72.9;0;0.9;28.8;-1.0;
16/06/2019 07:29:45;100;0;199.31;17;-27.84;3.84;11.7;13.90;70438;5125.013;-12838.275;51;-300;-301.0;73;72.9;45;45.1;28.8;0.0;
16/06/2019 07:30:05;100;0;191.67;17;-24.68;24.77;16.1;13.90;70394;5125.013;-12838.275;51;-300;-301.0;73;72.9;45;45.6;28.7;0.0;
16/06/2019 07:30:25;100;0;164.14;17;-22.32;25.57;19.8;13.90;70336;5125.013;-12838.275;51;-300;-301.0;73;72.9;44;43.8;28.7;0.0;
16/06/2019 07:30:45;100;0;137.89;17;-22.03;25.16;23.0;13.80;70282;5125.013;-12838.275;51;-300;-299.0;73;72.9;27;27.1;28.7;0.0;
16/06/2019 07:31:05;100;0;115.12;17;-22.29;15.76;26.3;13.70;70233;5125.013;-12838.275;51;-300;-299.0;73;72.9;18;18.1;28.7;0.0;
16/06/2019 07:31:25;100;0;106.94;17;-23.86;11.20;29.6;13.70;70192;5125.013;-12838.275;51;-300;-299.0;73;72.9;19;19.0;28.7;0.0;
16/06/2019 07:31:45;100;0;93.83;17;-23.38;12.42;32.9;13.60;70159;5125.013;-12838.275;51;-300;-297.0;73;72.9;17;17.1;28.7;0.0;
16/06/2019 07:32:05;100;0;80.41;17;-23.59;11.01;36.3;13.50;70138;5125.013;-12838.275;51;-300;-297.0;73;72.9;14;14.0;28.8;0.0;
16/06/2019 07:32:25;100;0;69.87;17;-23.84;9.09;39.6;13.50;70114;5125.013;-12838.275;51;-300;-299.0;73;72.9;13;13.1;28.7;0.0;
16/06/2019 07:32:45;100;0;58.97;17;-23.64;9.17;43.0;13.40;70102;5125.013;-12838.275;51;-300;-299.0;73;72.7;11;10.8;28.8;0.0;
16/06/2019 07:33:05;100;0;51.31;17;-23.98;7.72;46.4;13.30;70081;5125.013;-12838.275;51;-300;-299.0;73;72.9;11;10.4;28.8;0.0;
16/06/2019 07:33:25;100;0;43.04;17;-24.12;7.68;49.7;13.30;70060;5125.013;-12838.275;51;-300;-299.0;73;72.9;10;9.9;28.7;0.0;
16/06/2019 07:33:45;100;0;34.72;17;-23.57;7.67;53.3;13.20;70054;5125.013;-12838.275;51;-300;-297.0;73;72.9;10;9.9;28.8;0.0;
16/06/2019 07:34:05;100;0;26.08;17;-23.23;7.68;56.8;13.10;70043;5125.013;-12838.275;51;-300;-299.0;73;72.7;7;7.2;28.7;0.0;
16/06/2019 07:34:25;100;0;21.03;17;-23.70;6.26;60.3;13.10;70023;5125.013;-12838.275;51;-300;-299.0;73;72.9;7;6.8;28.7;0.0;
16/06/2019 07:34:45;100;0;14.24;17;-24.06;6.31;63.5;13.00;70003;5125.013;-12838.275;51;-300;-299.0;73;72.9;4;3.6;28.7;0.0;
16/06/2019 07:35:05;100;0;9.53;17;-23.97;4.34;66.9;13.00;69983;5125.013;-12838.275;51;-300;-299.0;73;72.9;3;3.2;28.7;0.0;
16/06/2019 07:35:25;100;0;9.94;17;-23.71;4.54;70.3;12.90;69960;5125.013;-12838.275;51;-300;-297.0;73;72.9;5;5.4;28.8;0.0;
16/06/2019 07:35:45;100;0;6.56;17;-23.38;5.93;73.7;12.80;69940;5125.013;-12838.275;51;-300;-299.0;73;72.7;4;3.6;28.7;0.0;
16/06/2019 07:36:05;100;0;359.83;17;-23.16;4.64;77.0;12.80;69930;5125.013;-12838.275;51;-300;-299.0;73;72.7;0;-0.5;28.7;0.0;
16/06/2019 07:36:25;100;0;351.57;17;-22.95;2.72;80.4;12.70;69923;5125.013;-12838.275;51;-300;-297.0;73;72.7;-2;-1.8;28.7;0.0;
16/06/2019 07:36:45;100;0;343.48;17;-23.62;2.25;83.5;12.70;69910;5125.013;-12838.275;51;-300;-297.0;73;72.7;-6;-5.9;28.8;0.0;
16/06/2019 07:37:05;100;0;339.48;17;-22.60;0.39;86.8;12.60;69887;5125.013;-12838.275;51;-300;-299.0;73;72.7;-8;-8.1;28.7;0.0;
16/06/2019 07:37:25;100;0;338.76;17;-22.25;-0.68;90.0;12.50;69876;5125.013;-12838.275;51;-300;-297.0;73;72.7;-9;-9.0;28.8;0.0;
16/06/2019 07:37:45;100;0;338.10;17;-22.70;-1.62;93.1;12.50;69874;5125.013;-12838.275;51;-300;-299.0;73;72.7;-10;-9.9;28.8;0.0;
16/06/2019 07:38:05;100;0;335.18;17;-22.47;-1.49;96.2;12.40;69863;5125.013;-12838.275;51;-300;-297.0;73;72.7;-13;-13.5;28.7;0.0;
16/06/2019 07:38:25;100;0;332.46;17;-22.82;-2.99;99.3;12.40;69851;5125.013;-12838.275;51;-300;-297.0;73;72.7;-16;-15.8;28.8;0.0;
16/06/2019 07:38:45;100;0;325.79;17;-22.10;-3.92;102.3;12.30;69841;5125.013;-12838.275;51;-300;-297.0;73;72.7;-22;-22.1;28.8;0.0;
16/06/2019 07:39:05;100;0;322.21;17;-22.05;-7.07;105.3;12.30;69832;5125.013;-12838.275;51;-300;-297.0;73;72.7;-25;-24.8;28.8;0.0;
16/06/2019 07:39:25;100;0;319.47;17;-21.81;-8.41;108.2;12.20;69816;5125.013;-12838.275;51;-300;-297.0;73;72.7;-28;-28.0;28.7;0.0;
16/06/2019 07:39:45;100;0;318.11;17;-21.89;-9.69;111.0;12.20;69814;5125.013;-12838.275;51;-300;-297.0;73;72.7;-30;-29.8;28.7;0.0;
16/06/2019 07:40:05;100;0;316.10;17;-21.92;-10.50;113.8;12.10;69798;5125.013;-12838.275;51;-300;-297.0;73;72.7;-31;-31.6;28.7;0.0;
16/06/2019 07:40:25;100;0;310.56;17;-21.84;-11.40;116.6;12.10;69801;5125.013;-12838.275;51;-300;-297.0;73;72.7;-34;-33.8;28.8;0.0;
16/06/2019 07:40:45;100;0;315.91;17;-21.29;-12.51;119.3;12.00;69790;5125.013;-12838.275;51;-300;-295.0;73;72.7;-30;-29.8;28.7;0.0;
16/06/2019 07:41:05;100;0;322.93;17;-21.02;-10.18;121.9;11.90;69763;5125.013;-12838.275;51;-300;-297.0;73;72.7;-26;-25.7;28.8;0.0;
16/06/2019 07:41:25;100;0;327.53;17;-21.16;-8.47;124.6;11.90;69769;5125.013;-12838.275;51;-300;-297.0;73;72.7;-24;-23.5;28.7;0.0;
16/06/2019 07:41:45;100;0;336.88;17;-20.99;-7.35;127.2;11.90;69756;5125.013;-12838.275;51;-300;-297.0;73;72.7;-21;-21.2;28.8;0.0;
16/06/2019 07:42:05;100;0;339.15;17;-19.92;-6.01;129.7;11.80;69743;5125.013;-12838.275;51;-300;-297.0;73;72.7;-22;-22.1;28.7;0.0;
16/06/2019 07:42:25;100;0;346.06;17;-19.68;-7.13;132.3;11.70;69723;5125.013;-12838.275;51;-300;-297.0;73;72.7;-19;-19.0;28.7;0.0;
16/06/2019 07:42:45;100;0;347.42;17;-19.48;-4.97;134.8;11.70;69716;5125.013;-12838.275;51;-300;-295.0;73;72.7;-21;-21.2;28.7;0.0;
16/06/2019 07:43:05;100;0;346.36;17;-19.55;-6.64;137.1;11.60;69708;5125.013;-12838.275;51;-300;-297.0;73;72.7;-23;-23.0;28.8;0.0;
16/06/2019 07:43:25;100;0;345.48;17;-20.04;-7.59;139.2;11.60;69688;5125.013;-12838.275;51;-300;-295.0;73;72.7;-24;-23.9;28.7;0.0;
16/06/2019 07:43:45;100;0;348.03;17;-19.84;-8.10;141.6;11.60;69698;5125.013;-12838.275;51;-300;-297.0;73;72.7;-22;-22.1;28.7;0.0;
16/06/2019 07:44:05;100;0;347.82;17;-19.46;-6.55;143.8;11.50;69675;5125.013;-12838.275;51;-300;-295.0;73;72.7;-23;-23.5;28.7;0.0;
16/06/2019 07:44:25;100;0;349.49;17;-19.40;-7.64;146.0;11.40;69662;5125.013;-12838.275;51;-300;-295.0;73;72.7;-22;-22.1;28.7;0.0;
16/06/2019 07:44:45;100;0;351.86;17;-19.06;-6.48;148.3;11.40;69664;5125.013;-12838.275;51;-300;-297.0;73;72.7;-22;-21.2;28.8;0.0;
16/06/2019 07:45:05;100;0;352.21;17;-19.13;-6.55;150.4;11.30;69645;5125.013;-12838.275;51;-300;-297.0;73;72.7;-22;-21.2;28.8;0.0;
16/06/2019 07:45:25;100;0;351.90;17;-19.38;-6.57;152.7;11.30;69639;5125.013;-12838.275;51;-300;-297.0;73;72.7;-23;-23.5;28.7;0.0;
16/06/2019 07:45:45;100;0;350.63;17;-19.16;-7.67;154.9;11.20;69641;5125.013;-12838.275;51;-300;-297.0;73;72.7;-23;-23.5;28.7;0.0;
16/06/2019 07:46:05;100;0;353.65;17;-18.95;-7.73;157.3;11.20;69617;5125.013;-12838.275;51;-300;-297.0;73;72.7;-22;-22.1;28.7;0.0;
16/06/2019 07:46:25;100;0;355.43;17;-18.43;-6.61;159.5;11.10;69604;5125.013;-12838.275;51;-300;-297.0;73;72.7;-21;-21.2;28.8;0.0;
16/06/2019 07:46:45;100;0;355.45;17;-18.90;-6.09;161.6;11.10;69602;5125.013;-12838.275;51;-300;-295.0;73;72.7;-21;-20.8;28.7;0.0;
16/06/2019 07:47:05;100;0;358.55;17;-18.96;-6.27;163.8;11.00;69598;5125.013;-12838.275;51;-300;-297.0;73;72.7;-20;-19.9;28.7;0.0;
16/06/2019 07:47:25;100;0;359.73;17;-18.97;-5.44;165.9;11.00;69588;5125.013;-12838.275;51;-300;-297.0;73;72.7;-20;-19.0;28.7;0.0;
16/06/2019 07:47:45;100;0;357.34;17;-18.79;-5.34;168.1;10.90;69583;5125.013;-12838.275;51;-300;-297.0;73;72.7;-22;-22.6;28.7;0.0;
16/06/2019 07:48:05;100;0;356.01;17;-18.75;-7.29;170.3;10.90;69572;5125.013;-12838.275;51;-300;-299.0;73;72.7;-22;-23.0;28.8;0.0;
16/06/2019 07:48:25;100;0;355.86;17;-18.67;-7.31;172.5;10.80;69550;5125.013;-12838.275;51;-300;-295.0;73;72.7;-23;-23.0;28.8;0.0;
16/06/2019 07:48:45;100;0;355.60;17;-18.48;-7.30;174.6;10.80;69541;5125.013;-12838.275;51;-300;-295.0;73;72.7;-22;-21.7;28.8;43.6;
16/06/2019 07:49:06;100;0;354.54;17;-18.51;-6.41;176.8;10.70;69540;5125.013;-12838.275;51;-300;-297.0;73;72.7;-23;-23.0;28.7;41.5;
16/06/2019 07:49:26;100;0;354.65;17;-18.70;-7.60;179.0;10.70;69530;5125.013;-12838.275;51;-300;-297.0;73;72.7;-23;-23.5;28.8;39.3;
16/06/2019 07:49:46;100;0;354.17;17;-18.56;-7.45;181.0;10.60;69514;5125.013;-12838.275;51;-300;-297.0;73;72.7;-22;-22.1;28.7;37.0;
16/06/2019 07:50:06;100;0;353.48;17;-18.56;-6.67;183.1;10.60;69520;5125.013;-12838.275;51;-300;-297.0;73;72.7;-23;-23.0;28.8;34.9;
16/06/2019 07:50:26;100;0;353.97;17;-18.72;-7.71;185.0;10.50;69510;5125.013;-12838.275;51;-300;-297.0;73;72.7;-23;-23.5;28.8;32.8;
16/06/2019 07:50:46;100;0;352.82;17;-18.87;-7.62;187.1;10.50;69511;5125.013;-12838.275;51;-300;-295.0;73;72.7;-23;-23.5;28.8;30.7;
16/06/2019 07:51:06;100;0;352.89;17;-18.41;-7.85;189.1;10.50;69500;5125.013;-12838.275;51;-300;-295.0;73;72.7;-23;-23.5;28.7;28.7;
16/06/2019 07:51:26;100;0;352.04;17;-18.89;-7.69;191.1;10.40;69503;5125.013;-12838.275;51;-300;-297.0;73;72.7;-23;-23.5;28.8;26.5;
16/06/2019 07:51:46;100;0;350.43;17;-18.64;-7.58;193.0;10.40;69492;5125.013;-12838.275;51;-300;-297.0;73;72.7;-24;-23.9;28.7;24.3;
16/06/2019 07:52:06;100;0;350.75;17;-17.12;-7.66;195.1;10.30;69495;5125.013;-12838.275;51;-300;-295.0;73;72.7;-24;-24.4;28.7;22.3;
16/06/2019 07:52:26;100;0;353.62;17;-18.54;-7.75;196.9;10.30;69495;5125.013;-12838.275;51;-300;-295.0;73;72.7;-22;-21.7;28.7;20.5;
16/06/2019 07:52:46;100;0;355.32;17;-18.84;-6.35;198.9;10.20;69483;5125.013;-12838.275;51;-300;-295.0;73;72.7;-21;-21.2;28.7;18.2;
16/06/2019 07:53:06;118;0;354.03;17;-18.30;-6.50;200.9;10.20;69473;5125.013;-12838.275;51;150;-279.2;57;56.8;0;0.9;28.7;16.0;
16/06/2019 07:53:16;118;0;31.69;17;3.67;4.05;201.7;10.20;69385;5125.013;-12838.275;51;150;-122.8;57;57.1;0;0.9;28.2;16.0;
16/06/2019 07:53:26;118;0;30.51;17;20.14;3.80;201.5;10.20;69180;5125.013;-12838.275;51;150;31.7;57;57.1;0;0.5;28.1;-1.0;
16/06/2019 07:53:36;118;0;31.82;17;24.79;4.48;200.6;10.20;68945;5125.013;-12838.275;51;150;154.5;57;57.1;0;0.5;28.2;-1.0;
16/06/2019 07:53:46;118;0;345.17;17;24.98;3.71;199.3;10.10;68741;5125.013;-12838.275;51;150;154.5;57;56.9;0;0.9;28.7;-1.0;
16/06/2019 07:53:56;118;0;344.27;17;27.36;3.99;197.7;10.10;68756;5125.013;-12838.275;51;150;156.4;57;56.9;0;0.9;28.7;-1.0;
16/06/2019 07:54:06;117;0;346.27;17;27.82;4.11;195.7;10.10;68749;5125.013;-12838.275;51;150;154.5;57;57.1;0;0.9;28.7;-1.0;
16/06/2019 07:54:26;117;0;346.57;17;28.40;3.82;191.4;10.10;68747;5125.013;-12838.275;51;150;154.5;57;56.9;27;27.1;28.7;-1.0;
16/06/2019 07:54:46;117;0;0.60;17;27.31;16.98;186.3;10.10;68752;5125.013;-12838.275;51;150;156.4;57;56.9;18;18.1;28.8;-1.0;
16/06/2019 07:55:06;117;0;13.06;17;27.82;11.52;181.9;10.00;68741;5125.013;-12838.275;51;150;154.5;57;56.9;12;11.7;28.7;-1.0;
16/06/2019 07:55:26;117;0;20.14;17;27.94;8.63;177.4;10.00;68735;5125.013;-12838.275;51;150;156.4;57;56.9;11;10.8;28.8;-1.0;
16/06/2019 07:55:46;117;0;23.34;17;28.13;7.96;172.7;9.90;68728;5125.013;-12838.275;51;150;156.4;57;56.9;12;12.2;28.7;-1.0;
16/06/2019 07:56:06;117;0;32.55;17;27.87;9.37;168.2;9.90;68733;5125.013;-12838.275;51;150;156.4;57;56.9;9;8.6;28.8;-1.0;
16/06/2019 07:56:26;117;0;34.03;17;28.09;7.20;163.8;9.90;68739;5125.013;-12838.275;51;150;154.5;57;56.9;9;8.1;28.7;-1.0;
16/06/2019 07:56:46;117;0;31.58;17;28.21;7.16;159.1;9.80;68736;5125.013;-12838.275;51;150;156.4;57;56.9;9;8.6;28.7;-1.0;
16/06/2019 07:57:06;117;0;29.54;17;27.77;7.37;154.4;9.80;68737;5125.013;-12838.275;51;150;156.4;57;56.9;16;16.2;28.7;-1.0;
16/06/2019 07:57:26;117;0;35.99;17;27.28;11.05;150.0;9.80;68752;5125.013;-12838.275;51;150;156.4;57;56.9;16;16.7;28.7;-1.0;
16/06/2019 07:57:46;117;0;35.38;17;27.77;11.50;145.8;9.70;68760;5125.013;-12838.275;51;150;156.4;57;56.9;16;16.7;28.7;-1.0;
16/06/2019 07:58:06;117;0;37.86;17;27.10;11.35;141.4;9.70;68773;5125.013;-12838.275;51;150;156.4;57;56.9;13;12.6;28.7;-1.0;
16/06/2019 07:58:26;117;0;53.49;17;26.11;9.27;137.3;9.70;68769;5125.013;-12838.275;51;150;156.4;57;56.9;3;2.7;28.7;-1.0;
16/06/2019 07:58:46;117;0;45.04;17;27.00;4.33;133.2;9.70;68771;5125.013;-12838.275;51;150;158.4;57;56.9;11;11.3;28.7;-1.0;
16/06/2019 07:59:06;117;0;38.00;17;27.40;9.38;129.1;9.70;68791;5125.013;-12838.275;51;150;156.4;57;56.9;15;14.9;28.7;-1.0;
16/06/2019 07:59:26;117;0;42.52;17;26.89;11.09;124.9;9.70;68802;5125.013;-12838.275;51;150;156.4;57;56.9;11;10.8;28.7;-1.0;
16/06/2019 07:59:46;117;0;45.91;17;25.70;8.03;120.8;9.60;68808;5125.013;-12838.275;51;150;154.5;57;56.9;9;9.0;28.7;-1.0;
16/06/2019 08:00:06;117;0;52.28;17;24.61;7.11;117.1;9.60;68820;5125.013;-12838.275;51;150;156.4;57;56.9;5;5.0;28.7;-1.0;
16/06/2019 08:00:26;117;0;53.94;17;24.61;5.20;113.9;9.60;68830;5125.013;-12838.275;51;150;156.4;57;56.9;5;4.5;28.7;-1.0;
16/06/2019 08:00:46;117;0;58.07;17;23.63;5.36;110.8;9.60;68833;5125.013;-12838.275;51;150;158.4;57;56.9;3;3.2;28.8;-1.0;
16/06/2019 08:01:06;117;0;58.93;17;23.70;4.33;108.0;9.60;68846;5125.013;-12838.275;51;150;156.4;57;56.9;4;4.5;28.8;-1.0;
16/06/2019 08:01:26;117;0;58.80;17;22.97;5.63;105.2;9.60;68851;5125.013;-12838.275;51;150;156.4;57;56.9;4;5.0;28.8;-1.0;
16/06/2019 08:01:46;117;0;63.55;17;22.43;5.47;102.4;9.60;68869;5125.013;-12838.275;51;150;156.4;57;56.9;1;0.9;28.7;-1.0;
16/06/2019 08:02:06;117;0;61.21;17;22.67;3.09;99.7;9.60;68875;5125.013;-12838.275;51;150;156.4;57;56.9;2;1.8;28.7;-1.0;
16/06/2019 08:02:26;117;0;59.05;17;22.41;4.57;96.9;9.60;68879;5125.013;-12838.275;51;150;156.4;57;56.9;3;3.2;28.7;-1.0;
16/06/2019 08:02:46;117;0;59.08;17;22.17;5.09;94.3;9.60;68890;5125.013;-12838.275;51;150;156.4;57;56.9;2;1.4;28.7;-1.0;
16/06/2019 08:03:06;117;0;56.41;17;22.46;3.70;91.7;9.60;68883;5125.013;-12838.275;51;150;156.4;57;56.9;3;3.2;28.8;-1.0;
16/06/2019 08:03:26;117;0;53.43;17;22.20;5.06;89.0;9.60;68893;5125.013;-12838.275;51;150;156.4;57;57.1;4;4.1;28.7;-1.0;
16/06/2019 08:03:46;117;0;52.55;17;21.97;5.31;86.5;9.60;68888;5125.013;-12838.275;51;150;156.4;57;57.1;3;3.2;28.8;-1.0;
16/06/2019 08:04:06;117;0;46.56;17;21.94;4.37;84.0;9.60;68890;5125.013;-12838.275;51;150;156.4;57;56.9;5;5.0;28.7;-1.0;
16/06/2019 08:04:26;117;0;41.62;17;21.79;5.94;81.5;9.60;68888;5125.013;-12838.275;51;150;156.4;57;56.9;6;5.9;28.7;-1.0;
16/06/2019 08:04:46;117;0;51.24;17;20.74;6.61;78.9;9.60;68910;5125.013;-12838.275;51;150;156.4;57;56.9;-1;-0.9;28.7;-1.0;
16/06/2019 08:05:06;117;0;55.10;17;20.72;2.58;76.4;9.60;68909;5125.013;-12838.275;51;150;156.4;57;56.9;-3;-3.2;28.8;-1.0;
16/06/2019 08:05:26;117;0;56.84;17;21.07;1.32;74.0;9.60;68915;5125.013;-12838.275;51;150;156.4;57;56.9;-2;-1.4;28.7;-1.0;
16/06/2019 08:05:46;117;0;53.29;17;21.06;2.75;71.4;9.60;68913;5125.013;-12838.275;51;150;156.4;57;56.9;-1;-0.9;28.7;-1.0;
16/06/2019 08:06:06;117;0;48.37;17;20.94;2.77;68.9;9.60;68930;5125.013;-12838.275;51;150;158.4;57;56.9;1;0.9;28.7;-1.0;
16/06/2019 08:06:26;117;0;44.85;17;20.93;3.90;66.3;9.60;68929;5125.013;-12838.275;51;150;156.4;57;56.9;2;1.8;28.7;-1.0;
16/06/2019 08:06:46;117;0;39.69;17;20.33;4.25;63.7;9.60;68935;5125.013;-12838.275;51;150;156.4;57;56.9;3;3.2;28.7;-1.0;
16/06/2019 08:07:06;117;0;38.37;17;20.34;5.26;61.2;9.60;68930;5125.013;-12838.275;51;150;156.4;57;56.9;2;1.8;28.7;-1.0;
16/06/2019 08:07:26;117;0;43.88;17;20.35;3.76;58.9;9.70;68949;5125.013;-12838.275;51;150;156.4;57;56.9;-1;-0.9;28.7;-1.0;
16/06/2019 08:07:46;117;0;44.46;17;20.22;2.48;56.4;9.70;68951;5125.013;-12838.275;51;150;156.4;57;57.1;-2;-1.8;28.7;-1.0;
16/06/2019 08:08:06;117;0;45.77;17;20.39;2.14;54.1;9.70;68949;5125.013;-12838.275;51;150;156.4;57;56.9;-3;-3.2;28.7;-1.0;
16/06/2019 08:08:26;117;0;46.91;17;19.75;1.58;51.6;9.70;68963;5125.013;-12838.275;51;150;156.4;57;56.9;-3;-3.6;28.7;-1.0;
16/06/2019 08:08:46;117;0;48.57;17;19.30;1.46;49.5;9.70;68984;5125.013;-12838.275;51;150;156.4;57;56.9;-5;-5.0;28.7;-1.0;
16/06/2019 08:09:06;117;0;48.70;17;19.28;0.61;47.4;9.70;69004;5125.013;-12838.275;51;150;156.4;57;56.9;-5;-5.4;28.7;-1.0;
16/06/2019 08:09:26;117;0;45.72;17;19.22;0.58;45.3;9.70;69011;5125.013;-12838.275;51;150;156.4;57;56.9;-3;-3.2;28.8;-1.0;
16/06/2019 08:09:46;117;0;42.47;17;19.14;2.09;43.2;9.70;69023;5125.013;-12838.275;51;150;156.4;57;56.9;-2;-1.8;28.7;-1.0;
16/06/2019 08:10:06;117;0;40.25;17;19.40;2.73;41.2;9.70;69030;5125.013;-12838.275;51;150;156.4;57;56.9;-2;-1.4;28.7;-1.0;
16/06/2019 08:10:26;117;0;40.16;17;19.06;2.80;39.0;9.80;69043;5125.013;-12838.275;51;150;156.4;57;56.9;-3;-3.2;28.7;-1.0;
16/06/2019 08:10:46;117;0;39.02;17;19.27;1.57;36.9;9.80;69046;5125.013;-12838.275;51;150;156.4;57;57.1;-3;-3.6;28.7;-1.0;
16/06/2019 08:11:06;117;0;36.65;17;19.06;1.56;34.8;9.80;69051;5125.013;-12838.275;51;150;156.4;57;56.9;-2;-1.8;28.8;-1.0;
16/06/2019 08:11:26;117;0;34.32;17;19.04;2.77;32.7;9.80;69050;5125.013;-12838.275;51;150;158.4;57;57.1;-2;-0.9;28.7;-1.0;
16/06/2019 08:11:46;117;0;32.06;17;18.90;2.89;30.6;9.80;69065;5125.013;-12838.275;51;150;156.4;57;57.1;-2;-0.9;28.8;-1.0;
16/06/2019 08:12:06;117;0;32.31;17;19.00;2.81;28.6;9.80;69080;5125.013;-12838.275;51;150;156.4;57;57.1;-2;-1.4;28.7;-1.0;
16/06/2019 08:12:26;117;0;26.85;17;18.80;2.81;26.4;9.90;69090;5125.013;-12838.275;51;150;158.4;57;57.1;1;1.4;28.7;-1.0;
16/06/2019 08:12:46;117;0;27.17;17;18.77;4.23;24.2;9.90;69104;5125.013;-12838.275;51;150;156.4;57;56.9;0;0.0;28.7;-1.0;
16/06/2019 08:13:06;117;0;26.22;17;18.26;3.15;22.1;9.90;69120;5125.013;-12838.275;51;150;156.4;57;56.9;0;-0.5;28.7;-1.0;
16/06/2019 08:13:26;117;0;27.23;17;18.24;2.96;20.0;9.90;69142;5125.013;-12838.275;51;150;156.4;57;57.1;0;-0.5;28.7;-1.0;
16/06/2019 08:13:46;117;0;17.88;17;17.46;3.07;18.1;9.90;69160;5125.013;-12838.275;51;150;156.4;57;56.9;5;5.0;28.7;-1.0;
16/06/2019 08:14:06;117;0;16.86;17;16.65;6.09;16.4;10.00;69197;5125.013;-12838.275;51;150;156.4;57;56.9;4;3.6;28.8;-1.0;
16/06/2019 08:14:26;117;0;24.43;17;16.32;4.88;14.8;10.00;69223;5125.013;-12838.275;51;150;156.4;57;56.9;0;-0.5;28.7;-1.0;
16/06/2019 08:14:46;117;0;28.25;17;16.39;3.06;13.2;10.10;69256;5125.013;-12838.275;51;150;156.4;57;56.9;-1;-0.9;28.7;-1.0;
16/06/2019 08:15:06;117;0;37.22;17;16.11;2.89;11.6;10.10;69291;5125.013;-12838.275;51;150;156.4;57;56.9;-1;-0.9;28.7;-1.0;
16/06/2019 08:15:26;117;0;36.35;17;15.99;2.90;10.1;10.10;69317;5125.013;-12838.275;51;150;156.4;57;57.1;-1;-0.9;28.7;-1.0;
