Timestamp;NavState;SecurityLevel;Heading;Declination;Pitch;Roll;Depth;Temperature;Pa;Lat;Lon;DesiredH;BallastCmd;BallastPos;LinCmd;LinPos;AngCmd;AngPos;Voltage;Altitude;
14/06/2019 05:00:16;117;0;218.46;17;21.20;1.16;10.0;12.10;69705;5138.182;-12820.419;207;100;106.9;54;54.1;1;0.9;29.2;-1.0;
14/06/2019 05:00:26;115;0;221.02;17;20.86;4.20;9.4;12.10;69716;5138.182;-12820.419;207;500;118.8;100;99.7;0;-0.5;29.2;-1.0;
14/06/2019 05:00:36;115;0;186.81;17;-23.99;4.28;8.8;12.20;69636;5138.182;-12820.419;207;500;267.3;100;100.0;0;-0.5;28.9;-1.0;
14/06/2019 05:00:46;115;0;181.99;17;-66.72;1.92;9.4;12.20;69429;5138.182;-12820.419;207;500;425.7;100;100.0;0;-0.5;28.9;-1.0;
14/06/2019 05:00:56;115;0;169.49;17;-60.49;3.09;8.8;12.20;69172;5138.182;-12820.419;207;500;506.9;100;100.0;0;-0.5;28.9;-1.0;
14/06/2019 05:01:06;115;0;192.12;17;-37.79;4.53;5.9;12.20;69059;5138.182;-12820.419;207;500;506.9;100;100.0;0;-0.5;29.2;-1.0;
14/06/2019 05:01:16;116;0;181.13;17;-48.28;6.00;3.1;12.20;69070;5138.182;-12820.419;207;500;505.0;100;100.1;0;-0.9;29.2;-1.0;
14/06/2019 05:01:36;116;0;307.71;17;-43.78;-7.01;1.7;12.30;69094;5138.182;-12820.419;207;500;505.0;100;100.0;0;-0.9;29.2;-1.0;
14/06/2019 05:01:56;116;0;279.25;17;-8.20;-3.56;1.1;12.30;69097;5138.085;-12820.288;207;500;508.9;100;99.9;0;-0.9;29.2;-1.0;
14/06/2019 05:02:18;116;0;324.88;17;-13.10;-0.80;1.1;12.40;69107;5138.086;-12820.285;207;500;508.9;100;99.9;0;-0.5;29.2;-1.0;
14/06/2019 05:02:38;116;0;319.01;17;-15.67;-0.24;1.2;12.40;69114;5138.088;-12820.282;207;500;508.9;100;99.9;0;-0.5;29.2;-1.0;
14/06/2019 05:03:00;116;0;336.36;17;-13.00;2.82;1.2;12.50;69126;5138.086;-12820.280;207;500;510.9;100;99.9;0;-0.5;29.2;-1.0;
14/06/2019 05:03:20;116;0;319.90;17;-7.47;2.78;1.1;12.60;69124;5138.090;-12820.284;207;500;508.9;100;99.9;0;-0.5;29.2;-1.0;
14/06/2019 05:03:40;116;0;308.45;17;-7.97;6.31;1.2;12.70;69142;5138.091;-12820.284;207;500;508.9;100;99.9;0;-0.5;29.2;-1.0;
14/06/2019 05:04:00;116;0;288.93;17;-8.26;3.10;1.2;12.80;69139;5138.092;-12820.283;207;500;508.9;100;99.9;0;-0.5;29.2;-1.0;
14/06/2019 05:04:20;116;0;297.81;17;-7.43;2.02;1.1;12.90;69141;5138.093;-12820.283;207;500;506.9;100;99.9;0;-0.5;29.2;-1.0;
14/06/2019 05:05:11;116;0;310.60;17;-9.15;1.61;1.1;13.10;69153;5138.092;-12820.280;207;500;506.9;100;99.9;0;-0.5;29.2;-1.0;
14/06/2019 05:05:31;116;0;292.87;17;-9.04;-0.97;1.1;13.10;69160;5138.094;-12820.283;207;500;508.9;100;99.9;0;-0.5;29.2;-1.0;
14/06/2019 05:05:51;116;0;294.46;17;-7.58;2.60;1.1;13.20;69164;5138.095;-12820.285;207;500;508.9;100;99.9;0;-0.5;29.2;-1.0;
14/06/2019 05:06:11;116;0;286.10;17;-6.82;-1.87;1.2;13.30;69166;5138.096;-12820.286;207;500;508.9;100;99.9;0;-0.5;29.2;-1.0;
14/06/2019 05:06:31;116;0;284.70;17;-8.66;6.01;1.1;13.40;69174;5138.096;-12820.285;207;500;508.9;100;99.9;0;-0.5;29.2;-1.0;
14/06/2019 05:06:51;116;0;285.06;17;-23.97;5.22;1.2;13.40;69168;5138.095;-12820.282;207;500;508.9;100;99.9;0;-0.5;29.2;-1.0;
14/06/2019 05:07:11;116;0;293.79;17;-5.27;3.09;1.1;13.50;69181;5138.094;-12820.280;207;500;508.9;100;99.9;0;-0.5;29.2;-1.0;
14/06/2019 05:07:31;116;0;309.87;17;-27.67;0.97;1.2;13.60;69180;5138.096;-12820.280;208;500;508.9;100;100.0;0;-0.5;29.2;-1.0;
14/06/2019 05:07:51;116;0;292.42;17;-13.72;-1.89;1.2;13.60;69187;5138.097;-12820.281;208;500;508.9;100;99.9;0;-0.5;29.2;-1.0;
14/06/2019 05:08:49;116;0;300.13;17;-17.41;1.04;1.2;13.90;69196;5138.097;-12820.280;208;500;508.9;100;99.9;0;-0.5;29.2;-1.0;
14/06/2019 05:09:09;116;0;298.13;17;-9.54;6.49;1.1;13.90;69204;5138.096;-12820.282;208;500;508.9;100;99.9;0;-0.5;29.2;-1.0;
14/06/2019 05:09:29;116;0;293.79;17;-10.49;0.44;1.1;14.00;69211;5138.090;-12820.233;208;500;508.9;100;99.9;0;-0.5;29.2;-1.0;
14/06/2019 05:10:04;116;0;321.10;17;-7.26;0.52;1.1;14.10;69202;5138.090;-12820.232;208;500;508.9;100;99.9;0;-0.5;29.1;-1.0;
14/06/2019 05:10:24;116;0;294.79;17;-4.54;2.18;1.1;14.20;69201;5138.091;-12820.241;208;500;510.9;100;99.9;0;-0.5;29.2;-1.0;
14/06/2019 05:10:44;116;0;277.99;17;-4.93;6.59;1.1;14.20;69203;5138.099;-12820.275;208;500;508.9;100;99.9;0;-0.5;29.2;-1.0;
14/06/2019 05:12:08;116;0;307.89;17;-6.36;0.59;1.2;14.50;69218;5138.099;-12820.274;208;500;508.9;100;99.9;0;-0.5;29.2;-1.0;
14/06/2019 05:12:28;116;0;277.84;17;-9.65;5.36;1.1;14.60;69219;5138.099;-12820.272;208;500;508.9;100;99.9;0;-0.5;29.2;-1.0;
14/06/2019 05:12:48;116;0;279.56;17;-5.86;5.13;1.0;14.60;69224;5138.097;-12820.273;208;500;508.9;100;99.9;0;-0.5;29.2;-1.0;
14/06/2019 05:13:08;116;0;290.13;17;-8.59;1.36;1.0;14.70;69227;5138.099;-12820.272;208;500;508.9;100;99.9;0;-0.5;29.2;-1.0;
14/06/2019 05:13:28;116;0;310.82;17;-13.15;4.05;1.1;14.70;69227;5138.101;-12820.272;208;500;508.9;100;99.9;0;-0.5;29.2;-1.0;
14/06/2019 05:13:48;116;0;279.30;17;-5.16;-1.95;1.1;14.70;69230;5138.100;-12820.270;208;500;508.9;100;99.9;0;-0.9;29.2;-1.0;
14/06/2019 05:14:08;116;0;304.50;17;-6.62;2.18;1.1;14.80;69238;5138.101;-12820.273;208;500;508.9;100;99.9;0;-0.5;29.2;-1.0;
14/06/2019 05:14:28;116;0;323.25;17;-15.30;10.44;1.1;14.80;69230;5138.100;-12820.267;208;500;508.9;100;99.9;0;-0.5;29.2;-1.0;
14/06/2019 05:14:53;116;0;291.02;17;-9.26;-0.33;1.2;14.90;69235;5138.100;-12820.267;208;500;506.9;100;99.9;0;-0.5;29.2;-1.0;
14/06/2019 05:15:13;116;0;314.50;17;-35.03;3.83;1.4;15.00;69243;5138.103;-12820.271;208;500;506.9;100;100.0;0;-0.5;29.2;-1.0;
14/06/2019 05:15:33;116;0;295.94;17;-5.82;3.57;1.0;15.00;69230;5138.101;-12820.268;208;500;508.9;100;99.9;0;-0.5;29.2;-1.0;
14/06/2019 05:15:53;116;0;312.28;17;-5.25;2.43;1.0;15.10;69240;5138.101;-12820.267;208;500;508.9;100;99.9;0;-0.5;29.2;-1.0;
14/06/2019 05:16:13;116;0;295.00;17;-12.16;4.25;1.0;15.10;69237;5138.102;-12820.267;208;500;508.9;100;99.9;0;-0.5;29.2;-1.0;
14/06/2019 05:16:33;110;0;282.43;17;-8.86;0.91;1.1;15.10;69234;5138.102;-12820.267;208;-250;407.9;100;99.9;0;-0.5;29.2;-1.0;
14/06/2019 05:16:43;110;0;306.05;17;-5.49;0.25;1.1;15.10;69480;5138.102;-12820.267;208;-250;267.3;100;99.9;0;-0.5;29.1;-1.0;
14/06/2019 05:16:53;110;0;304.64;17;-10.68;2.43;1.1;15.20;69672;5138.102;-12820.267;208;-250;132.7;100;99.9;0;-0.5;29.2;-1.0;
14/06/2019 05:17:03;110;0;288.37;17;-6.86;5.59;1.1;15.20;69897;5138.102;-12820.267;208;-250;-5.9;100;99.9;0;-0.5;29.1;-1.0;
14/06/2019 05:17:13;110;0;310.89;17;-5.78;9.78;1.1;15.10;70115;5138.102;-12820.267;208;-250;-146.5;99;98.8;0;-0.5;29.1;-1.0;
14/06/2019 05:17:23;110;0;325.69;17;-28.90;5.34;1.7;15.10;70346;5138.102;-12820.267;208;-250;-247.5;83;82.9;0;-0.5;29.1;-1.0;
14/06/2019 05:17:33;110;0;308.55;17;-45.56;2.14;4.1;15.10;70496;5138.102;-12820.267;208;-250;-249.5;72;71.8;0;-0.5;29.2;-1.0;
14/06/2019 05:17:43;100;0;298.68;17;-37.01;3.09;6.9;15.10;70483;5138.102;-12820.267;208;-250;-249.5;71;70.8;0;-0.5;29.2;-1.0;
14/06/2019 05:18:03;100;0;283.64;17;-25.36;3.72;11.6;15.10;70503;5138.102;-12820.267;208;-250;-249.5;71;70.8;45;45.1;29.2;0.0;
14/06/2019 05:18:23;100;0;261.91;17;-18.58;25.46;15.9;15.10;70489;5138.102;-12820.267;208;-250;-247.5;71;70.8;26;26.2;29.2;0.0;
14/06/2019 05:18:43;100;0;240.20;17;-19.39;15.23;18.9;15.00;70461;5138.102;-12820.267;208;-250;-247.5;71;70.8;13;12.6;29.2;0.0;
14/06/2019 05:19:03;100;0;232.80;17;-21.07;8.65;21.9;15.00;70441;5138.102;-12820.267;208;-250;-247.5;71;70.8;12;12.2;29.2;0.0;
14/06/2019 05:19:23;100;0;227.56;17;-21.12;8.67;24.8;14.90;70401;5138.102;-12820.267;208;-250;-245.5;71;70.8;12;12.2;29.2;0.0;
14/06/2019 05:19:43;100;0;219.65;17;-20.68;8.78;27.5;14.80;70366;5138.102;-12820.267;208;-250;-245.5;71;70.8;10;9.5;29.2;0.0;
14/06/2019 05:20:03;100;0;211.28;17;-19.54;7.30;30.3;14.80;70319;5138.102;-12820.267;208;-250;-245.5;71;70.8;9;9.0;29.2;0.0;
14/06/2019 05:20:23;100;0;203.72;17;-19.70;7.18;33.1;14.70;70285;5138.102;-12820.267;208;-250;-245.5;71;70.8;8;7.7;29.2;0.0;
14/06/2019 05:20:43;100;0;198.76;17;-19.66;6.57;35.7;14.60;70242;5138.102;-12820.267;208;-250;-245.5;71;70.8;8;7.2;29.2;0.0;
14/06/2019 05:21:03;100;0;195.85;17;-20.06;6.50;38.2;14.50;70222;5138.102;-12820.267;208;-250;-245.5;71;70.8;9;9.0;29.2;0.0;
14/06/2019 05:21:23;100;0;189.28;17;-19.77;7.83;40.7;14.40;70192;5138.102;-12820.267;208;-250;-245.5;71;70.8;9;9.9;29.2;0.0;
14/06/2019 05:21:43;100;0;180.73;17;-19.17;7.86;43.2;14.30;70159;5138.102;-12820.267;208;-250;-245.5;71;70.6;4;4.1;29.2;0.0;
14/06/2019 05:22:03;100;0;174.18;17;-19.60;4.67;45.7;14.30;70142;5138.102;-12820.267;208;-250;-245.5;71;70.8;2;1.8;29.2;0.0;
14/06/2019 05:22:23;100;0;168.19;17;-19.66;3.51;47.9;14.20;70116;5138.102;-12820.267;208;-250;-245.5;71;70.8;1;0.9;29.2;0.0;
14/06/2019 05:22:43;100;0;160.96;17;-19.74;3.58;50.2;14.10;70096;5138.102;-12820.267;208;-250;-243.6;71;70.6;-1;-1.4;29.2;0.0;
14/06/2019 05:23:03;100;0;156.03;17;-19.64;2.33;52.6;14.00;70084;5138.102;-12820.267;208;-250;-243.6;71;70.8;-1;-1.8;29.2;0.0;
14/06/2019 05:23:23;100;0;151.58;17;-19.56;2.37;54.9;14.00;70069;5138.102;-12820.267;208;-250;-245.5;71;70.6;-3;-3.2;29.2;0.0;
14/06/2019 05:23:43;100;0;148.14;17;-19.37;1.57;57.3;13.90;70058;5138.102;-12820.267;208;-250;-245.5;71;70.6;-3;-3.6;29.2;0.0;
14/06/2019 05:24:03;100;0;145.15;17;-19.44;1.55;59.6;13.80;70044;5138.102;-12820.267;208;-250;-243.6;71;70.6;-5;-5.0;29.2;0.0;
14/06/2019 05:24:23;100;0;138.15;17;-19.30;0.83;62.0;13.70;70035;5138.102;-12820.267;208;-250;-243.6;71;70.6;-10;-9.9;29.2;0.0;
14/06/2019 05:24:43;100;0;137.31;17;-19.48;-1.37;64.5;13.70;70021;5138.102;-12820.267;208;-250;-245.5;71;70.6;-10;-9.9;29.2;0.0;
14/06/2019 05:25:03;100;0;136.30;17;-18.45;-1.39;66.8;13.60;70014;5138.102;-12820.267;208;-250;-245.5;71;70.6;-12;-12.2;29.2;0.0;
14/06/2019 05:25:23;100;0;135.32;17;-19.01;-2.57;69.1;13.50;69995;5138.102;-12820.267;208;-250;-245.5;71;70.6;-14;-14.0;29.2;0.0;
14/06/2019 05:25:43;100;0;132.59;17;-18.48;-3.38;71.3;13.50;69985;5138.102;-12820.267;208;-250;-245.5;71;70.6;-17;-17.6;29.2;0.0;
14/06/2019 05:26:03;100;0;130.05;17;-18.36;-4.87;73.4;13.40;69977;5138.102;-12820.267;208;-250;-245.5;71;70.6;-20;-19.9;29.2;0.0;
14/06/2019 05:26:23;100;0;129.84;17;-18.09;-6.02;75.6;13.30;69966;5138.102;-12820.267;208;-250;-245.5;71;70.6;-22;-22.1;29.2;0.0;
14/06/2019 05:26:43;100;0;123.66;17;-18.52;-7.04;77.7;13.30;69953;5138.102;-12820.267;208;-250;-243.6;71;70.6;-28;-28.0;29.2;0.0;
14/06/2019 05:27:03;100;0;124.18;17;-18.13;-10.01;79.8;13.20;69945;5138.102;-12820.267;208;-250;-243.6;71;70.6;-29;-29.3;29.2;0.0;
14/06/2019 05:27:23;100;0;126.29;17;-17.47;-10.50;81.9;13.10;69931;5138.102;-12820.267;208;-250;-243.6;71;70.6;-27;-27.1;29.2;0.0;
14/06/2019 05:27:43;100;0;132.72;17;-17.10;-9.10;84.0;13.10;69917;5138.102;-12820.267;208;-250;-243.6;71;70.6;-24;-23.9;29.2;0.0;
14/06/2019 05:28:03;100;0;137.48;17;-16.99;-7.54;85.9;13.00;69916;5138.102;-12820.267;208;-250;-243.6;71;70.6;-22;-22.1;29.2;0.0;
14/06/2019 05:28:23;100;0;140.08;17;-17.03;-6.66;87.8;13.00;69912;5138.102;-12820.267;208;-250;-245.5;71;70.6;-22;-21.7;29.2;0.0;
14/06/2019 05:28:43;100;0;141.97;17;-16.49;-6.54;89.7;12.90;69898;5138.102;-12820.267;208;-250;-243.6;71;70.6;-23;-23.0;29.2;0.0;
14/06/2019 05:29:03;100;0;143.56;17;-16.36;-7.42;91.5;12.80;69881;5138.102;-12820.267;208;-250;-243.6;71;70.6;-22;-22.1;29.2;0.0;
14/06/2019 05:29:23;100;0;143.72;17;-16.32;-6.59;93.3;12.80;69871;5138.102;-12820.267;208;-250;-243.6;71;70.6;-23;-23.0;29.2;0.0;
14/06/2019 05:29:43;100;0;147.86;17;-15.58;-7.73;95.1;12.70;69864;5138.102;-12820.267;208;-250;-243.6;71;70.6;-21;-21.2;29.2;0.0;
14/06/2019 05:30:03;100;0;145.41;17;-15.84;-6.14;96.8;12.70;69857;5138.102;-12820.267;208;-250;-243.6;71;70.6;-23;-23.0;29.2;0.0;
14/06/2019 05:30:23;100;0;145.10;17;-16.10;-7.60;98.4;12.60;69843;5138.102;-12820.267;208;-250;-243.6;71;70.6;-23;-23.5;29.2;0.0;
14/06/2019 05:30:43;100;0;147.51;17;-16.04;-7.70;100.1;12.60;69843;5138.102;-12820.267;208;-250;-245.5;71;70.6;-22;-22.1;29.2;0.0;
14/06/2019 05:31:03;100;0;150.53;17;-15.81;-6.75;101.7;12.50;69828;5138.102;-12820.267;208;-250;-243.6;71;70.6;-21;-21.2;29.2;0.0;
14/06/2019 05:31:23;100;0;149.19;17;-15.44;-6.41;103.3;12.50;69827;5138.102;-12820.267;208;-250;-243.6;71;70.6;-22;-22.1;29.2;0.0;
14/06/2019 05:31:43;100;0;150.88;17;-15.41;-7.25;104.8;12.40;69816;5138.102;-12820.267;208;-250;-245.5;71;70.8;-22;-22.6;29.2;14.4;
14/06/2019 05:32:03;118;0;149.48;17;-15.64;-7.13;106.3;12.30;69805;5138.102;-12820.267;208;200;-227.7;54;53.7;0;0.5;29.2;0.0;
14/06/2019 05:32:13;118;0;131.83;17;8.90;3.89;107.0;12.30;69714;5138.102;-12820.267;208;200;-71.3;54;54.1;0;0.5;28.8;0.0;
14/06/2019 05:32:23;118;0;131.23;17;27.72;3.26;106.5;12.30;69513;5138.102;-12820.267;208;200;85.1;54;54.1;0;0.5;28.8;-1.0;
14/06/2019 05:32:34;118;0;132.37;17;29.62;3.85;105.4;12.30;69254;5138.102;-12820.267;208;200;204.0;54;53.9;0;0.5;28.8;-1.0;
14/06/2019 05:32:44;118;0;160.87;17;29.89;3.58;103.9;12.20;69065;5138.102;-12820.267;208;200;205.9;54;54.1;0;0.5;29.2;-1.0;
14/06/2019 05:32:54;118;0;162.17;17;31.70;3.82;101.9;12.20;69075;5138.102;-12820.267;208;200;205.9;54;54.1;0;0.5;29.2;-1.0;
14/06/2019 05:33:04;117;0;160.58;17;32.78;3.62;99.6;12.20;69074;5138.102;-12820.267;208;200;205.9;54;54.1;0;0.5;29.2;-1.0;
14/06/2019 05:33:24;117;0;161.38;17;32.88;3.70;94.2;12.20;69071;5138.102;-12820.267;208;200;205.9;54;53.9;16;16.2;29.2;-1.0;
14/06/2019 05:33:44;117;0;163.36;17;31.79;11.60;88.4;12.10;69080;5138.102;-12820.267;208;200;205.9;54;54.1;17;17.1;29.2;-1.0;
14/06/2019 05:34:04;117;0;159.13;17;32.23;12.24;83.3;12.00;69080;5138.102;-12820.267;208;200;205.9;54;53.9;21;21.2;29.2;-1.0;
14/06/2019 05:34:24;117;0;164.55;17;30.05;14.59;78.3;12.00;69078;5138.102;-12820.267;208;200;204.0;54;54.1;18;18.1;29.2;-1.0;
14/06/2019 05:34:44;117;0;174.94;17;29.51;11.83;73.7;11.90;69104;5138.102;-12820.267;208;200;205.9;54;53.9;13;13.1;29.2;-1.0;
14/06/2019 05:35:04;117;0;176.57;17;28.78;9.29;69.4;11.90;69099;5138.102;-12820.267;208;200;205.9;54;53.9;14;14.0;29.2;-1.0;
14/06/2019 05:35:24;117;0;177.34;17;28.62;10.43;65.1;11.90;69097;5138.102;-12820.267;208;200;205.9;54;53.9;15;14.9;29.2;-1.0;
14/06/2019 05:35:44;117;0;178.60;17;28.76;11.15;61.0;11.80;69110;5138.102;-12820.267;208;200;205.9;54;53.9;16;15.8;29.2;-1.0;
14/06/2019 05:36:04;117;0;182.03;17;28.07;11.02;56.8;11.80;69110;5138.102;-12820.267;208;200;205.9;54;53.9;14;14.0;29.2;-1.0;
14/06/2019 05:36:24;117;0;185.88;17;27.93;9.60;52.9;11.70;69124;5138.102;-12820.267;208;200;205.9;54;53.9;13;13.1;29.2;-1.0;
14/06/2019 05:36:44;117;0;186.59;17;28.17;9.78;48.7;11.70;69136;5138.102;-12820.267;208;200;205.9;54;53.9;14;14.4;29.2;-1.0;
14/06/2019 05:37:04;117;0;193.41;17;28.12;10.55;44.5;11.70;69131;5138.102;-12820.267;208;200;205.9;54;53.9;14;14.9;29.2;-1.0;
14/06/2019 05:37:24;117;0;192.06;17;27.17;10.77;40.6;11.70;69148;5138.102;-12820.267;208;200;205.9;54;53.9;14;14.9;29.2;-1.0;
14/06/2019 05:37:44;117;0;192.81;17;27.19;10.55;36.9;11.60;69160;5138.102;-12820.267;208;200;205.9;54;53.9;14;14.9;29.2;-1.0;
14/06/2019 05:38:04;117;0;189.20;17;27.11;10.62;33.2;11.60;69172;5138.102;-12820.267;208;200;207.9;54;53.9;14;14.9;29.2;-1.0;
14/06/2019 05:38:24;117;0;190.67;17;25.90;10.58;29.8;11.60;69191;5138.102;-12820.267;208;200;205.9;54;53.9;14;14.9;29.2;-1.0;
14/06/2019 05:38:44;117;0;192.72;17;25.60;10.35;26.6;11.60;69213;5138.102;-12820.267;208;200;205.9;54;53.9;14;14.9;29.2;-1.0;
14/06/2019 05:39:04;117;0;187.21;17;25.26;10.67;23.5;11.60;69275;5138.102;-12820.267;208;200;205.9;54;53.9;17;17.1;29.2;-1.0;
14/06/2019 05:39:24;117;0;186.90;17;24.95;12.06;20.8;11.60;69320;5138.102;-12820.267;208;200;205.9;54;54.1;16;15.8;29.2;-1.0;
14/06/2019 05:39:44;117;0;187.78;17;24.64;10.58;17.8;11.60;69371;5138.102;-12820.267;208;200;205.9;54;54.1;15;14.9;29.2;-1.0;
14/06/2019 05:40:04;117;0;187.61;17;24.32;10.72;14.8;11.70;69420;5138.102;-12820.267;208;200;205.9;54;53.9;15;14.9;29.2;-1.0;
14/06/2019 05:40:24;117;0;207.63;17;23.20;10.87;12.2;11.70;69459;5138.102;-12820.267;208;200;207.9;54;53.9;15;14.9;29.2;-1.0;
