Timestamp;NavState;SecurityLevel;Heading;Declination;Pitch;Roll;Depth;Temperature;Pa;Lat;Lon;DesiredH;BallastCmd;BallastPos;LinCmd;LinPos;AngCmd;AngPos;Voltage;Altitude;
14/06/2019 18:57:50;117;0;199.80;17;16.43;3.64;13.3;10.40;69360;5132.553;-12823.882;214;150;158.4;57;57.1;1;0.5;29.0;-1.0;
14/06/2019 18:58:00;110;0;202.01;17;16.23;3.67;12.4;10.40;69370;5132.553;-12823.882;214;-300;35.6;73;73.2;0;-0.5;29.1;-1.0;
14/06/2019 18:58:10;110;0;197.88;17;-7.28;3.46;11.9;10.40;69674;5132.553;-12823.882;214;-300;-132.7;73;72.9;0;-0.5;29.0;-1.0;
14/06/2019 18:58:20;110;0;199.63;17;-21.78;3.39;12.5;10.40;69890;5132.553;-12823.882;214;-300;-303.0;73;72.9;0;-0.5;29.0;-1.0;
14/06/2019 18:58:30;110;0;196.26;17;-25.66;3.51;13.8;10.40;70172;5132.553;-12823.882;214;-300;-301.0;73;72.9;0;-0.5;29.1;-1.0;
14/06/2019 18:58:40;100;0;191.65;17;-27.90;3.32;15.5;10.50;70163;5132.553;-12823.882;214;-300;-303.0;73;72.9;0;-0.5;29.1;-1.0;
14/06/2019 18:59:00;100;0;182.60;17;-26.59;3.47;19.6;10.50;70164;5132.553;-12823.882;214;-300;-303.0;73;72.9;-9;-9.0;29.1;0.0;
14/06/2019 18:59:20;100;0;183.05;17;-26.02;-0.71;24.2;10.60;70163;5132.553;-12823.882;214;-300;-303.0;73;72.9;-7;-7.2;29.1;0.0;
14/06/2019 18:59:40;100;0;183.19;17;-25.44;0.50;28.2;10.60;70120;5132.553;-12823.882;214;-300;-303.0;73;72.9;-6;-5.4;29.1;0.0;
14/06/2019 19:00:00;100;0;180.77;17;-24.82;1.45;32.1;10.60;70057;5132.553;-12823.882;214;-300;-303.0;73;72.9;-8;-8.1;29.1;0.0;
14/06/2019 19:00:20;100;0;176.72;17;-24.52;-0.36;36.0;10.60;70007;5132.553;-12823.882;214;-300;-303.0;73;72.7;-10;-9.9;29.1;0.0;
14/06/2019 19:00:40;100;0;170.83;17;-24.32;-1.43;40.1;10.60;69969;5132.553;-12823.882;214;-300;-303.0;73;72.9;-13;-13.5;29.1;0.0;
14/06/2019 19:01:00;100;0;170.86;17;-24.41;-2.84;44.0;10.60;69947;5132.553;-12823.882;214;-300;-303.0;73;72.9;-12;-12.2;29.1;0.0;
14/06/2019 19:01:20;100;0;166.98;17;-24.06;-1.70;47.9;10.60;69919;5132.553;-12823.882;214;-300;-303.0;73;72.9;-14;-14.4;29.1;0.0;
14/06/2019 19:01:40;100;0;160.37;17;-24.28;-3.41;51.8;10.50;69896;5132.553;-12823.882;214;-300;-305.0;73;72.9;-16;-15.8;29.1;0.0;
14/06/2019 19:02:00;100;0;158.58;17;-24.16;-3.84;55.5;10.50;69882;5132.553;-12823.882;214;-300;-303.0;73;72.9;-16;-16.2;29.1;0.0;
14/06/2019 19:02:20;100;0;158.71;17;-24.50;-3.76;59.1;10.50;69871;5132.553;-12823.882;214;-300;-303.0;73;72.9;-16;-16.2;29.1;0.0;
14/06/2019 19:02:40;100;0;152.37;17;-23.98;-4.10;62.9;10.50;69847;5132.553;-12823.882;214;-300;-303.0;73;72.9;-19;-19.4;29.1;0.0;
14/06/2019 19:03:00;100;0;150.65;17;-23.91;-5.44;66.6;10.50;69840;5132.553;-12823.882;214;-300;-303.0;73;72.9;-21;-21.7;29.1;0.0;
14/06/2019 19:03:20;100;0;149.50;17;-23.38;-6.69;70.1;10.50;69841;5132.553;-12823.882;214;-300;-303.0;73;72.9;-22;-22.1;29.1;0.0;
14/06/2019 19:03:40;100;0;152.54;17;-23.39;-6.70;73.4;10.50;69831;5132.553;-12823.882;214;-300;-305.0;73;72.9;-20;-19.9;29.1;0.0;
14/06/2019 19:04:00;100;0;150.23;17;-23.25;-5.21;76.7;10.40;69828;5132.553;-12823.882;214;-300;-303.0;73;72.9;-24;-24.4;29.1;0.0;
14/06/2019 19:04:20;100;0;151.25;17;-23.43;-8.20;79.8;10.40;69806;5132.553;-12823.882;214;-300;-303.0;73;72.9;-23;-23.0;29.1;0.0;
14/06/2019 19:04:40;100;0;157.60;17;-22.34;-6.82;82.9;10.40;69796;5132.553;-12823.882;214;-300;-303.0;73;72.9;-20;-19.4;29.1;0.0;
14/06/2019 19:05:00;100;0;160.93;17;-22.19;-5.06;86.1;10.40;69785;5132.553;-12823.882;214;-300;-303.0;73;72.9;-19;-19.0;29.1;0.0;
14/06/2019 19:05:20;100;0;162.86;17;-21.85;-5.34;89.4;10.40;69777;5132.553;-12823.882;214;-300;-303.0;73;72.9;-19;-19.4;29.1;0.0;
14/06/2019 19:05:40;100;0;156.00;17;-21.16;-5.48;92.6;10.40;69764;5132.553;-12823.882;214;-300;-303.0;73;72.9;-24;-23.9;29.1;0.0;
14/06/2019 19:06:00;100;0;155.95;17;-21.06;-7.84;95.5;10.30;69760;5132.553;-12823.882;214;-300;-303.0;73;72.9;-24;-24.4;29.1;0.0;
14/06/2019 19:06:20;100;0;158.41;17;-21.23;-7.87;98.3;10.30;69749;5132.553;-12823.882;214;-300;-303.0;73;72.9;-21;-21.2;29.1;0.0;
14/06/2019 19:06:40;100;0;155.79;17;-21.35;-6.08;101.1;10.30;69740;5132.553;-12823.882;214;-300;-303.0;73;72.9;-24;-23.9;29.1;0.0;
14/06/2019 19:07:00;100;0;162.21;17;-20.78;-7.81;104.0;10.30;69741;5132.553;-12823.882;214;-300;-303.0;73;72.9;-19;-19.0;29.1;0.0;
14/06/2019 19:07:20;100;0;162.89;17;-20.64;-4.83;106.7;10.30;69726;5132.553;-12823.882;214;-300;-303.0;73;72.9;-20;-19.9;29.1;0.0;
14/06/2019 19:07:40;100;0;162.19;17;-20.98;-5.97;109.2;10.20;69715;5132.553;-12823.882;214;-300;-303.0;73;72.9;-21;-21.2;29.1;0.0;
14/06/2019 19:08:00;100;0;162.44;17;-20.66;-6.59;111.8;10.20;69706;5132.553;-12823.882;214;-300;-303.0;73;72.9;-21;-21.7;29.1;0.0;
14/06/2019 19:08:20;100;0;163.44;17;-20.55;-6.60;114.5;10.20;69711;5132.553;-12823.882;214;-300;-305.0;73;72.9;-21;-21.7;29.1;0.0;
14/06/2019 19:08:40;100;0;163.12;17;-20.28;-6.60;117.1;10.20;69703;5132.553;-12823.882;214;-300;-303.0;73;72.9;-21;-21.7;29.1;0.0;
14/06/2019 19:09:00;100;0;163.55;17;-20.53;-6.70;119.6;10.20;69687;5132.553;-12823.882;214;-300;-303.0;73;72.9;-21;-21.7;29.1;0.0;
14/06/2019 19:09:20;100;0;166.23;17;-20.62;-6.72;122.0;10.10;69685;5132.553;-12823.882;214;-300;-303.0;73;72.9;-19;-18.5;29.1;0.0;
14/06/2019 19:09:40;100;0;168.65;17;-20.44;-5.01;124.3;10.10;69684;5132.553;-12823.882;214;-300;-303.0;73;72.9;-19;-18.1;29.1;0.0;
14/06/2019 19:10:00;100;0;176.87;17;-20.30;-4.94;126.9;10.10;69676;5132.553;-12823.882;214;-300;-303.0;73;72.9;-15;-14.9;29.0;0.0;
14/06/2019 19:10:20;100;0;181.35;17;-19.42;-3.00;129.5;10.10;69666;5132.553;-12823.882;214;-300;-303.0;73;72.9;-14;-14.0;29.1;0.0;
14/06/2019 19:10:40;100;0;181.28;17;-19.09;-3.06;131.9;10.10;69655;5132.553;-12823.882;214;-300;-303.0;73;72.9;-16;-16.2;29.1;0.0;
14/06/2019 19:11:01;100;0;179.59;17;-18.83;-4.22;134.6;10.00;69642;5132.553;-12823.882;214;-300;-303.0;73;72.9;-18;-18.5;29.1;0.0;
14/06/2019 19:11:21;100;0;174.29;17;-19.04;-5.37;136.9;10.00;69632;5132.553;-12823.882;214;-300;-303.0;73;72.9;-21;-21.2;29.1;43.5;
14/06/2019 19:11:41;100;0;175.61;17;-19.71;-6.88;139.1;10.00;69623;5132.553;-12823.882;214;-300;-303.0;73;72.9;-19;-19.0;29.0;41.3;
14/06/2019 19:12:01;100;0;175.80;17;-19.08;-4.95;141.4;9.90;69608;5132.553;-12823.882;214;-300;-303.0;73;72.9;-19;-18.1;29.1;39.0;
14/06/2019 19:12:21;100;0;173.27;17;-18.80;-4.91;143.7;9.90;69600;5132.553;-12823.882;214;-300;-303.0;73;72.9;-20;-19.9;29.1;36.7;
14/06/2019 19:12:41;100;0;172.27;17;-19.08;-6.04;145.8;9.90;69584;5132.553;-12823.882;214;-300;-303.0;73;72.9;-20;-20.3;29.1;34.4;
14/06/2019 19:13:01;100;0;170.06;17;-18.77;-6.03;148.0;9.90;69579;5132.553;-12823.882;214;-300;-303.0;73;72.9;-21;-21.2;29.1;32.3;
14/06/2019 19:13:21;100;0;167.33;17;-19.31;-6.61;150.1;9.90;69569;5132.553;-12823.882;214;-300;-303.0;73;72.9;-22;-22.1;29.1;30.1;
14/06/2019 19:13:41;100;0;167.16;17;-18.93;-7.18;152.2;9.80;69561;5132.553;-12823.882;214;-300;-303.0;73;72.7;-21;-21.2;29.0;27.9;
14/06/2019 19:14:01;100;0;170.35;17;-18.83;-6.32;154.3;9.80;69558;5132.553;-12823.882;214;-300;-306.9;73;72.9;-19;-19.0;29.0;25.5;
14/06/2019 19:14:21;100;0;171.93;17;-18.85;-5.12;156.4;9.80;69550;5132.553;-12823.882;214;-300;-303.0;73;72.9;-19;-18.5;29.1;23.6;
14/06/2019 19:14:41;100;0;173.87;17;-18.95;-4.92;158.5;9.70;69541;5132.553;-12823.882;214;-300;-303.0;73;72.9;-18;-17.6;29.1;21.5;
14/06/2019 19:15:01;100;0;177.23;17;-18.71;-4.42;160.6;9.70;69545;5132.553;-12823.882;214;-300;-303.0;73;72.9;-16;-15.8;29.1;19.4;
14/06/2019 19:15:21;118;0;175.27;17;-18.75;-3.94;162.7;9.70;69529;5132.553;-12823.882;214;150;-291.1;57;56.8;0;0.9;29.1;17.3;
14/06/2019 19:15:31;118;0;138.35;17;1.82;4.18;163.5;9.70;69438;5132.553;-12823.882;214;150;-132.7;57;57.1;0;0.9;28.6;17.3;
14/06/2019 19:15:41;118;0;138.28;17;19.21;3.69;163.3;9.70;69234;5132.553;-12823.882;214;150;21.8;57;57.1;0;0.9;28.5;-1.0;
14/06/2019 19:15:51;118;0;138.46;17;23.78;3.87;162.5;9.60;68986;5132.553;-12823.882;214;150;156.4;57;57.1;0;0.9;28.5;-1.0;
14/06/2019 19:16:01;118;0;174.41;17;24.09;4.45;161.2;9.60;68788;5132.553;-12823.882;214;150;154.5;57;57.1;0;0.9;29.1;-1.0;
14/06/2019 19:16:11;118;0;173.13;17;26.46;3.79;159.6;9.60;68795;5132.553;-12823.882;214;150;156.4;57;57.1;0;0.9;29.1;-1.0;
14/06/2019 19:16:21;117;0;173.84;17;27.71;3.99;157.7;9.60;68780;5132.553;-12823.882;214;150;156.4;57;57.1;0;0.9;29.1;-1.0;
14/06/2019 19:16:41;117;0;170.54;17;27.80;3.86;153.5;9.60;68781;5132.553;-12823.882;214;150;156.4;57;57.1;21;21.7;29.1;-1.0;
14/06/2019 19:17:01;117;0;177.49;17;27.37;14.44;148.7;9.60;68777;5132.553;-12823.882;214;150;156.4;57;57.1;17;17.1;29.1;-1.0;
14/06/2019 19:17:21;117;0;184.23;17;27.30;11.38;144.4;9.60;68780;5132.553;-12823.882;214;150;156.4;57;57.1;13;13.1;29.0;-1.0;
14/06/2019 19:17:41;117;0;189.86;17;27.34;9.34;140.0;9.50;68763;5132.553;-12823.882;214;150;156.4;57;57.1;12;11.7;29.1;-1.0;
14/06/2019 19:18:01;117;0;191.42;17;26.88;8.58;135.8;9.50;68774;5132.553;-12823.882;214;150;156.4;57;57.1;13;13.1;29.1;-1.0;
14/06/2019 19:18:21;117;0;197.09;17;26.80;9.76;131.7;9.50;68778;5132.553;-12823.882;214;150;156.4;57;57.1;13;13.5;29.1;-1.0;
14/06/2019 19:18:41;117;0;198.53;17;25.75;9.94;127.7;9.50;68793;5132.553;-12823.882;214;150;156.4;57;57.1;13;13.5;29.1;-1.0;
14/06/2019 19:19:01;117;0;191.72;17;26.02;9.75;124.2;9.50;68802;5132.553;-12823.882;214;150;156.4;57;57.1;17;17.1;29.1;-1.0;
14/06/2019 19:19:21;117;0;190.79;17;26.13;11.75;120.6;9.40;68811;5132.553;-12823.882;214;150;156.4;57;57.1;17;17.6;29.1;-1.0;
14/06/2019 19:19:41;117;0;195.56;17;25.67;11.91;116.7;9.40;68822;5132.553;-12823.882;214;150;158.4;57;57.1;13;13.1;29.1;-1.0;
14/06/2019 19:20:01;117;0;198.80;17;25.38;9.15;112.8;9.40;68830;5132.553;-12823.882;214;150;158.4;57;57.1;13;12.6;29.1;-1.0;
14/06/2019 19:20:21;117;0;200.27;17;25.46;9.21;109.2;9.40;68838;5132.553;-12823.882;214;150;156.4;57;57.1;12;11.7;29.1;-1.0;
14/06/2019 19:20:41;117;0;203.91;17;25.47;8.53;105.6;9.40;68829;5132.553;-12823.882;214;150;156.4;57;57.1;11;10.8;29.1;-1.0;
14/06/2019 19:21:01;117;0;202.46;17;24.90;8.20;101.9;9.40;68845;5132.553;-12823.882;214;150;156.4;57;57.1;12;12.2;29.0;-1.0;
14/06/2019 19:21:21;117;0;204.51;17;24.88;9.59;98.5;9.40;68846;5132.553;-12823.882;214;150;156.4;57;57.1;11;10.4;29.1;-1.0;
14/06/2019 19:21:41;117;0;210.62;17;24.20;7.97;95.2;9.40;68851;5132.553;-12823.882;214;150;156.4;57;57.1;8;8.1;29.0;-1.0;
14/06/2019 19:22:01;117;0;211.94;17;23.43;6.81;92.1;9.40;68857;5132.553;-12823.882;214;150;156.4;57;57.1;8;7.7;29.1;-1.0;
14/06/2019 19:22:21;117;0;207.32;17;23.24;6.83;89.1;9.40;68869;5132.553;-12823.882;214;150;158.4;57;57.1;11;11.3;29.1;-1.0;
14/06/2019 19:22:41;117;0;205.92;17;23.17;8.92;86.2;9.40;68876;5132.553;-12823.882;214;150;154.5;57;57.1;11;11.7;29.1;-1.0;
14/06/2019 19:23:01;117;0;202.51;17;22.94;8.98;83.1;9.40;68895;5132.553;-12823.882;214;150;158.4;57;57.1;12;12.2;29.1;-1.0;
14/06/2019 19:23:21;117;0;204.51;17;21.81;9.86;80.1;9.40;68896;5132.553;-12823.882;214;150;156.4;57;57.1;10;9.9;29.1;-1.0;
14/06/2019 19:23:41;117;0;211.31;17;21.25;7.74;77.3;9.40;68900;5132.553;-12823.882;214;150;158.4;57;57.1;5;5.0;29.1;-1.0;
14/06/2019 19:24:01;117;0;210.77;17;21.17;5.37;74.6;9.40;68912;5132.553;-12823.882;214;150;156.4;57;57.1;7;7.2;29.1;-1.0;
14/06/2019 19:24:21;117;0;212.33;17;21.17;7.09;71.9;9.40;68920;5132.553;-12823.882;214;150;156.4;57;57.1;5;5.0;29.1;-1.0;
14/06/2019 19:24:41;117;0;212.64;17;20.95;5.45;69.2;9.40;68930;5132.553;-12823.882;214;150;158.4;57;57.1;5;4.5;29.1;-1.0;
14/06/2019 19:25:01;117;0;210.78;17;20.63;5.52;66.7;9.40;68940;5132.553;-12823.882;214;150;158.4;57;57.1;6;5.9;29.1;-1.0;
14/06/2019 19:25:21;117;0;211.17;17;20.10;6.19;64.3;9.40;68940;5132.553;-12823.882;214;150;158.4;57;57.1;5;5.0;29.1;-1.0;
14/06/2019 19:25:41;117;0;209.94;17;19.97;5.48;62.1;9.40;68934;5132.553;-12823.882;214;150;156.4;57;57.1;6;6.3;29.1;-1.0;
14/06/2019 19:26:01;117;0;212.39;17;19.94;6.67;60.0;9.40;68941;5132.553;-12823.882;214;150;156.4;57;57.1;3;2.7;29.1;-1.0;
14/06/2019 19:26:21;117;0;211.52;17;20.09;4.36;57.8;9.40;68949;5132.553;-12823.882;214;150;158.4;57;57.1;4;4.1;29.1;-1.0;
14/06/2019 19:26:41;117;0;212.21;17;20.07;5.56;55.4;9.40;68944;5132.553;-12823.882;214;150;158.4;57;57.1;2;1.8;29.1;-1.0;
14/06/2019 19:27:01;117;0;212.60;17;19.54;3.73;53.1;9.40;68944;5132.553;-12823.882;214;150;158.4;57;57.1;2;1.4;29.1;-1.0;
14/06/2019 19:27:21;117;0;214.12;17;19.40;3.82;50.9;9.40;68952;5132.553;-12823.882;214;150;156.4;57;57.1;0;0.0;29.1;-1.0;
14/06/2019 19:27:41;117;0;217.51;17;19.44;2.79;48.7;9.40;68957;5132.553;-12823.882;214;150;156.4;57;57.1;-1;-0.9;29.1;-1.0;
14/06/2019 19:28:01;117;0;219.83;17;19.13;2.80;46.6;9.40;68971;5132.553;-12823.882;214;150;156.4;57;57.1;-2;-1.8;29.1;-1.0;
14/06/2019 19:28:21;117;0;218.36;17;19.07;1.98;44.6;9.40;68960;5132.553;-12823.882;214;150;156.4;57;57.1;-1;-0.9;29.1;-1.0;
14/06/2019 19:28:41;117;0;215.65;17;19.08;3.29;42.6;9.40;68976;5132.553;-12823.882;214;150;156.4;57;57.1;0;0.0;29.1;-1.0;
14/06/2019 19:29:01;117;0;214.43;17;18.85;3.20;40.5;9.50;68989;5132.553;-12823.882;214;150;158.4;57;57.1;0;0.0;29.1;-1.0;
14/06/2019 19:29:21;117;0;211.20;17;18.74;3.22;38.6;9.50;68997;5132.553;-12823.882;214;150;156.4;57;57.1;0;0.5;29.1;-1.0;
14/06/2019 19:29:41;117;0;206.84;17;18.56;3.25;36.6;9.50;68999;5132.553;-12823.882;214;150;158.4;57;57.1;1;1.4;29.1;-1.0;
14/06/2019 19:30:01;117;0;209.59;17;18.07;4.07;34.7;9.50;69009;5132.553;-12823.882;214;150;156.4;57;57.1;-1;-0.9;29.1;-1.0;
14/06/2019 19:30:21;117;0;205.43;17;18.26;2.55;33.0;9.50;69015;5132.553;-12823.882;214;150;158.4;57;57.1;0;0.0;29.1;-1.0;
14/06/2019 19:30:41;117;0;203.79;17;18.24;3.28;31.1;9.50;69035;5132.553;-12823.882;214;150;158.4;57;57.1;0;0.5;29.0;-1.0;
14/06/2019 19:31:01;117;0;205.47;17;17.60;3.43;29.2;9.60;69058;5132.553;-12823.882;214;150;156.4;57;57.1;-1;-0.9;29.1;-1.0;
14/06/2019 19:31:21;117;0;198.59;17;17.69;2.39;27.3;9.60;69079;5132.553;-12823.882;214;150;158.4;57;57.1;2;1.8;29.1;-1.0;
14/06/2019 19:31:41;117;0;194.47;17;16.69;4.43;25.6;9.60;69123;5132.553;-12823.882;214;150;158.4;57;57.2;2;2.3;29.0;-1.0;
14/06/2019 19:32:01;117;0;184.26;17;16.66;4.36;23.7;9.60;69154;5132.553;-12823.882;214;150;156.4;57;57.1;7;7.7;29.1;-1.0;
14/06/2019 19:32:21;117;0;187.00;17;15.78;7.44;22.1;9.70;69189;5132.553;-12823.882;214;150;158.4;57;57.1;4;4.1;29.1;-1.0;
14/06/2019 19:32:41;117;0;188.68;17;15.72;5.03;20.5;9.70;69235;5132.553;-12823.882;214;150;158.4;57;57.1;2;1.8;29.0;-1.0;
14/06/2019 19:33:01;117;0;188.77;17;16.01;3.79;18.9;9.80;69259;5132.553;-12823.882;214;150;158.4;57;57.1;2;1.4;29.1;-1.0;
14/06/2019 19:33:21;117;0;189.76;17;15.87;3.97;17.5;9.80;69293;5132.553;-12823.882;214;150;158.4;57;57.1;2;1.4;29.1;-1.0;
14/06/2019 19:33:41;117;0;190.26;17;16.28;4.03;15.9;9.90;69302;5132.553;-12823.882;214;150;156.4;57;57.1;2;1.4;29.0;-1.0;
14/06/2019 19:34:01;117;0;189.60;17;15.97;3.95;14.3;9.90;69332;5132.553;-12823.882;214;150;158.4;57;57.1;3;3.2;29.1;-1.0;
14/06/2019 19:34:21;117;0;183.99;17;15.15;5.24;12.5;10.00;69358;5132.553;-12823.882;214;150;156.4;57;57.1;7;7.2;29.1;-1.0;
14/06/2019 19:34:41;117;0;197.37;17;12.61;7.35;11.1;10.00;69391;5132.553;-12823.882;214;150;156.4;57;57.1;7;7.7;29.1;-1.0;
