Timestamp;NavState;SecurityLevel;Heading;Declination;Pitch;Roll;Depth;Temperature;Pa;Lat;Lon;DesiredH;BallastCmd;BallastPos;LinCmd;LinPos;AngCmd;AngPos;Voltage;Altitude;
16/06/2019 06:32:20;117;0;38.64;17;16.29;2.76;9.3;10.40;69324;5124.389;-12839.755;52;150;158.4;57;57.1;0;0.0;28.8;-1.0;
16/06/2019 06:32:30;110;0;42.93;17;16.30;3.82;8.6;10.40;69342;5124.389;-12839.755;52;-300;-55.4;73;73.3;0;0.5;28.8;-1.0;
16/06/2019 06:32:40;110;0;46.41;17;-10.41;3.82;8.1;10.40;69835;5124.389;-12839.755;52;-300;-301.0;73;73.0;0;0.5;28.7;-1.0;
16/06/2019 06:32:50;110;0;32.87;17;-23.54;4.10;8.9;10.40;70155;5124.389;-12839.755;52;-300;-301.0;73;72.9;0;0.5;28.7;-1.0;
16/06/2019 06:33:00;100;0;31.41;17;-27.26;3.55;10.5;10.40;70132;5124.389;-12839.755;52;-300;-303.0;73;73.0;0;0.5;28.7;-1.0;
16/06/2019 06:33:20;100;0;26.21;17;-27.55;4.17;14.8;10.50;70143;5124.389;-12839.755;52;-300;-305.0;73;73.0;0;0.5;28.7;0.0;
16/06/2019 06:33:40;100;0;17.95;17;-24.47;3.74;19.2;10.50;70093;5124.389;-12839.755;52;-300;-305.0;73;72.9;-8;-8.1;28.8;0.0;
16/06/2019 06:34:00;100;0;15.93;17;-25.38;-0.39;22.9;10.60;70051;5124.389;-12839.755;52;-300;-305.0;73;73.0;-7;-7.2;28.8;0.0;
16/06/2019 06:34:20;100;0;14.47;17;-25.51;0.69;26.6;10.60;70024;5124.389;-12839.755;52;-300;-303.0;73;73.0;-6;-5.4;28.8;0.0;
16/06/2019 06:34:40;100;0;12.33;17;-24.83;1.43;30.5;10.60;69996;5124.389;-12839.755;52;-300;-303.0;73;73.0;-7;-7.2;28.7;0.0;
16/06/2019 06:35:00;100;0;9.01;17;-25.00;0.07;34.3;10.60;69987;5124.389;-12839.755;52;-300;-305.0;73;73.0;-8;-8.6;28.8;0.0;
16/06/2019 06:35:20;100;0;6.75;17;-24.75;-0.44;38.1;10.60;69960;5124.389;-12839.755;52;-300;-305.0;73;73.0;-9;-9.5;28.7;0.0;
16/06/2019 06:35:40;100;0;4.90;17;-24.85;-0.94;41.8;10.60;69961;5124.389;-12839.755;52;-300;-303.0;73;73.0;-10;-9.9;28.8;0.0;
16/06/2019 06:36:00;100;0;2.83;17;-25.14;-0.96;45.2;10.60;69948;5124.389;-12839.755;52;-300;-305.0;73;73.0;-11;-10.8;28.8;0.0;
16/06/2019 06:36:20;100;0;1.84;17;-24.71;-1.77;49.0;10.60;69936;5124.389;-12839.755;52;-300;-303.0;73;73.0;-11;-11.7;28.8;0.0;
16/06/2019 06:36:40;100;0;359.10;17;-24.61;-1.80;52.6;10.60;69934;5124.389;-12839.755;52;-300;-305.0;73;73.0;-12;-12.2;28.7;0.0;
16/06/2019 06:37:00;100;0;355.15;17;-24.38;-2.29;56.0;10.60;69912;5124.389;-12839.755;52;-300;-303.0;73;73.0;-15;-14.9;28.7;0.0;
16/06/2019 06:37:20;100;0;355.20;17;-24.62;-3.78;59.4;10.60;69886;5124.389;-12839.755;52;-300;-305.0;73;72.9;-14;-14.0;28.7;0.0;
16/06/2019 06:37:40;100;0;355.13;17;-24.06;-2.57;62.7;10.60;69870;5124.389;-12839.755;52;-300;-305.0;73;73.0;-14;-13.1;28.7;0.0;
16/06/2019 06:38:00;100;0;359.85;17;-23.89;-2.60;65.9;10.60;69861;5124.389;-12839.755;52;-300;-303.0;73;73.0;-12;-12.2;28.7;0.0;
16/06/2019 06:38:20;100;0;2.51;17;-23.79;-1.71;69.1;10.50;69846;5124.389;-12839.755;52;-300;-305.0;73;73.0;-12;-11.3;28.7;0.0;
16/06/2019 06:38:40;100;0;353.58;17;-23.99;-1.86;72.1;10.50;69823;5124.389;-12839.755;52;-300;-305.0;73;73.0;-18;-18.1;28.8;0.0;
16/06/2019 06:39:00;100;0;348.35;17;-23.96;-5.08;75.3;10.50;69818;5124.389;-12839.755;52;-300;-305.0;73;73.0;-22;-22.1;28.7;0.0;
16/06/2019 06:39:20;100;0;350.16;17;-23.66;-6.80;78.6;10.50;69805;5124.389;-12839.755;52;-300;-305.0;73;72.9;-20;-19.4;28.8;0.0;
16/06/2019 06:39:40;100;0;355.08;17;-22.87;-5.08;81.8;10.50;69805;5124.389;-12839.755;52;-300;-303.0;73;73.0;-17;-17.1;28.8;0.0;
16/06/2019 06:40:00;100;0;357.90;17;-22.67;-4.05;85.0;10.50;69799;5124.389;-12839.755;52;-300;-305.0;73;73.0;-17;-16.2;28.8;0.0;
16/06/2019 06:40:20;100;0;356.98;17;-22.82;-3.87;88.1;10.50;69794;5124.389;-12839.755;52;-300;-305.0;73;73.0;-19;-19.0;28.7;0.0;
16/06/2019 06:40:40;100;0;359.70;17;-23.08;-5.49;91.1;10.50;69781;5124.389;-12839.755;52;-300;-303.0;73;72.9;-18;-18.1;28.8;0.0;
16/06/2019 06:41:00;100;0;359.16;17;-22.88;-4.48;94.3;10.40;69778;5124.389;-12839.755;52;-300;-303.0;73;73.0;-20;-19.9;28.8;0.0;
16/06/2019 06:41:20;100;0;359.98;17;-21.99;-5.90;97.6;10.40;69766;5124.389;-12839.755;52;-300;-303.0;73;73.0;-20;-20.3;28.8;0.0;
16/06/2019 06:41:40;100;0;359.14;17;-22.19;-5.85;100.6;10.40;69757;5124.389;-12839.755;52;-300;-303.0;73;73.0;-21;-21.2;28.7;0.0;
16/06/2019 06:42:00;100;0;353.46;17;-22.04;-6.44;103.8;10.40;69754;5124.389;-12839.755;52;-300;-305.0;73;73.0;-25;-25.3;28.7;0.0;
16/06/2019 06:42:20;100;0;355.17;17;-21.81;-8.48;106.8;10.40;69741;5124.389;-12839.755;52;-300;-305.0;73;72.9;-23;-22.6;28.7;0.0;
16/06/2019 06:42:40;100;0;354.48;17;-21.51;-6.84;109.8;10.30;69738;5124.389;-12839.755;52;-300;-305.0;73;73.0;-23;-22.1;28.8;0.0;
16/06/2019 06:43:00;100;0;350.28;17;-21.50;-6.89;112.6;10.30;69732;5124.389;-12839.755;52;-300;-305.0;73;73.0;-25;-24.8;28.7;0.0;
16/06/2019 06:43:20;100;0;345.72;17;-21.78;-8.41;115.4;10.30;69719;5124.389;-12839.755;52;-300;-305.0;73;73.0;-27;-27.1;28.8;0.0;
16/06/2019 06:43:40;100;0;351.51;17;-20.91;-9.80;118.1;10.30;69718;5124.389;-12839.755;52;-300;-305.0;73;72.9;-22;-22.1;28.8;0.0;
16/06/2019 06:44:00;100;0;355.08;17;-20.86;-6.80;120.8;10.30;69708;5124.389;-12839.755;52;-300;-305.0;73;73.0;-20;-19.9;28.8;0.0;
16/06/2019 06:44:21;100;0;357.46;17;-20.99;-5.54;123.3;10.30;69697;5124.389;-12839.755;52;-300;-303.0;73;72.9;-20;-19.0;28.8;0.0;
16/06/2019 06:44:41;100;0;0.38;17;-19.95;-5.44;125.8;10.20;69686;5124.389;-12839.755;52;-300;-305.0;73;73.0;-19;-18.5;28.8;0.0;
16/06/2019 06:45:01;100;0;2.52;17;-20.14;-4.95;128.2;10.20;69668;5124.389;-12839.755;52;-300;-303.0;73;73.0;-19;-17.6;28.8;0.0;
16/06/2019 06:45:21;100;0;4.11;17;-20.04;-4.88;130.6;10.20;69659;5124.389;-12839.755;52;-300;-305.0;73;73.0;-19;-17.6;28.8;0.0;
16/06/2019 06:45:41;100;0;5.38;17;-19.89;-4.88;132.8;10.20;69665;5124.389;-12839.755;52;-300;-305.0;73;73.0;-19;-18.1;28.7;0.0;
16/06/2019 06:46:01;100;0;4.12;17;-19.96;-4.83;135.1;10.20;69645;5124.389;-12839.755;52;-300;-305.0;73;73.0;-20;-19.9;28.7;0.0;
16/06/2019 06:46:21;100;0;2.35;17;-19.84;-5.97;137.3;10.10;69654;5124.389;-12839.755;52;-300;-305.0;73;72.9;-22;-22.1;28.7;0.0;
16/06/2019 06:46:41;100;0;2.04;17;-19.75;-6.97;139.5;10.10;69639;5124.389;-12839.755;52;-300;-305.0;73;73.0;-21;-21.2;28.7;0.0;
16/06/2019 06:47:01;100;0;3.09;17;-19.62;-6.14;141.8;10.10;69646;5124.389;-12839.755;52;-300;-303.0;73;72.9;-20;-19.9;28.8;0.0;
16/06/2019 06:47:21;100;0;1.31;17;-19.66;-5.33;144.1;10.10;69643;5124.389;-12839.755;52;-300;-305.0;73;73.0;-22;-22.6;28.8;0.0;
16/06/2019 06:47:41;100;0;3.23;17;-19.21;-7.23;146.2;10.00;69627;5124.389;-12839.755;52;-300;-305.0;73;73.0;-20;-19.9;28.7;0.0;
16/06/2019 06:48:01;100;0;2.70;17;-19.95;-5.45;148.4;10.00;69626;5124.389;-12839.755;52;-300;-303.0;73;73.0;-21;-21.2;28.8;0.0;
16/06/2019 06:48:21;100;0;4.41;17;-19.35;-6.56;150.5;10.00;69615;5124.389;-12839.755;52;-300;-305.0;73;73.0;-20;-19.9;28.7;0.0;
16/06/2019 06:48:41;100;0;6.75;17;-19.98;-5.48;152.7;10.00;69623;5124.389;-12839.755;52;-300;-303.0;73;73.0;-19;-19.0;28.7;0.0;
16/06/2019 06:49:01;100;0;6.65;17;-19.84;-5.44;154.8;10.00;69612;5124.389;-12839.755;52;-300;-303.0;73;73.0;-20;-19.9;28.7;0.0;
16/06/2019 06:49:21;100;0;7.88;17;-19.56;-5.98;156.9;9.90;69600;5124.389;-12839.755;52;-300;-305.0;73;72.9;-19;-19.0;28.7;0.0;
16/06/2019 06:49:41;100;0;6.90;17;-19.43;-5.00;159.1;9.90;69589;5124.389;-12839.755;52;-300;-305.0;73;73.0;-20;-19.9;28.8;0.0;
16/06/2019 06:50:01;100;0;5.91;17;-19.40;-6.17;161.4;9.90;69589;5124.389;-12839.755;52;-300;-303.0;73;73.0;-21;-21.2;28.8;0.0;
16/06/2019 06:50:21;100;0;5.93;17;-19.35;-6.73;163.5;9.90;69574;5124.389;-12839.755;52;-300;-305.0;73;73.0;-21;-21.7;28.7;0.0;
16/06/2019 06:50:41;100;0;7.51;17;-19.22;-6.72;165.6;9.80;69565;5124.389;-12839.755;52;-300;-305.0;73;73.0;-19;-19.0;28.8;0.0;
16/06/2019 06:51:01;100;0;5.55;17;-19.09;-4.93;167.7;9.80;69552;5124.389;-12839.755;52;-300;-305.0;73;73.0;-21;-21.7;28.7;0.0;
16/06/2019 06:51:21;100;0;3.70;17;-18.65;-6.78;169.9;9.80;69543;5124.389;-12839.755;52;-300;-305.0;73;72.9;-22;-22.1;28.7;0.0;
16/06/2019 06:51:41;100;0;2.58;17;-18.74;-6.86;172.1;9.80;69533;5124.389;-12839.755;52;-300;-303.0;73;73.0;-22;-22.1;28.8;0.0;
16/06/2019 06:52:01;100;0;2.63;17;-18.72;-6.81;174.3;9.70;69530;5124.389;-12839.755;52;-300;-305.0;73;72.9;-21;-21.2;28.8;44.8;
16/06/2019 06:52:21;100;0;3.43;17;-18.67;-6.14;176.4;9.70;69520;5124.389;-12839.755;52;-300;-303.0;73;73.0;-21;-20.8;28.7;42.6;
16/06/2019 06:52:41;100;0;3.54;17;-18.68;-6.16;178.6;9.70;69516;5124.389;-12839.755;52;-300;-305.0;73;73.0;-21;-20.3;28.8;40.4;
16/06/2019 06:53:01;100;0;4.33;17;-18.70;-6.16;180.7;9.60;69505;5124.389;-12839.755;52;-300;-305.0;73;73.0;-20;-19.9;28.8;38.2;
16/06/2019 06:53:21;100;0;2.38;17;-18.84;-5.49;182.9;9.60;69511;5124.389;-12839.755;52;-300;-303.0;73;72.9;-21;-21.2;28.8;36.0;
16/06/2019 06:53:41;100;0;1.87;17;-18.76;-6.59;185.0;9.60;69491;5124.389;-12839.755;52;-300;-305.0;73;73.0;-22;-22.1;28.8;33.9;
16/06/2019 06:54:01;100;0;1.60;17;-18.75;-7.10;187.1;9.60;69490;5124.389;-12839.755;52;-300;-305.0;73;73.0;-21;-21.2;28.8;31.7;
16/06/2019 06:54:21;100;0;1.10;17;-18.81;-6.18;189.2;9.60;69492;5124.389;-12839.755;52;-300;-305.0;73;73.0;-21;-20.8;28.8;29.6;
16/06/2019 06:54:41;100;0;359.21;17;-19.05;-6.14;191.2;9.50;69479;5124.389;-12839.755;52;-300;-303.0;73;73.0;-22;-22.1;28.8;27.5;
16/06/2019 06:55:01;100;0;358.57;17;-18.88;-7.10;193.3;9.50;69486;5124.389;-12839.755;52;-300;-305.0;73;73.0;-22;-22.6;28.8;25.4;
16/06/2019 06:55:21;100;0;359.06;17;-18.73;-7.18;195.4;9.50;69476;5124.389;-12839.755;52;-300;-303.0;73;73.0;-22;-22.6;28.8;23.2;
16/06/2019 06:55:41;100;0;358.39;17;-18.67;-7.08;197.6;9.50;69481;5124.389;-12839.755;52;-300;-305.0;73;73.0;-22;-22.6;28.7;21.0;
16/06/2019 06:56:01;100;0;356.18;17;-18.70;-7.18;199.5;9.40;69477;5124.389;-12839.755;52;-300;-303.0;73;73.0;-23;-23.0;28.8;18.9;
16/06/2019 06:56:21;118;0;357.45;17;-19.12;-7.61;201.6;9.40;69469;5124.389;-12839.755;52;150;-291.1;57;56.6;0;0.5;28.8;16.9;
16/06/2019 06:56:31;118;0;34.10;17;2.67;3.47;202.5;9.40;69384;5124.389;-12839.755;52;150;-132.7;57;57.2;0;0.5;28.1;16.9;
16/06/2019 06:56:41;118;0;31.58;17;19.92;3.51;202.1;9.40;69175;5124.389;-12839.755;52;150;21.8;57;57.2;0;0.5;28.2;-1.0;
16/06/2019 06:56:51;118;0;30.05;17;23.61;3.42;201.3;9.40;68919;5124.389;-12839.755;52;150;154.5;57;57.1;0;0.5;28.2;-1.0;
16/06/2019 06:57:01;118;0;343.60;17;24.67;3.98;200.0;9.40;68716;5124.389;-12839.755;52;150;154.5;57;57.2;0;0.5;28.7;-1.0;
16/06/2019 06:57:11;118;0;344.73;17;26.41;3.70;198.5;9.40;68720;5124.389;-12839.755;52;150;156.4;57;57.1;0;0.5;28.8;-1.0;
16/06/2019 06:57:21;117;0;347.67;17;27.55;3.36;196.5;9.40;68722;5124.389;-12839.755;52;150;154.5;57;57.2;0;0.5;28.7;-1.0;
16/06/2019 06:57:41;117;0;349.73;17;28.02;3.40;192.3;9.40;68722;5124.389;-12839.755;52;150;156.4;57;57.2;27;27.1;28.7;-1.0;
16/06/2019 06:58:01;117;0;3.79;17;26.95;17.09;187.5;9.30;68719;5124.389;-12839.755;52;150;156.4;57;57.1;17;17.1;28.7;-1.0;
16/06/2019 06:58:21;117;0;14.01;17;27.41;11.33;183.2;9.30;68710;5124.389;-12839.755;52;150;156.4;57;57.1;13;12.6;28.7;-1.0;
16/06/2019 06:58:41;117;0;21.13;17;27.49;8.97;178.8;9.30;68716;5124.389;-12839.755;52;150;158.4;57;57.2;12;12.2;28.7;-1.0;
16/06/2019 06:59:01;117;0;22.90;17;27.57;8.95;174.5;9.30;68711;5124.389;-12839.755;52;150;156.4;57;57.1;14;14.0;28.7;-1.0;
16/06/2019 06:59:21;117;0;28.54;17;27.07;10.18;170.3;9.20;68707;5124.389;-12839.755;52;150;158.4;57;57.2;12;12.2;28.8;-1.0;
16/06/2019 06:59:41;117;0;33.77;17;26.92;8.49;166.3;9.20;68718;5124.389;-12839.755;52;150;156.4;57;57.2;11;10.8;28.7;-1.0;
16/06/2019 07:00:01;117;0;40.66;17;27.60;8.04;162.1;9.20;68710;5124.389;-12839.755;52;150;156.4;57;57.1;11;10.4;28.7;-1.0;
16/06/2019 07:00:21;117;0;48.37;17;27.09;8.06;157.9;9.20;68730;5124.389;-12839.755;52;150;156.4;57;57.1;6;5.4;28.7;-1.0;
16/06/2019 07:00:41;117;0;51.54;17;27.29;5.50;153.5;9.20;68734;5124.389;-12839.755;52;150;156.4;57;57.1;6;5.0;28.8;-1.0;
16/06/2019 07:01:01;117;0;49.26;17;27.10;5.66;149.3;9.20;68741;5124.389;-12839.755;52;150;156.4;57;57.1;9;9.0;28.8;-1.0;
16/06/2019 07:01:21;117;0;49.02;17;27.03;7.89;145.3;9.10;68753;5124.389;-12839.755;52;150;156.4;57;57.2;9;9.5;28.8;-1.0;
16/06/2019 07:01:41;117;0;52.65;17;26.64;7.79;141.1;9.10;68756;5124.389;-12839.755;52;150;156.4;57;57.1;7;7.2;28.8;-1.0;
16/06/2019 07:02:01;117;0;53.70;17;26.02;6.36;137.0;9.10;68754;5124.389;-12839.755;52;150;156.4;57;57.1;6;5.9;28.7;-1.0;
16/06/2019 07:02:21;117;0;57.45;17;26.34;5.70;133.1;9.10;68762;5124.389;-12839.755;52;150;156.4;57;57.1;4;4.1;28.7;-1.0;
16/06/2019 07:02:41;117;0;50.76;17;26.68;5.02;129.1;9.10;68769;5124.389;-12839.755;52;150;156.4;57;57.1;8;8.1;28.7;-1.0;
16/06/2019 07:03:01;117;0;47.03;17;26.74;7.61;124.8;9.10;68780;5124.389;-12839.755;52;150;156.4;57;57.2;9;9.0;28.8;-1.0;
16/06/2019 07:03:21;117;0;50.31;17;26.09;8.22;120.5;9.10;68778;5124.389;-12839.755;52;150;158.4;57;57.1;5;5.0;28.8;-1.0;
16/06/2019 07:03:41;117;0;53.16;17;24.20;5.09;116.4;9.10;68802;5124.389;-12839.755;52;150;156.4;57;57.1;3;3.2;28.8;-1.0;
16/06/2019 07:04:01;117;0;52.02;17;24.10;4.27;113.1;9.10;68804;5124.389;-12839.755;52;150;158.4;57;57.1;4;4.1;28.7;-1.0;
16/06/2019 07:04:21;117;0;55.09;17;23.98;5.58;109.9;9.10;68818;5124.389;-12839.755;52;150;158.4;57;57.1;2;1.4;28.7;-1.0;
16/06/2019 07:04:41;117;0;57.09;17;23.86;3.51;106.7;9.10;68818;5124.389;-12839.755;52;150;156.4;57;57.1;0;-0.5;28.8;-1.0;
16/06/2019 07:05:01;117;0;54.77;17;23.76;2.68;103.5;9.10;68821;5124.389;-12839.755;52;150;156.4;57;57.1;2;1.8;28.8;-1.0;
16/06/2019 07:05:21;117;0;54.11;17;22.94;4.18;100.4;9.10;68824;5124.389;-12839.755;52;150;158.4;57;57.1;1;0.9;28.8;-1.0;
16/06/2019 07:05:41;117;0;49.39;17;22.72;3.48;97.6;9.10;68833;5124.389;-12839.755;52;150;158.4;57;57.1;4;4.1;28.7;-1.0;
16/06/2019 07:06:01;117;0;51.30;17;21.85;5.26;94.8;9.10;68842;5124.389;-12839.755;52;150;156.4;57;57.1;1;0.9;28.7;-1.0;
16/06/2019 07:06:21;117;0;48.36;17;22.06;3.39;92.3;9.10;68850;5124.389;-12839.755;52;150;156.4;57;57.1;2;1.8;28.8;-1.0;
16/06/2019 07:06:41;117;0;43.35;17;22.52;4.27;89.6;9.10;68863;5124.389;-12839.755;52;150;156.4;57;57.2;4;4.5;28.8;-1.0;
16/06/2019 07:07:01;117;0;39.44;17;22.12;5.68;86.8;9.20;68870;5124.389;-12839.755;52;150;156.4;57;57.1;5;5.0;28.8;-1.0;
16/06/2019 07:07:21;117;0;36.43;17;22.04;5.60;84.0;9.20;68864;5124.389;-12839.755;52;150;156.4;57;57.2;5;5.0;28.7;-1.0;
16/06/2019 07:07:41;117;0;28.76;17;21.54;5.69;81.2;9.20;68870;5124.389;-12839.755;52;150;158.4;57;57.1;5;5.0;28.7;-1.0;
16/06/2019 07:08:01;117;0;22.88;17;21.28;5.62;78.6;9.20;68875;5124.389;-12839.755;52;150;156.4;57;57.2;10;9.9;28.7;-1.0;
16/06/2019 07:08:21;117;0;32.49;17;20.31;8.39;76.2;9.20;68877;5124.389;-12839.755;52;150;156.4;57;57.1;2;1.8;28.7;-1.0;
16/06/2019 07:08:41;117;0;38.43;17;20.22;3.72;73.8;9.20;68887;5124.389;-12839.755;52;150;156.4;57;57.1;2;0.9;28.7;-1.0;
16/06/2019 07:09:01;117;0;38.90;17;20.72;3.73;71.4;9.20;68889;5124.389;-12839.755;52;150;156.4;57;57.1;1;0.5;28.7;-1.0;
16/06/2019 07:09:21;117;0;36.49;17;20.64;3.04;68.9;9.20;68899;5124.389;-12839.755;52;150;156.4;57;57.1;3;3.6;28.8;-1.0;
16/06/2019 07:09:41;117;0;28.31;17;20.45;5.34;66.1;9.20;68900;5124.389;-12839.755;52;150;156.4;57;57.2;3;3.6;28.7;-1.0;
16/06/2019 07:10:01;117;0;32.20;17;19.80;5.04;63.3;9.20;68925;5124.389;-12839.755;52;150;158.4;57;57.1;3;3.6;28.7;-1.0;
16/06/2019 07:10:21;117;0;38.04;17;19.71;5.01;60.6;9.20;68930;5124.389;-12839.755;52;150;156.4;57;57.1;1;0.5;28.7;-1.0;
16/06/2019 07:10:41;117;0;35.97;17;19.19;3.27;57.8;9.20;68941;5124.389;-12839.755;52;150;158.4;57;57.1;1;0.0;28.7;-1.0;
16/06/2019 07:11:01;117;0;37.16;17;18.87;3.18;55.3;9.30;68962;5124.389;-12839.755;52;150;156.4;57;57.2;1;0.0;28.7;-1.0;
16/06/2019 07:11:21;117;0;38.20;17;18.61;3.20;52.8;9.30;68977;5124.389;-12839.755;52;150;156.4;57;57.1;2;1.8;28.7;-1.0;
16/06/2019 07:11:41;117;0;43.76;17;18.64;4.53;50.5;9.30;68987;5124.389;-12839.755;52;150;158.4;57;57.2;0;0.0;28.7;-1.0;
16/06/2019 07:12:01;117;0;44.79;17;18.59;2.78;48.2;9.30;69002;5124.389;-12839.755;52;150;156.4;57;57.1;0;-0.9;28.8;-1.0;
16/06/2019 07:12:21;117;0;44.78;17;18.56;2.78;46.0;9.40;69009;5124.389;-12839.755;52;150;158.4;57;57.2;0;-0.9;28.7;-1.0;
16/06/2019 07:12:41;117;0;43.03;17;18.72;2.79;43.8;9.40;69016;5124.389;-12839.755;52;150;158.4;57;57.1;0;-0.9;28.7;-1.0;
16/06/2019 07:13:01;117;0;42.17;17;18.65;2.78;41.6;9.40;69028;5124.389;-12839.755;52;150;156.4;57;57.1;1;0.9;28.8;-1.0;
16/06/2019 07:13:21;117;0;41.60;17;18.66;4.04;39.3;9.40;69026;5124.389;-12839.755;52;150;156.4;57;57.2;1;1.8;28.8;-1.0;
16/06/2019 07:13:41;117;0;40.78;17;18.54;4.06;37.1;9.40;69041;5124.389;-12839.755;52;150;156.4;57;57.2;1;1.8;28.8;-1.0;
16/06/2019 07:14:01;117;0;44.25;17;18.79;4.07;35.0;9.50;69049;5124.389;-12839.755;52;150;156.4;57;57.1;-1;-0.9;28.8;-1.0;
16/06/2019 07:14:21;117;0;41.76;17;18.59;2.55;32.7;9.50;69055;5124.389;-12839.755;52;150;156.4;57;57.1;0;0.0;28.8;-1.0;
16/06/2019 07:14:41;117;0;41.72;17;18.57;3.35;30.6;9.50;69060;5124.389;-12839.755;52;150;156.4;57;57.2;0;0.5;28.8;-1.0;
16/06/2019 07:15:01;117;0;39.74;17;18.48;3.32;28.3;9.50;69063;5124.389;-12839.755;52;150;156.4;57;57.2;0;0.5;28.8;-1.0;
16/06/2019 07:15:21;117;0;37.69;17;18.21;3.36;26.2;9.50;69073;5124.389;-12839.755;52;150;156.4;57;57.2;1;0.9;28.7;-1.0;
16/06/2019 07:15:41;117;0;35.28;17;18.45;4.03;24.3;9.60;69080;5124.389;-12839.755;52;150;156.4;57;57.1;1;1.8;28.8;-1.0;
16/06/2019 07:16:01;117;0;37.70;17;17.97;4.15;22.2;9.60;69094;5124.389;-12839.755;52;150;158.4;57;57.1;1;1.8;28.7;-1.0;
16/06/2019 07:16:21;117;0;36.02;17;18.92;4.09;20.1;9.60;69096;5124.389;-12839.755;52;150;158.4;57;57.1;1;1.8;28.8;-1.0;
16/06/2019 07:16:41;117;0;36.18;17;18.05;3.92;17.9;9.60;69115;5124.389;-12839.755;52;150;156.4;57;57.1;1;1.8;28.8;-1.0;
16/06/2019 07:17:01;117;0;28.28;17;17.04;4.17;16.0;9.70;69144;5124.389;-12839.755;52;150;156.4;57;57.1;4;4.1;28.8;-1.0;
16/06/2019 07:17:21;117;0;23.94;17;16.68;5.52;14.3;9.70;69178;5124.389;-12839.755;52;150;156.4;57;57.2;6;6.3;28.8;-1.0;
16/06/2019 07:17:42;117;0;35.21;17;15.84;6.85;12.7;9.70;69215;5124.389;-12839.755;52;150;156.4;57;57.1;6;6.8;28.7;-1.0;
16/06/2019 07:18:02;117;0;42.47;17;15.46;6.91;11.2;9.80;69240;5124.389;-12839.755;52;150;156.4;57;57.2;-4;-4.5;28.7;-1.0;
