Timestamp;NavState;SecurityLevel;Heading;Declination;Pitch;Roll;Depth;Temperature;Pa;Lat;Lon;DesiredH;BallastCmd;BallastPos;LinCmd;LinPos;AngCmd;AngPos;Voltage;Altitude;
15/06/2019 13:20:08;117;0;258.27;17;16.05;0.65;9.5;10.20;69421;5124.418;-12834.295;264;150;156.4;57;57.2;-5;-5.4;28.9;-1.0;
15/06/2019 13:20:18;115;0;253.12;17;15.60;0.44;8.8;10.30;69438;5124.418;-12834.295;264;500;168.3;100;100.3;0;0.5;28.9;-1.0;
15/06/2019 13:20:28;115;0;252.76;17;-26.46;4.59;8.2;10.30;69364;5124.418;-12834.295;264;500;318.8;100;100.1;0;0.5;28.6;-1.0;
15/06/2019 13:20:38;115;0;294.55;17;-66.93;3.66;8.9;10.30;69167;5124.418;-12834.295;264;500;469.3;100;100.1;0;0.5;28.6;-1.0;
15/06/2019 13:20:48;115;0;317.88;17;-57.43;1.94;7.7;10.30;68924;5124.418;-12834.295;264;500;505.0;100;100.0;0;0.5;28.6;-1.0;
15/06/2019 13:20:58;115;0;325.02;17;-34.65;1.50;4.9;10.40;68897;5124.418;-12834.295;264;500;506.9;100;100.0;0;0.5;28.9;-1.0;
15/06/2019 13:21:08;116;0;115.74;17;-78.15;-130.38;1.3;10.40;68909;5124.418;-12834.295;264;500;505.0;100;100.1;0;0.5;28.9;-1.0;
15/06/2019 13:21:28;116;0;114.59;17;-19.49;0.76;1.3;10.50;68934;5124.418;-12834.295;264;500;506.9;100;99.9;0;0.5;28.9;-1.0;
15/06/2019 13:21:48;116;0;139.05;17;-28.81;1.89;1.5;10.60;68955;5124.418;-12834.295;264;500;508.9;100;99.9;0;0.5;28.9;-1.0;
15/06/2019 13:22:08;116;0;120.97;17;-19.25;3.42;1.3;10.70;68965;5124.418;-12834.295;264;500;506.9;100;99.9;0;0.5;28.9;-1.0;
15/06/2019 13:22:28;116;0;107.01;17;-24.01;6.85;1.3;10.80;68976;5123.912;-12835.954;264;500;508.9;100;99.9;0;0.5;28.9;-1.0;
15/06/2019 13:22:48;116;0;102.91;17;-23.34;2.35;1.3;10.90;68988;5123.913;-12835.952;271;500;506.9;100;99.9;0;0.5;28.8;-1.0;
15/06/2019 13:23:49;116;0;79.66;17;-21.56;2.19;1.3;11.40;69015;5123.913;-12835.953;271;500;506.9;100;99.9;0;0.5;28.9;-1.0;
15/06/2019 13:24:09;116;0;66.33;17;-23.51;4.99;1.4;11.60;69037;5123.912;-12835.953;271;500;506.9;100;99.9;0;0.5;28.9;-1.0;
15/06/2019 13:24:29;116;0;67.55;17;-24.80;2.71;1.3;11.70;69042;5123.908;-12835.971;271;500;508.9;100;100.0;0;0.5;28.9;-1.0;
15/06/2019 13:24:50;116;0;61.45;17;-25.03;3.08;1.4;11.90;69042;5123.908;-12835.976;271;500;508.9;100;99.9;0;0.5;28.9;-1.0;
15/06/2019 13:25:10;116;0;56.42;17;-21.36;4.48;1.3;12.00;69050;5123.910;-12836.036;271;500;506.9;100;99.9;0;0.5;28.9;-1.0;
15/06/2019 13:25:30;116;0;47.75;17;-25.97;2.98;1.4;12.20;69054;5123.909;-12835.986;271;500;508.9;100;100.0;0;0.5;28.9;-1.0;
15/06/2019 13:26:34;116;0;31.74;17;-23.11;5.50;1.4;12.80;69088;5123.909;-12835.986;271;500;508.9;100;99.9;0;0.5;28.9;-1.0;
15/06/2019 13:26:54;116;0;17.23;17;-24.56;5.99;1.3;13.00;69092;5123.909;-12835.987;271;500;508.9;100;99.9;0;0.5;28.9;-1.0;
15/06/2019 13:27:14;116;0;12.88;17;-21.54;3.45;1.4;13.10;69098;5123.909;-12835.987;271;500;506.9;100;99.9;0;0.5;28.9;-1.0;
15/06/2019 13:27:38;116;0;5.65;17;-19.40;1.96;1.4;13.20;69095;5123.909;-12835.987;271;500;508.9;100;100.0;0;0.5;28.9;-1.0;
15/06/2019 13:27:58;116;0;4.49;17;-27.75;2.19;1.4;13.40;69109;5123.909;-12835.987;271;500;506.9;100;99.9;0;0.5;28.9;-1.0;
15/06/2019 13:28:18;116;0;359.32;17;-20.14;2.23;1.3;13.50;69107;5123.909;-12835.987;271;500;508.9;100;99.9;0;0.5;28.9;-1.0;
15/06/2019 13:28:38;116;0;351.10;17;-20.83;2.71;1.3;13.70;69125;5123.906;-12835.989;271;500;508.9;100;100.0;0;0.5;28.9;-1.0;
15/06/2019 13:28:58;110;0;353.74;17;-23.90;1.55;1.4;13.80;69112;5123.906;-12835.989;271;-300;404.0;100;99.9;0;0.5;28.9;-1.0;
15/06/2019 13:29:08;110;0;358.79;17;-22.04;2.76;1.4;13.80;69377;5123.906;-12835.989;271;-300;257.4;100;100.0;0;0.5;28.8;-1.0;
15/06/2019 13:29:18;110;0;357.56;17;-30.37;4.41;1.6;13.90;69557;5123.906;-12835.989;271;-300;95.0;100;100.0;0;0.9;28.8;-1.0;
15/06/2019 13:29:28;110;0;341.72;17;-56.14;6.29;2.2;13.90;69835;5123.906;-12835.989;271;-300;-79.2;100;100.0;0;0.5;28.8;-1.0;
15/06/2019 13:29:38;110;0;305.21;17;-61.87;6.33;2.9;13.90;70118;5123.906;-12835.989;271;-300;-275.2;93;93.0;0;0.5;28.8;-1.0;
15/06/2019 13:29:48;110;0;277.60;17;-54.81;3.98;4.3;13.90;70452;5123.906;-12835.989;271;-300;-303.0;75;75.0;0;0.5;28.8;-1.0;
15/06/2019 13:29:58;110;0;264.93;17;-43.97;3.28;6.8;13.90;70466;5123.906;-12835.989;271;-300;-303.0;73;73.0;0;0.5;28.9;-1.0;
15/06/2019 13:30:08;100;0;262.20;17;-33.30;4.45;9.6;14.00;70461;5123.906;-12835.989;271;-300;-301.0;73;73.0;0;0.5;28.9;-1.0;
15/06/2019 13:30:28;100;0;237.90;17;-27.20;3.93;14.8;13.90;70433;5123.906;-12835.989;271;-300;-299.0;73;73.0;-13;-13.1;28.9;0.0;
15/06/2019 13:30:48;100;0;230.91;17;-26.98;-2.79;19.5;13.90;70398;5123.906;-12835.989;271;-300;-297.0;73;73.0;-13;-13.5;28.9;0.0;
15/06/2019 13:31:08;100;0;220.11;17;-26.97;-2.70;23.8;13.90;70367;5123.906;-12835.989;271;-300;-297.0;73;73.0;-15;-14.9;28.9;0.0;
15/06/2019 13:31:28;100;0;211.38;17;-26.71;-3.52;28.2;13.90;70341;5123.906;-12835.989;271;-300;-297.0;73;73.2;-17;-17.1;28.9;0.0;
15/06/2019 13:31:48;100;0;205.62;17;-25.54;-4.58;32.6;13.80;70306;5123.906;-12835.989;271;-300;-297.0;73;73.0;-19;-19.0;28.9;0.0;
15/06/2019 13:32:08;100;0;211.58;17;-25.63;-5.40;36.6;13.70;70244;5123.906;-12835.989;271;-300;-297.0;73;72.9;-14;-14.0;28.9;0.0;
15/06/2019 13:32:28;100;0;214.47;17;-25.52;-2.37;40.4;13.70;70206;5123.906;-12835.989;271;-300;-297.0;73;72.9;-12;-12.2;28.9;0.0;
15/06/2019 13:32:48;100;0;206.05;17;-25.38;-1.69;44.3;13.60;70170;5123.906;-12835.989;271;-300;-297.0;73;73.0;-19;-19.0;28.9;0.0;
15/06/2019 13:33:08;100;0;206.71;17;-25.25;-5.07;48.1;13.50;70138;5123.906;-12835.989;271;-300;-297.0;73;72.9;-20;-19.9;28.9;0.0;
15/06/2019 13:33:28;100;0;203.10;17;-25.09;-5.73;52.0;13.50;70119;5123.906;-12835.989;271;-300;-297.0;73;72.9;-23;-23.0;28.9;0.0;
15/06/2019 13:33:48;100;0;202.78;17;-25.13;-7.27;55.9;13.40;70085;5123.906;-12835.989;271;-300;-297.0;73;72.9;-24;-24.4;29.0;0.0;
15/06/2019 13:34:08;100;0;202.68;17;-25.03;-7.84;59.6;13.30;70073;5123.906;-12835.989;271;-300;-297.0;73;72.9;-25;-24.8;28.9;0.0;
15/06/2019 13:34:28;100;0;206.42;17;-25.32;-8.13;63.2;13.30;70051;5123.906;-12835.989;271;-300;-297.0;73;72.9;-23;-23.0;28.9;0.0;
15/06/2019 13:34:48;100;0;204.00;17;-25.35;-6.64;66.9;13.20;70037;5123.906;-12835.989;271;-300;-297.0;73;72.9;-25;-24.8;28.9;0.0;
15/06/2019 13:35:08;100;0;207.87;17;-24.90;-7.80;70.6;13.10;70035;5123.906;-12835.989;271;-300;-295.0;73;72.9;-22;-22.1;28.9;0.0;
15/06/2019 13:35:28;100;0;207.53;17;-24.67;-6.19;74.3;13.10;70004;5123.906;-12835.989;271;-300;-295.0;73;72.9;-23;-23.5;28.9;0.0;
15/06/2019 13:35:48;100;0;208.45;17;-24.45;-7.28;77.9;13.00;69993;5123.906;-12835.989;271;-300;-297.0;73;72.9;-23;-23.5;29.0;0.0;
15/06/2019 13:36:08;100;0;205.04;17;-25.11;-7.48;81.4;12.90;69984;5123.906;-12835.989;271;-300;-297.0;73;72.9;-25;-25.3;28.9;0.0;
15/06/2019 13:36:28;100;0;210.64;17;-24.34;-8.40;84.7;12.90;69962;5123.906;-12835.989;271;-300;-295.0;73;72.9;-22;-22.1;28.9;0.0;
15/06/2019 13:36:48;100;0;215.95;17;-24.22;-6.51;88.0;12.80;69954;5123.906;-12835.989;271;-300;-295.0;73;72.9;-19;-19.0;28.9;0.0;
15/06/2019 13:37:08;100;0;217.50;17;-24.29;-4.76;91.3;12.70;69938;5123.906;-12835.989;271;-300;-295.0;73;72.9;-20;-19.9;28.9;0.0;
15/06/2019 13:37:28;100;0;218.77;17;-23.78;-5.67;94.7;12.70;69925;5123.906;-12835.989;271;-300;-295.0;73;72.9;-20;-20.3;28.9;0.0;
15/06/2019 13:37:48;100;0;217.10;17;-23.79;-5.75;98.2;12.60;69909;5123.906;-12835.989;271;-300;-295.0;73;72.9;-21;-21.7;28.9;0.0;
15/06/2019 13:38:08;100;0;210.73;17;-23.43;-6.61;101.6;12.60;69903;5123.906;-12835.989;271;-300;-295.0;73;72.9;-26;-26.2;28.9;0.0;
15/06/2019 13:38:28;100;0;216.79;17;-22.61;-8.75;105.1;12.50;69880;5123.906;-12835.989;271;-300;-295.0;73;72.9;-21;-21.2;28.9;0.0;
15/06/2019 13:38:48;100;0;219.74;17;-22.03;-5.86;108.4;12.40;69878;5123.906;-12835.989;271;-300;-295.0;73;72.9;-20;-19.4;28.9;0.0;
15/06/2019 13:39:08;100;0;214.39;17;-21.87;-5.12;111.3;12.40;69862;5123.906;-12835.989;271;-300;-295.0;73;72.9;-23;-23.0;28.9;0.0;
15/06/2019 13:39:28;100;0;214.40;17;-22.09;-7.36;114.2;12.30;69850;5123.906;-12835.989;271;-300;-295.0;73;72.9;-23;-23.5;28.9;0.0;
15/06/2019 13:39:48;100;0;218.91;17;-21.54;-7.34;117.1;12.30;69840;5123.906;-12835.989;271;-300;-295.0;73;72.9;-20;-19.9;28.9;0.0;
15/06/2019 13:40:08;100;0;215.82;17;-21.04;-5.38;119.9;12.20;69830;5123.906;-12835.989;271;-300;-295.0;73;72.9;-23;-23.5;28.9;0.0;
15/06/2019 13:40:28;100;0;211.53;17;-20.02;-7.54;122.6;12.10;69804;5123.906;-12835.989;271;-300;-295.0;73;72.9;-25;-24.8;28.9;0.0;
15/06/2019 13:40:48;100;0;214.56;17;-19.96;-8.48;124.9;12.10;69777;5123.906;-12835.989;271;-300;-295.0;73;72.9;-22;-22.1;28.9;0.0;
15/06/2019 13:41:08;100;0;214.47;17;-20.09;-6.41;127.1;12.00;69769;5123.906;-12835.989;271;-300;-295.0;73;72.9;-22;-21.2;28.9;0.0;
15/06/2019 13:41:28;100;0;213.40;17;-20.25;-6.44;129.1;11.90;69760;5123.906;-12835.989;271;-300;-295.0;73;72.9;-23;-23.0;28.9;0.0;
15/06/2019 13:41:48;100;0;214.76;17;-20.61;-7.56;131.1;11.90;69746;5123.906;-12835.989;271;-300;-295.0;73;72.9;-22;-22.1;28.9;0.0;
15/06/2019 13:42:08;100;0;215.20;17;-19.83;-6.56;133.3;11.80;69726;5123.906;-12835.989;271;-300;-293.1;73;72.9;-22;-21.7;28.9;0.0;
15/06/2019 13:42:28;100;0;212.17;17;-19.55;-6.52;135.5;11.80;69719;5123.906;-12835.989;271;-300;-295.0;73;72.9;-24;-23.9;28.9;0.0;
15/06/2019 13:42:48;100;0;213.56;17;-19.90;-8.04;137.6;11.70;69703;5123.906;-12835.989;271;-300;-295.0;73;72.9;-23;-23.0;28.9;0.0;
15/06/2019 13:43:08;100;0;216.01;17;-19.73;-7.06;139.7;11.70;69696;5123.906;-12835.989;271;-300;-295.0;73;72.9;-21;-21.2;28.9;0.0;
15/06/2019 13:43:28;100;0;218.06;17;-19.78;-6.19;141.9;11.60;69684;5123.906;-12835.989;271;-300;-295.0;73;72.9;-20;-19.4;28.9;0.0;
15/06/2019 13:43:48;100;0;220.08;17;-19.58;-5.33;144.3;11.50;69678;5123.906;-12835.989;271;-300;-295.0;73;72.9;-20;-19.0;28.9;0.0;
15/06/2019 13:44:08;100;0;221.59;17;-19.62;-5.37;146.4;11.50;69662;5123.906;-12835.989;271;-300;-293.1;73;72.9;-20;-19.0;28.9;0.0;
15/06/2019 13:44:28;100;0;223.13;17;-19.36;-5.35;148.7;11.40;69647;5123.906;-12835.989;271;-300;-295.0;73;72.9;-19;-19.0;28.9;0.0;
15/06/2019 13:44:48;100;0;224.96;17;-19.25;-5.43;150.9;11.40;69636;5123.906;-12835.989;271;-300;-295.0;73;72.9;-19;-19.0;28.9;0.0;
15/06/2019 13:45:08;100;0;228.17;17;-19.18;-5.44;153.3;11.30;69642;5123.906;-12835.989;271;-300;-295.0;73;73.0;-17;-17.1;28.9;0.0;
15/06/2019 13:45:28;100;0;228.58;17;-18.72;-4.14;155.6;11.20;69613;5123.906;-12835.989;271;-300;-293.1;73;72.9;-18;-18.1;28.9;0.0;
15/06/2019 13:45:49;100;0;223.70;17;-19.17;-5.33;157.8;11.20;69597;5123.906;-12835.989;271;-300;-293.1;73;72.9;-22;-22.1;28.9;0.0;
15/06/2019 13:46:09;100;0;222.71;17;-19.30;-7.36;160.0;11.10;69586;5123.906;-12835.989;271;-300;-295.0;73;72.9;-22;-22.6;28.9;0.0;
15/06/2019 13:46:29;100;0;224.36;17;-19.33;-7.41;162.2;11.10;69581;5123.906;-12835.989;271;-300;-295.0;73;72.9;-20;-19.9;28.9;0.0;
15/06/2019 13:46:49;100;0;222.71;17;-19.77;-5.42;164.3;11.00;69569;5123.906;-12835.989;271;-300;-293.1;73;72.9;-21;-21.7;28.9;43.0;
15/06/2019 13:47:09;100;0;225.53;17;-19.03;-6.66;166.4;11.00;69562;5123.906;-12835.989;271;-300;-295.0;73;73.0;-19;-19.0;28.9;40.9;
15/06/2019 13:47:29;100;0;218.44;17;-19.48;-4.81;168.2;10.90;69559;5123.906;-12835.989;271;-300;-293.1;73;72.9;-24;-24.4;28.9;39.0;
15/06/2019 13:47:49;100;0;215.99;17;-18.77;-7.16;170.1;10.80;69544;5123.906;-12835.989;271;-300;-295.0;73;72.9;-24;-24.4;28.9;37.3;
15/06/2019 13:48:09;100;0;217.47;17;-18.93;-8.28;171.9;10.80;69544;5123.906;-12835.989;271;-300;-293.1;73;72.9;-22;-22.1;28.9;35.5;
15/06/2019 13:48:29;100;0;220.56;17;-18.99;-6.71;173.8;10.80;69541;5123.906;-12835.989;271;-300;-293.1;73;72.9;-20;-19.4;28.9;33.4;
15/06/2019 13:48:49;100;0;223.10;17;-19.49;-5.45;175.9;10.70;69537;5123.906;-12835.989;271;-300;-295.0;73;72.9;-19;-19.0;28.9;31.3;
15/06/2019 13:49:09;100;0;223.66;17;-18.28;-5.41;178.1;10.60;69522;5123.906;-12835.989;271;-300;-293.1;73;73.0;-20;-19.9;28.9;29.0;
15/06/2019 13:49:29;100;0;226.32;17;-19.51;-6.05;180.3;10.60;69529;5123.906;-12835.989;271;-300;-293.1;73;72.9;-18;-17.6;28.9;26.7;
15/06/2019 13:49:49;100;0;223.19;17;-18.34;-4.35;182.6;10.60;69535;5123.906;-12835.989;271;-300;-293.1;73;72.9;-21;-21.2;28.9;24.6;
15/06/2019 13:50:09;100;0;224.30;17;-19.37;-6.44;184.5;10.50;69513;5123.906;-12835.989;271;-300;-295.0;73;72.9;-20;-19.9;28.9;22.5;
15/06/2019 13:50:29;100;0;219.82;17;-18.38;-5.68;186.7;10.50;69514;5123.906;-12835.989;271;-300;-295.0;73;72.9;-23;-23.0;28.9;20.2;
15/06/2019 13:50:49;100;0;219.58;17;-18.47;-7.59;188.7;10.40;69510;5123.906;-12835.989;271;-300;-293.1;73;72.9;-22;-22.1;28.9;18.1;
15/06/2019 13:51:09;118;0;223.36;17;-18.09;-6.73;190.8;10.40;69509;5123.906;-12835.989;271;150;-277.2;57;56.8;0;0.5;28.9;16.0;
15/06/2019 13:51:19;118;0;163.64;17;2.54;4.69;191.6;10.40;69430;5123.906;-12835.989;271;150;-120.8;57;57.1;0;0.9;28.3;16.0;
15/06/2019 13:51:29;118;0;164.96;17;20.33;3.47;191.3;10.30;69215;5123.906;-12835.989;271;150;31.7;57;57.1;0;0.9;28.3;-1.0;
15/06/2019 13:51:39;118;0;163.59;17;23.39;3.68;190.3;10.30;68960;5123.906;-12835.989;271;150;156.4;57;57.1;0;0.9;28.3;-1.0;
15/06/2019 13:51:49;118;0;213.48;17;23.70;3.74;189.2;10.30;68778;5123.906;-12835.989;271;150;156.4;57;57.1;0;0.9;28.9;-1.0;
15/06/2019 13:51:59;118;0;213.84;17;26.83;3.57;187.7;10.30;68791;5123.906;-12835.989;271;150;156.4;57;57.1;0;0.9;28.9;-1.0;
15/06/2019 13:52:09;117;0;214.32;17;27.84;3.75;185.7;10.30;68786;5123.906;-12835.989;271;150;156.4;57;57.1;0;0.9;28.9;-1.0;
15/06/2019 13:52:29;117;0;212.99;17;27.70;4.00;181.6;10.20;68781;5123.906;-12835.989;271;150;156.4;57;57.1;26;26.6;28.9;-1.0;
15/06/2019 13:52:49;117;0;223.26;17;27.81;17.26;177.0;10.20;68775;5123.906;-12835.989;271;150;156.4;57;56.9;18;18.1;28.9;-1.0;
15/06/2019 13:53:09;117;0;226.06;17;28.21;11.77;172.8;10.20;68778;5123.906;-12835.989;271;150;156.4;57;57.1;18;17.6;28.9;-1.0;
15/06/2019 13:53:29;117;0;230.02;17;28.35;11.66;168.3;10.10;68771;5123.906;-12835.989;271;150;156.4;57;57.1;17;17.1;28.9;-1.0;
15/06/2019 13:53:49;117;0;237.58;17;27.45;11.26;163.6;10.10;68763;5123.906;-12835.989;271;150;156.4;57;57.1;14;14.0;28.9;-1.0;
15/06/2019 13:54:09;117;0;243.71;17;27.68;9.94;159.1;10.00;68754;5123.906;-12835.989;271;150;156.4;57;57.1;12;12.2;28.9;-1.0;
15/06/2019 13:54:29;117;0;245.77;17;27.89;8.66;154.8;10.00;68756;5123.906;-12835.989;271;150;158.4;57;57.1;13;13.1;28.9;-1.0;
15/06/2019 13:54:49;117;0;246.50;17;27.95;9.93;150.3;10.00;68764;5123.906;-12835.989;271;150;156.4;57;57.1;14;14.0;28.9;-1.0;
15/06/2019 13:55:09;117;0;245.38;17;27.54;9.77;146.0;9.90;68767;5123.906;-12835.989;271;150;156.4;57;57.1;16;15.8;28.9;-1.0;
15/06/2019 13:55:29;117;0;246.69;17;27.59;11.26;141.4;9.90;68772;5123.906;-12835.989;271;150;156.4;57;57.1;15;14.9;28.9;-1.0;
15/06/2019 13:55:49;117;0;252.17;17;27.39;10.10;137.0;9.90;68781;5123.906;-12835.989;271;150;158.4;57;57.1;12;12.2;28.9;-1.0;
15/06/2019 13:56:09;117;0;256.59;17;27.13;8.68;132.6;9.80;68780;5123.906;-12835.989;271;150;156.4;57;57.1;12;11.7;28.9;-1.0;
15/06/2019 13:56:29;117;0;263.94;17;26.93;8.80;128.4;9.80;68795;5123.906;-12835.989;271;150;156.4;57;57.1;8;7.7;28.9;-1.0;
15/06/2019 13:56:49;117;0;271.59;17;27.13;6.83;124.1;9.80;68791;5123.906;-12835.989;271;150;156.4;57;56.9;5;5.0;28.9;-1.0;
15/06/2019 13:57:09;117;0;273.24;17;25.65;5.04;119.9;9.80;68811;5123.906;-12835.989;271;150;158.4;57;57.1;6;5.9;28.9;-1.0;
15/06/2019 13:57:29;117;0;266.40;17;24.91;6.41;116.2;9.80;68835;5123.906;-12835.989;271;150;156.4;57;57.1;11;11.3;28.9;-1.0;
15/06/2019 13:57:49;117;0;265.22;17;24.41;8.77;112.8;9.80;68853;5123.906;-12835.989;271;150;158.4;57;57.1;11;11.7;28.9;-1.0;
15/06/2019 13:58:09;117;0;261.79;17;24.31;9.04;109.4;9.70;68854;5123.906;-12835.989;271;150;160.4;57;57.1;12;12.2;28.9;-1.0;
15/06/2019 13:58:29;117;0;271.46;17;23.21;8.88;106.2;9.70;68875;5123.906;-12835.989;271;150;158.4;57;57.1;5;5.0;28.9;-1.0;
15/06/2019 13:58:49;117;0;264.94;17;23.61;5.36;103.0;9.70;68872;5123.906;-12835.989;271;150;156.4;57;57.1;10;9.9;28.9;-1.0;
15/06/2019 13:59:09;117;0;263.03;17;23.06;8.41;99.8;9.70;68884;5123.906;-12835.989;271;150;158.4;57;57.1;9;9.0;28.9;-1.0;
15/06/2019 13:59:29;117;0;262.15;17;22.09;7.17;96.8;9.70;68894;5123.906;-12835.989;271;150;158.4;57;56.9;9;8.1;28.9;-1.0;
15/06/2019 13:59:49;117;0;265.10;17;21.51;7.19;93.9;9.70;68910;5123.906;-12835.989;271;150;158.4;57;57.1;7;6.8;28.9;-1.0;
15/06/2019 14:00:09;117;0;263.23;17;21.79;6.40;91.1;9.70;68910;5123.906;-12835.989;271;150;158.4;57;57.1;8;8.1;28.9;-1.0;
15/06/2019 14:00:29;117;0;264.39;17;21.36;7.60;88.5;9.70;68916;5123.906;-12835.989;271;150;158.4;57;57.1;7;7.2;28.9;-1.0;
15/06/2019 14:00:49;117;0;264.71;17;21.39;6.37;85.7;9.70;68916;5123.906;-12835.989;271;150;158.4;57;57.1;6;5.9;28.9;-1.0;
15/06/2019 14:01:09;117;0;269.48;17;21.63;5.75;82.9;9.70;68933;5123.906;-12835.989;271;150;158.4;57;57.1;3;3.2;28.9;-1.0;
15/06/2019 14:01:29;117;0;274.47;17;21.08;4.47;79.8;9.70;68943;5123.906;-12835.989;271;150;158.4;57;57.1;0;-0.5;28.9;-1.0;
15/06/2019 14:01:49;117;0;284.74;17;20.64;2.60;77.0;9.70;68944;5123.906;-12835.989;271;150;158.4;57;57.1;-4;-4.1;28.9;-1.0;
15/06/2019 14:02:09;117;0;278.92;17;20.44;1.31;74.2;9.70;68957;5123.906;-12835.989;271;150;158.4;57;57.1;1;0.9;28.9;-1.0;
15/06/2019 14:02:29;117;0;277.50;17;19.86;3.79;71.6;9.80;68975;5123.906;-12835.989;271;150;158.4;57;57.1;1;1.4;28.9;-1.0;
15/06/2019 14:02:49;117;0;275.64;17;20.39;3.79;69.2;9.70;68970;5123.906;-12835.989;271;150;158.4;57;57.1;1;1.4;28.9;-1.0;
15/06/2019 14:03:09;117;0;270.80;17;20.07;3.86;66.7;9.70;68975;5123.906;-12835.989;271;150;158.4;57;57.1;3;3.2;28.9;-1.0;
15/06/2019 14:03:29;117;0;265.95;17;20.06;5.01;64.3;9.70;68986;5123.906;-12835.989;271;150;158.4;57;57.1;5;5.0;28.9;-1.0;
15/06/2019 14:03:49;117;0;261.27;17;20.01;6.05;61.9;9.80;68989;5123.906;-12835.989;271;150;158.4;57;57.1;5;5.4;28.9;-1.0;
15/06/2019 14:04:09;117;0;261.43;17;19.72;5.96;59.6;9.80;68986;5123.906;-12835.989;271;150;158.4;57;57.1;3;3.2;28.9;-1.0;
15/06/2019 14:04:29;117;0;261.87;17;19.56;4.58;57.3;9.80;69011;5123.906;-12835.989;271;150;158.4;57;57.1;2;1.8;28.9;-1.0;
15/06/2019 14:04:49;117;0;261.54;17;19.57;3.62;55.0;9.80;69015;5123.906;-12835.989;271;150;158.4;57;57.1;2;0.9;28.9;-1.0;
15/06/2019 14:05:09;117;0;261.84;17;19.72;3.61;52.7;9.80;69009;5123.906;-12835.989;271;150;156.4;57;57.1;1;0.9;28.9;-1.0;
15/06/2019 14:05:29;117;0;258.44;17;19.47;3.60;50.5;9.80;69028;5123.906;-12835.989;271;150;158.4;57;57.1;3;3.6;28.9;-1.0;
15/06/2019 14:05:49;117;0;255.89;17;19.31;5.12;48.3;9.80;69032;5123.906;-12835.989;271;150;158.4;57;57.1;4;4.1;28.9;-1.0;
15/06/2019 14:06:09;117;0;257.09;17;19.07;5.16;46.2;9.80;69045;5123.906;-12835.989;271;150;158.4;57;57.1;2;1.8;28.9;-1.0;
15/06/2019 14:06:29;117;0;258.65;17;18.91;3.73;44.0;9.80;69056;5123.906;-12835.989;271;150;158.4;57;56.9;1;0.9;28.9;-1.0;
15/06/2019 14:06:49;117;0;257.38;17;19.21;3.71;41.9;9.80;69066;5123.906;-12835.989;271;150;158.4;57;57.1;1;1.4;28.9;-1.0;
15/06/2019 14:07:09;117;0;253.91;17;19.09;3.74;39.8;9.90;69074;5123.906;-12835.989;271;150;158.4;57;57.1;1;1.4;28.9;-1.0;
15/06/2019 14:07:29;117;0;251.45;17;19.02;3.44;37.7;9.90;69069;5123.906;-12835.989;271;150;158.4;57;57.1;1;1.4;28.9;-1.0;
15/06/2019 14:07:49;117;0;255.83;17;18.60;3.74;35.7;9.90;69078;5123.906;-12835.989;271;150;158.4;57;57.1;1;1.4;28.9;-1.0;
15/06/2019 14:08:09;117;0;252.25;17;18.62;3.70;33.7;9.90;69097;5123.906;-12835.989;271;150;158.4;57;57.1;1;1.4;28.9;-1.0;
15/06/2019 14:08:29;117;0;252.41;17;18.58;3.76;31.7;9.90;69109;5123.906;-12835.989;271;150;156.4;57;57.1;1;0.9;28.9;-1.0;
15/06/2019 14:08:49;117;0;251.35;17;18.60;3.75;29.5;9.90;69109;5123.906;-12835.989;271;150;158.4;57;57.1;1;1.4;28.9;-1.0;
15/06/2019 14:09:09;117;0;253.51;17;17.90;3.94;27.5;10.00;69134;5123.906;-12835.989;271;150;156.4;57;57.1;1;0.9;28.9;-1.0;
15/06/2019 14:09:29;117;0;254.00;17;17.21;3.75;25.7;10.00;69174;5123.906;-12835.989;271;150;158.4;57;57.1;1;1.4;28.9;-1.0;
15/06/2019 14:09:49;117;0;256.21;17;16.45;3.88;24.0;10.00;69189;5123.906;-12835.989;271;150;158.4;57;57.1;1;1.4;28.9;-1.0;
15/06/2019 14:10:09;117;0;259.35;17;16.23;3.80;22.5;10.00;69222;5123.906;-12835.989;271;150;158.4;57;57.1;0;0.0;28.9;-1.0;
15/06/2019 14:10:29;117;0;259.68;17;16.64;2.93;21.0;10.10;69252;5123.906;-12835.989;271;150;158.4;57;57.1;0;-0.9;28.9;-1.0;
15/06/2019 14:10:49;117;0;259.87;17;16.88;2.76;19.5;10.10;69266;5123.906;-12835.989;271;150;158.4;57;57.1;0;-0.9;28.9;-1.0;
15/06/2019 14:11:09;117;0;261.57;17;16.21;2.95;18.0;10.10;69286;5123.906;-12835.989;271;150;158.4;57;56.9;0;-0.9;28.9;-1.0;
15/06/2019 14:11:29;117;0;265.82;17;16.93;3.12;16.5;10.20;69294;5123.906;-12835.989;271;150;158.4;57;57.1;-3;-3.2;28.9;-1.0;
15/06/2019 14:11:49;117;0;263.57;17;16.33;1.52;14.9;10.20;69314;5123.906;-12835.989;271;150;160.4;57;57.1;-1;-0.9;28.9;-1.0;
15/06/2019 14:12:09;117;0;265.34;17;16.33;3.35;13.2;10.30;69346;5123.906;-12835.989;271;150;158.4;57;57.1;-2;-1.8;28.9;-1.0;
15/06/2019 14:12:29;117;0;267.45;17;15.67;2.18;11.6;10.30;69374;5123.906;-12835.989;271;150;158.4;57;57.1;-4;-4.5;28.9;-1.0;
15/06/2019 14:12:49;117;0;267.38;17;15.83;0.89;10.1;10.30;69395;5123.906;-12835.989;271;150;158.4;57;57.1;-3;-3.2;28.9;-1.0;
