Timestamp;NavState;SecurityLevel;Heading;Declination;Pitch;Roll;Depth;Temperature;Pa;Lat;Lon;DesiredH;BallastCmd;BallastPos;LinCmd;LinPos;AngCmd;AngPos;Voltage;Altitude;
14/06/2019 04:21:50;117;0;144.86;17;24.60;3.02;28.7;13.50;69526;5138.216;-12820.533;207;100;105.0;54;54.1;3;3.2;29.2;-1.0;
14/06/2019 04:22:00;110;0;143.07;17;24.60;5.37;27.7;13.50;69535;5138.216;-12820.533;207;-250;-85.1;71;71.2;0;-0.5;29.2;-1.0;
14/06/2019 04:22:10;110;0;123.21;17;-1.87;3.37;26.9;13.40;69992;5138.216;-12820.533;207;-250;-249.5;71;70.9;0;-0.5;29.2;-1.0;
14/06/2019 04:22:20;110;0;127.15;17;-16.19;3.88;27.3;13.40;70141;5138.216;-12820.533;207;-250;-253.5;71;70.8;0;-0.5;29.2;-1.0;
14/06/2019 04:22:30;100;0;124.59;17;-20.96;3.45;28.3;13.40;70141;5138.216;-12820.533;207;-250;-251.5;71;70.8;0;-0.5;29.2;-1.0;
14/06/2019 04:22:50;100;0;117.43;17;-20.45;3.37;31.0;13.40;70144;5138.216;-12820.533;207;-250;-253.5;71;70.8;-21;-21.7;29.3;0.0;
14/06/2019 04:23:10;100;0;113.67;17;-20.50;-6.56;34.1;13.40;70132;5138.216;-12820.533;207;-250;-253.5;71;70.8;-21;-22.1;29.2;0.0;
14/06/2019 04:23:30;100;0;116.35;17;-20.22;-6.55;36.9;13.30;70098;5138.216;-12820.533;207;-250;-251.5;71;70.8;-19;-18.5;29.3;0.0;
14/06/2019 04:23:50;100;0;119.47;17;-19.88;-4.66;39.7;13.30;70097;5138.216;-12820.533;207;-250;-251.5;71;70.8;-19;-18.1;29.2;0.0;
14/06/2019 04:24:10;100;0;119.71;17;-19.76;-4.76;42.4;13.20;70075;5138.216;-12820.533;207;-250;-253.5;71;70.8;-22;-22.1;29.2;0.0;
14/06/2019 04:24:30;100;0;124.38;17;-20.12;-6.89;44.9;13.20;70059;5138.216;-12820.533;207;-250;-255.4;71;70.8;-21;-21.2;29.2;0.0;
14/06/2019 04:24:50;100;0;125.63;17;-19.97;-6.00;47.5;13.10;70037;5138.216;-12820.533;207;-250;-253.5;71;70.8;-24;-23.9;29.2;0.0;
14/06/2019 04:25:10;100;0;126.57;17;-20.21;-8.02;50.0;13.10;70034;5138.216;-12820.533;207;-250;-255.4;71;70.8;-26;-26.2;29.1;0.0;
14/06/2019 04:25:30;118;0;130.67;17;-20.30;-9.17;52.5;13.00;70010;5138.216;-12820.533;207;100;-241.6;54;53.7;0;0.5;29.2;0.0;
14/06/2019 04:25:40;118;0;119.52;17;0.25;3.97;53.6;13.00;69924;5138.216;-12820.533;207;100;-85.1;54;53.9;0;0.5;28.9;0.0;
14/06/2019 04:25:51;118;0;120.07;17;18.35;3.77;53.3;13.00;69721;5138.216;-12820.533;207;100;67.3;54;53.9;0;0.5;28.9;-1.0;
14/06/2019 04:26:01;118;0;121.30;17;24.72;3.93;52.5;13.00;69461;5138.216;-12820.533;207;100;105.0;54;53.9;0;0.5;28.9;-1.0;
14/06/2019 04:26:11;118;0;138.10;17;26.06;3.64;51.5;12.90;69416;5138.216;-12820.533;207;100;105.0;54;53.9;0;0.5;29.2;-1.0;
14/06/2019 04:26:21;117;0;137.49;17;27.23;3.81;50.3;12.90;69413;5138.216;-12820.533;207;100;106.9;54;53.9;0;0.5;29.2;-1.0;
14/06/2019 04:26:41;117;0;136.04;17;26.88;3.83;47.6;12.80;69419;5138.216;-12820.533;207;100;106.9;54;53.9;21;21.2;29.2;-1.0;
14/06/2019 04:27:01;117;0;139.49;17;26.89;14.25;44.4;12.80;69404;5138.216;-12820.533;207;100;106.9;54;53.9;21;21.7;29.2;-1.0;
14/06/2019 04:27:21;117;0;137.24;17;26.81;14.20;41.5;12.70;69406;5138.216;-12820.533;207;100;105.0;54;53.9;24;23.9;29.2;-1.0;
14/06/2019 04:27:41;117;0;141.96;17;25.96;15.68;38.7;12.70;69413;5138.216;-12820.533;207;100;106.9;54;53.9;22;22.1;29.2;-1.0;
14/06/2019 04:28:01;117;0;139.49;17;26.05;13.90;36.2;12.60;69422;5138.216;-12820.533;207;100;106.9;54;53.9;24;24.4;29.2;-1.0;
14/06/2019 04:28:21;117;0;140.85;17;25.85;15.58;33.8;12.60;69431;5138.216;-12820.533;207;100;106.9;54;53.9;24;24.8;29.2;-1.0;
14/06/2019 04:28:41;117;0;146.65;17;25.11;15.74;31.4;12.60;69433;5138.216;-12820.533;207;100;105.0;54;53.8;21;21.2;29.2;-1.0;
14/06/2019 04:29:01;117;0;155.12;17;24.61;13.47;29.0;12.50;69444;5138.216;-12820.533;207;100;106.9;54;53.9;17;17.1;29.2;-1.0;
14/06/2019 04:29:21;117;0;155.05;17;25.05;11.35;26.9;12.50;69459;5138.216;-12820.533;207;100;108.9;54;53.9;19;19.4;29.2;-1.0;
14/06/2019 04:29:41;117;0;153.04;17;24.06;13.12;24.8;12.50;69486;5138.216;-12820.533;207;100;105.0;54;53.9;21;21.7;29.2;-1.0;
14/06/2019 04:30:01;117;0;153.74;17;24.08;14.33;22.9;12.50;69517;5138.216;-12820.533;207;100;106.9;54;53.9;21;22.1;29.2;-1.0;
14/06/2019 04:30:21;117;0;156.38;17;23.98;14.34;21.1;12.40;69536;5138.216;-12820.533;207;100;106.9;54;53.9;20;19.9;29.2;-1.0;
14/06/2019 04:30:41;117;0;162.13;17;23.98;12.88;19.4;12.40;69572;5138.216;-12820.533;207;100;106.9;54;53.9;17;17.1;29.2;-1.0;
14/06/2019 04:31:01;117;0;171.92;17;23.77;11.76;17.7;12.40;69583;5138.216;-12820.533;207;100;106.9;54;53.9;13;12.6;29.2;-1.0;
14/06/2019 04:31:21;117;0;171.23;17;22.82;9.33;15.9;12.40;69613;5138.216;-12820.533;207;100;106.9;54;53.9;16;15.8;29.2;-1.0;
14/06/2019 04:31:41;117;0;177.25;17;22.97;11.35;14.3;12.40;69653;5138.216;-12820.533;207;100;106.9;54;53.9;13;12.6;29.3;-1.0;
14/06/2019 04:32:01;117;0;206.10;17;20.89;8.66;12.8;12.40;69687;5138.216;-12820.533;207;100;106.9;54;53.9;13;12.2;29.2;-1.0;
14/06/2019 04:32:21;117;0;218.34;17;21.17;9.38;11.6;12.40;69699;5138.216;-12820.533;207;100;105.0;54;53.9;-2;-1.8;29.2;-1.0;
14/06/2019 04:32:41;117;0;215.49;17;21.45;1.73;10.5;12.40;69715;5138.216;-12820.533;207;100;108.9;54;53.9;4;4.1;29.2;-1.0;
