Timestamp;NavState;SecurityLevel;Heading;Declination;Pitch;Roll;Depth;Temperature;Pa;Lat;Lon;DesiredH;BallastCmd;BallastPos;LinCmd;LinPos;AngCmd;AngPos;Voltage;Altitude;
15/06/2019 01:48:14;117;0;247.13;17;16.07;3.45;10.0;9.90;69287;5128.276;-12826.705;266;150;156.4;57;56.9;2;1.8;29.0;-1.0;
15/06/2019 01:48:24;110;0;238.33;17;15.36;4.80;9.1;9.90;69305;5128.276;-12826.705;266;-300;-65.3;73;73.3;0;-0.5;29.0;-1.0;
15/06/2019 01:48:34;110;0;236.28;17;-9.80;3.64;8.8;10.00;69838;5128.276;-12826.705;266;-300;-301.0;73;72.9;0;-0.5;28.9;-1.0;
15/06/2019 01:48:44;110;0;253.19;17;-23.27;3.23;9.5;10.00;70116;5128.276;-12826.705;266;-300;-301.0;73;72.9;0;0.0;29.0;-1.0;
15/06/2019 01:48:54;100;0;255.02;17;-26.89;3.67;11.2;10.00;70114;5128.276;-12826.705;266;-300;-305.0;73;72.9;0;-0.5;29.0;-1.0;
15/06/2019 01:49:14;100;0;245.37;17;-27.25;3.49;15.2;10.10;70097;5128.276;-12826.705;266;-300;-305.0;73;73.0;-3;-3.2;29.0;0.0;
15/06/2019 01:49:34;100;0;237.71;17;-25.43;1.91;19.9;10.10;70082;5128.276;-12826.705;266;-300;-305.0;73;72.9;-8;-8.1;29.0;0.0;
15/06/2019 01:49:55;100;0;231.44;17;-25.58;-0.46;24.1;10.20;70050;5128.276;-12826.705;266;-300;-305.0;73;72.9;-10;-9.9;29.0;0.0;
15/06/2019 01:50:15;100;0;224.13;17;-24.70;-1.12;28.4;10.20;70012;5128.276;-12826.705;266;-300;-305.0;73;72.9;-13;-13.5;29.0;0.0;
15/06/2019 01:50:35;100;0;222.88;17;-24.55;-2.66;32.3;10.20;69969;5128.276;-12826.705;266;-300;-305.0;73;73.0;-13;-14.0;29.0;0.0;
15/06/2019 01:50:55;100;0;217.59;17;-25.24;-2.86;36.2;10.20;69930;5128.276;-12826.705;266;-300;-305.0;73;72.9;-15;-15.3;29.0;0.0;
15/06/2019 01:51:15;100;0;213.16;17;-24.47;-3.67;40.2;10.20;69909;5128.276;-12826.705;266;-300;-305.0;73;72.9;-16;-15.8;29.0;0.0;
15/06/2019 01:51:35;100;0;209.34;17;-24.64;-3.66;44.0;10.20;69878;5128.276;-12826.705;266;-300;-305.0;73;72.9;-17;-17.1;29.0;0.0;
15/06/2019 01:51:55;100;0;209.27;17;-24.72;-4.54;47.6;10.20;69870;5128.276;-12826.705;266;-300;-305.0;73;72.9;-16;-15.8;29.0;0.0;
15/06/2019 01:52:15;100;0;207.16;17;-24.36;-3.34;51.3;10.20;69839;5128.276;-12826.705;266;-300;-305.0;73;73.0;-17;-17.1;29.0;0.0;
15/06/2019 01:52:35;100;0;204.33;17;-24.69;-4.49;55.0;10.10;69843;5128.276;-12826.705;266;-300;-305.0;73;72.9;-19;-19.0;29.0;0.0;
15/06/2019 01:52:55;100;0;201.08;17;-24.31;-5.32;58.7;10.10;69824;5128.276;-12826.705;266;-300;-305.0;73;73.0;-21;-21.2;29.0;0.0;
15/06/2019 01:53:15;100;0;202.79;17;-24.30;-6.41;62.6;10.10;69820;5128.276;-12826.705;266;-300;-305.0;73;72.9;-22;-22.1;29.0;0.0;
15/06/2019 01:53:35;100;0;196.75;17;-23.93;-6.86;66.6;10.10;69814;5128.276;-12826.705;266;-300;-305.0;73;72.9;-27;-27.1;29.0;0.0;
15/06/2019 01:53:55;100;0;198.30;17;-23.73;-9.29;70.6;10.10;69790;5128.276;-12826.705;266;-300;-303.0;73;73.0;-25;-24.8;29.0;0.0;
15/06/2019 01:54:15;100;0;194.91;17;-23.71;-7.57;74.3;10.10;69780;5128.276;-12826.705;266;-300;-305.0;73;72.9;-27;-27.1;29.0;0.0;
15/06/2019 01:54:35;100;0;189.13;17;-23.58;-9.18;77.9;10.10;69774;5128.276;-12826.705;266;-300;-305.0;73;72.9;-29;-29.3;29.0;0.0;
15/06/2019 01:54:55;100;0;185.15;17;-23.29;-10.26;81.5;10.10;69769;5128.276;-12826.705;266;-300;-305.0;73;72.9;-30;-29.8;29.0;0.0;
15/06/2019 01:55:15;100;0;181.71;17;-23.20;-10.21;85.0;10.10;69762;5128.276;-12826.705;266;-300;-303.0;73;72.9;-31;-31.1;29.0;0.0;
15/06/2019 01:55:35;100;0;185.47;17;-22.71;-11.17;88.3;10.10;69757;5128.276;-12826.705;266;-300;-305.0;73;72.9;-27;-27.1;29.0;0.0;
15/06/2019 01:55:55;100;0;187.47;17;-23.18;-8.83;91.4;10.10;69746;5128.276;-12826.705;266;-300;-305.0;73;72.9;-26;-26.2;29.0;0.0;
15/06/2019 01:56:15;100;0;188.55;17;-22.16;-8.67;94.5;10.00;69731;5128.276;-12826.705;266;-300;-305.0;73;73.0;-26;-26.2;29.0;0.0;
15/06/2019 01:56:35;100;0;188.47;17;-22.09;-8.86;97.6;10.00;69723;5128.276;-12826.705;266;-300;-305.0;73;72.9;-26;-26.2;29.0;0.0;
15/06/2019 01:56:55;100;0;189.15;17;-21.77;-8.78;100.6;10.00;69712;5128.276;-12826.705;266;-300;-305.0;73;72.9;-26;-26.2;29.0;0.0;
15/06/2019 01:57:15;100;0;192.77;17;-21.78;-8.65;103.5;10.00;69713;5128.276;-12826.705;266;-300;-305.0;73;73.0;-24;-23.9;29.0;0.0;
15/06/2019 01:57:35;100;0;200.12;17;-20.98;-7.23;106.5;10.00;69700;5128.276;-12826.705;266;-300;-305.0;73;72.9;-20;-19.4;29.0;0.0;
15/06/2019 01:57:55;100;0;205.31;17;-21.36;-5.08;109.4;10.00;69706;5128.276;-12826.705;266;-300;-305.0;73;72.9;-19;-19.4;29.0;0.0;
15/06/2019 01:58:15;100;0;201.12;17;-21.02;-5.66;112.3;10.00;69696;5128.276;-12826.705;266;-300;-305.0;73;72.9;-24;-23.9;29.1;0.0;
15/06/2019 01:58:35;100;0;199.88;17;-21.06;-7.87;115.2;9.90;69697;5128.276;-12826.705;266;-300;-306.9;73;72.9;-25;-24.8;29.0;0.0;
15/06/2019 01:58:55;100;0;203.03;17;-20.79;-8.22;118.0;9.90;69681;5128.276;-12826.705;266;-300;-305.0;73;72.9;-22;-22.1;29.0;0.0;
15/06/2019 01:59:15;100;0;201.44;17;-20.71;-6.52;120.7;9.90;69677;5128.276;-12826.705;266;-300;-305.0;73;73.0;-24;-23.9;29.0;0.0;
15/06/2019 01:59:35;100;0;201.62;17;-21.07;-7.91;123.1;9.90;69683;5128.276;-12826.705;266;-300;-305.0;73;72.9;-24;-24.4;29.0;0.0;
15/06/2019 01:59:55;100;0;202.24;17;-20.55;-7.85;125.7;9.90;69674;5128.276;-12826.705;266;-300;-305.0;73;73.0;-23;-23.0;29.0;0.0;
15/06/2019 02:00:15;100;0;200.31;17;-20.42;-7.04;128.1;9.90;69656;5128.276;-12826.705;266;-300;-305.0;73;73.0;-25;-24.8;29.0;0.0;
15/06/2019 02:00:35;100;0;205.95;17;-20.29;-8.37;130.3;9.90;69657;5128.276;-12826.705;266;-300;-305.0;73;72.9;-22;-22.1;29.0;0.0;
15/06/2019 02:00:55;100;0;209.88;17;-19.96;-6.54;132.6;9.90;69654;5128.276;-12826.705;266;-300;-305.0;73;73.0;-20;-19.4;29.0;0.0;
15/06/2019 02:01:15;100;0;207.79;17;-19.74;-5.40;134.8;9.80;69629;5128.276;-12826.705;266;-300;-305.0;73;73.0;-22;-22.1;29.0;0.0;
15/06/2019 02:01:35;100;0;203.48;17;-19.40;-6.95;137.1;9.80;69630;5128.276;-12826.705;266;-300;-305.0;73;72.9;-25;-24.8;29.0;0.0;
15/06/2019 02:01:55;100;0;207.46;17;-19.03;-8.38;139.3;9.80;69601;5128.276;-12826.705;266;-300;-303.0;73;72.9;-22;-22.1;29.0;0.0;
15/06/2019 02:02:15;100;0;210.10;17;-19.05;-6.59;141.4;9.80;69590;5128.276;-12826.705;266;-300;-303.0;73;73.0;-21;-21.2;29.0;0.0;
15/06/2019 02:02:35;100;0;212.53;17;-18.94;-6.58;143.6;9.70;69570;5128.276;-12826.705;266;-300;-305.0;73;73.0;-20;-19.9;29.0;0.0;
15/06/2019 02:02:55;100;0;214.26;17;-19.34;-5.56;145.7;9.70;69555;5128.276;-12826.705;266;-300;-305.0;73;72.9;-20;-19.0;29.0;0.0;
15/06/2019 02:03:15;100;0;214.95;17;-19.34;-5.50;148.0;9.70;69546;5128.276;-12826.705;266;-300;-305.0;73;73.0;-21;-21.2;29.0;0.0;
15/06/2019 02:03:35;100;0;216.03;17;-19.48;-6.92;150.1;9.60;69545;5128.276;-12826.705;266;-300;-305.0;73;72.9;-20;-19.9;29.0;44.4;
15/06/2019 02:03:55;100;0;215.90;17;-19.22;-5.33;152.3;9.60;69538;5128.276;-12826.705;266;-300;-305.0;73;72.9;-21;-21.2;29.0;42.0;
15/06/2019 02:04:15;100;0;217.18;17;-19.24;-6.85;154.6;9.60;69540;5128.276;-12826.705;266;-300;-305.0;73;72.9;-20;-19.9;29.0;39.7;
15/06/2019 02:04:35;100;0;217.38;17;-18.99;-5.62;156.9;9.60;69529;5128.276;-12826.705;266;-300;-305.0;73;73.0;-20;-19.4;29.0;37.4;
15/06/2019 02:04:55;100;0;218.65;17;-19.02;-5.65;159.1;9.60;69525;5128.276;-12826.705;266;-300;-305.0;73;72.9;-20;-19.4;29.0;35.2;
15/06/2019 02:05:15;100;0;219.49;17;-18.85;-5.62;161.3;9.50;69516;5128.276;-12826.705;266;-300;-303.0;73;73.0;-20;-19.4;29.0;33.0;
15/06/2019 02:05:35;100;0;221.20;17;-19.16;-5.61;163.5;9.50;69515;5128.276;-12826.705;266;-300;-305.0;73;72.9;-19;-19.0;29.0;30.7;
15/06/2019 02:05:55;100;0;221.74;17;-18.83;-4.97;165.6;9.50;69502;5128.276;-12826.705;266;-300;-305.0;73;72.9;-19;-18.1;29.0;28.4;
15/06/2019 02:06:15;100;0;221.77;17;-18.78;-4.97;167.9;9.40;69501;5128.276;-12826.705;266;-300;-305.0;73;73.0;-20;-19.9;29.0;26.1;
15/06/2019 02:06:35;100;0;221.25;17;-18.78;-6.03;170.1;9.40;69485;5128.276;-12826.705;266;-300;-305.0;73;73.0;-20;-20.3;29.0;23.9;
15/06/2019 02:06:55;100;0;220.50;17;-18.66;-6.07;172.4;9.40;69489;5128.276;-12826.705;266;-300;-303.0;73;72.9;-20;-20.3;29.1;21.6;
15/06/2019 02:07:15;100;0;221.15;17;-18.91;-6.10;174.5;9.40;69484;5128.276;-12826.705;266;-300;-305.0;73;72.9;-20;-20.3;29.0;19.4;
15/06/2019 02:07:35;118;0;221.12;17;-18.72;-6.10;176.6;9.30;69471;5128.276;-12826.705;266;150;-291.1;57;56.8;0;0.5;29.0;17.4;
15/06/2019 02:07:45;118;0;164.94;17;2.01;3.74;177.5;9.30;69393;5128.276;-12826.705;266;150;-134.7;57;57.2;0;0.5;28.4;17.4;
15/06/2019 02:07:55;118;0;165.98;17;19.11;3.35;177.2;9.30;69186;5128.276;-12826.705;266;150;19.8;57;57.2;0;0.5;28.5;-1.0;
15/06/2019 02:08:05;118;0;165.85;17;23.34;3.65;176.4;9.30;68924;5128.276;-12826.705;266;150;156.4;57;57.2;0;0.5;28.5;-1.0;
15/06/2019 02:08:15;118;0;213.28;17;24.16;4.31;175.2;9.30;68713;5128.276;-12826.705;266;150;156.4;57;57.2;0;0.5;29.0;-1.0;
15/06/2019 02:08:25;118;0;212.76;17;26.57;3.65;173.7;9.30;68721;5128.276;-12826.705;266;150;158.4;57;57.2;0;0.5;29.0;-1.0;
15/06/2019 02:08:35;117;0;213.18;17;27.81;3.62;171.8;9.30;68721;5128.276;-12826.705;266;150;158.4;57;57.2;0;0.5;29.0;-1.0;
15/06/2019 02:08:55;117;0;212.52;17;27.47;3.63;167.6;9.30;68721;5128.276;-12826.705;266;150;156.4;57;57.2;25;25.3;29.0;-1.0;
15/06/2019 02:09:15;117;0;221.13;17;27.09;15.97;162.8;9.30;68726;5128.276;-12826.705;266;150;156.4;57;57.1;18;18.1;29.0;-1.0;
15/06/2019 02:09:35;117;0;223.94;17;27.41;11.54;158.3;9.30;68722;5128.276;-12826.705;266;150;160.4;57;57.1;18;17.1;29.0;-1.0;
15/06/2019 02:09:55;117;0;227.08;17;27.35;11.58;153.8;9.20;68725;5128.276;-12826.705;266;150;158.4;57;57.2;16;15.3;29.0;-1.0;
15/06/2019 02:10:15;117;0;231.68;17;27.62;10.36;149.3;9.20;68714;5128.276;-12826.705;266;150;156.4;57;57.2;15;14.9;29.0;-1.0;
15/06/2019 02:10:35;117;0;234.27;17;27.77;10.48;144.6;9.20;68725;5128.276;-12826.705;266;150;158.4;57;57.2;15;14.9;29.0;-1.0;
15/06/2019 02:10:55;117;0;235.55;17;27.43;10.27;139.9;9.20;68720;5128.276;-12826.705;266;150;158.4;57;57.2;15;14.9;29.0;-1.0;
15/06/2019 02:11:15;117;0;238.97;17;26.30;10.22;135.4;9.20;68721;5128.276;-12826.705;266;150;158.4;57;57.2;15;14.9;29.0;-1.0;
15/06/2019 02:11:35;117;0;242.22;17;25.72;10.13;131.5;9.10;68737;5128.276;-12826.705;266;150;158.4;57;57.1;13;13.1;29.0;-1.0;
15/06/2019 02:11:55;117;0;241.76;17;26.10;9.02;127.7;9.10;68762;5128.276;-12826.705;266;150;158.4;57;57.2;15;14.9;29.0;-1.0;
15/06/2019 02:12:15;117;0;243.70;17;25.60;10.85;123.6;9.10;68776;5128.276;-12826.705;266;150;158.4;57;57.2;14;14.0;29.0;-1.0;
15/06/2019 02:12:35;117;0;246.57;17;24.58;9.84;119.7;9.10;68783;5128.276;-12826.705;266;150;158.4;57;57.2;13;13.1;29.0;-1.0;
15/06/2019 02:12:55;117;0;251.83;17;24.30;9.28;116.3;9.10;68797;5128.276;-12826.705;266;150;158.4;57;57.2;13;12.6;29.0;-1.0;
15/06/2019 02:13:15;117;0;259.90;17;24.13;8.90;112.8;9.10;68797;5128.276;-12826.705;266;150;156.4;57;57.2;8;8.1;29.0;-1.0;
15/06/2019 02:13:35;117;0;261.85;17;23.92;6.59;109.4;9.10;68812;5128.276;-12826.705;266;150;158.4;57;57.1;8;7.7;29.0;-1.0;
15/06/2019 02:13:55;117;0;259.81;17;24.82;6.71;106.0;9.10;68821;5128.276;-12826.705;266;150;158.4;57;57.2;10;9.9;29.0;-1.0;
15/06/2019 02:14:15;117;0;253.38;17;24.34;8.40;102.4;9.10;68819;5128.276;-12826.705;266;150;156.4;57;57.2;14;14.0;29.0;-1.0;
15/06/2019 02:14:35;117;0;255.73;17;23.64;10.41;98.8;9.10;68837;5128.276;-12826.705;266;150;158.4;57;57.2;12;12.2;29.0;-1.0;
15/06/2019 02:14:55;117;0;257.92;17;23.86;8.97;95.4;9.10;68831;5128.276;-12826.705;266;150;156.4;57;57.2;10;9.9;29.0;-1.0;
15/06/2019 02:15:15;117;0;257.38;17;22.65;7.55;92.0;9.10;68843;5128.276;-12826.705;266;150;158.4;57;57.2;10;9.5;29.0;-1.0;
15/06/2019 02:15:35;117;0;259.58;17;22.82;7.69;88.8;9.10;68850;5128.276;-12826.705;266;150;158.4;57;57.2;9;8.6;29.0;-1.0;
15/06/2019 02:15:55;117;0;262.01;17;22.63;7.19;85.7;9.10;68848;5128.276;-12826.705;266;150;158.4;57;57.2;7;6.8;29.0;-1.0;
15/06/2019 02:16:15;117;0;269.16;17;22.20;6.45;82.7;9.10;68850;5128.276;-12826.705;266;150;160.4;57;57.2;3;3.2;29.0;-1.0;
15/06/2019 02:16:35;117;0;272.45;17;21.48;4.08;79.5;9.10;68850;5128.276;-12826.705;266;150;158.4;57;57.1;3;2.3;29.0;-1.0;
15/06/2019 02:16:55;117;0;271.22;17;21.46;4.36;76.6;9.10;68867;5128.276;-12826.705;266;150;156.4;57;57.2;4;4.1;29.0;-1.0;
15/06/2019 02:17:15;117;0;269.09;17;21.27;5.36;73.9;9.10;68861;5128.276;-12826.705;266;150;158.4;57;57.2;5;5.0;29.0;-1.0;
15/06/2019 02:17:35;117;0;272.70;17;21.06;5.57;71.2;9.10;68867;5128.276;-12826.705;266;150;158.4;57;57.2;3;2.7;29.0;-1.0;
15/06/2019 02:17:55;117;0;275.29;17;20.67;4.37;68.5;9.20;68870;5128.276;-12826.705;266;150;156.4;57;57.2;1;0.9;29.0;-1.0;
15/06/2019 02:18:15;117;0;273.85;17;20.75;3.24;65.9;9.10;68872;5128.276;-12826.705;266;150;158.4;57;57.2;2;1.8;29.0;-1.0;
15/06/2019 02:18:35;117;0;272.90;17;20.27;4.40;63.3;9.20;68882;5128.276;-12826.705;266;150;158.4;57;57.2;2;2.3;29.0;-1.0;
15/06/2019 02:18:55;117;0;269.92;17;19.96;4.32;60.9;9.20;68891;5128.276;-12826.705;266;150;158.4;57;57.2;3;3.6;29.0;-1.0;
15/06/2019 02:19:15;117;0;271.14;17;19.79;5.09;58.7;9.20;68897;5128.276;-12826.705;266;150;158.4;57;57.1;1;0.5;29.0;-1.0;
15/06/2019 02:19:35;117;0;271.55;17;19.73;3.22;56.3;9.20;68888;5128.276;-12826.705;266;150;158.4;57;57.2;0;0.0;29.0;-1.0;
15/06/2019 02:19:55;117;0;272.24;17;19.33;3.15;54.0;9.20;68899;5128.276;-12826.705;266;150;158.4;57;57.2;0;0.5;29.0;-1.0;
15/06/2019 02:20:15;117;0;268.11;17;19.57;3.21;52.0;9.20;68904;5128.276;-12826.705;266;150;158.4;57;57.2;1;1.4;29.0;-1.0;
15/06/2019 02:20:35;117;0;271.49;17;19.39;4.02;49.9;9.20;68914;5128.276;-12826.705;266;150;158.4;57;57.2;-1;-1.4;29.0;-1.0;
15/06/2019 02:20:55;117;0;270.72;17;19.47;2.30;47.8;9.20;68929;5128.276;-12826.705;266;150;158.4;57;57.2;-1;-1.8;29.0;-1.0;
15/06/2019 02:21:15;117;0;266.99;17;19.36;2.37;45.7;9.20;68921;5128.276;-12826.705;266;150;158.4;57;57.2;0;0.0;29.0;-1.0;
15/06/2019 02:21:36;117;0;268.35;17;19.11;3.43;43.6;9.20;68939;5128.276;-12826.705;266;150;158.4;57;57.1;-2;-1.8;29.0;-1.0;
15/06/2019 02:21:56;117;0;264.78;17;19.13;2.14;41.6;9.20;68933;5128.276;-12826.705;266;150;158.4;57;57.2;0;0.0;29.0;-1.0;
15/06/2019 02:22:16;117;0;263.62;17;18.63;3.54;39.6;9.30;68951;5128.276;-12826.705;266;150;158.4;57;57.2;-1;-0.9;29.0;-1.0;
15/06/2019 02:22:36;117;0;258.27;17;18.41;2.39;37.5;9.30;68957;5128.276;-12826.705;266;150;158.4;57;57.1;0;0.0;29.0;-1.0;
15/06/2019 02:22:56;117;0;259.81;17;18.00;3.73;35.6;9.30;68966;5128.276;-12826.705;266;150;158.4;57;57.2;-1;-0.9;29.0;-1.0;
15/06/2019 02:23:16;117;0;258.66;17;17.96;2.54;33.7;9.30;68972;5128.276;-12826.705;266;150;156.4;57;57.1;-1;-1.4;29.0;-1.0;
15/06/2019 02:23:36;117;0;258.27;17;17.98;2.63;31.7;9.30;68981;5128.276;-12826.705;266;150;158.4;57;57.1;-2;-2.3;29.0;-1.0;
15/06/2019 02:23:56;117;0;253.68;17;17.79;1.95;29.6;9.30;69001;5128.276;-12826.705;266;150;158.4;57;57.1;0;0.5;29.0;-1.0;
15/06/2019 02:24:16;117;0;254.04;17;16.93;3.67;27.5;9.30;69007;5128.276;-12826.705;266;150;158.4;57;57.2;-1;-0.9;29.0;-1.0;
15/06/2019 02:24:36;117;0;254.51;17;16.84;2.58;25.6;9.40;69037;5128.276;-12826.705;266;150;158.4;57;57.2;-2;-1.8;29.0;-1.0;
15/06/2019 02:24:56;117;0;254.15;17;16.68;2.07;23.7;9.40;69073;5128.276;-12826.705;266;150;158.4;57;57.1;-2;-2.7;29.0;-1.0;
15/06/2019 02:25:16;117;0;254.24;17;16.46;1.98;21.9;9.40;69095;5128.276;-12826.705;266;150;158.4;57;57.2;-3;-3.2;29.0;-1.0;
15/06/2019 02:25:36;117;0;250.82;17;16.45;1.39;20.1;9.50;69107;5128.276;-12826.705;266;150;158.4;57;57.2;0;0.0;29.0;-1.0;
15/06/2019 02:25:56;117;0;250.67;17;15.60;3.56;18.3;9.50;69133;5128.276;-12826.705;266;150;158.4;57;57.2;-1;-1.4;29.0;-1.0;
15/06/2019 02:26:16;117;0;250.62;17;15.61;2.40;16.7;9.50;69156;5128.276;-12826.705;266;150;158.4;57;57.2;-2;-1.8;29.1;-1.0;
15/06/2019 02:26:36;117;0;247.51;17;15.72;2.41;15.1;9.60;69181;5128.276;-12826.705;266;150;158.4;57;57.1;-2;-1.8;29.0;-1.0;
15/06/2019 02:26:56;117;0;242.71;17;16.14;2.21;13.4;9.60;69198;5128.276;-12826.705;266;150;158.4;57;57.2;1;1.4;29.0;-1.0;
15/06/2019 02:27:16;117;0;247.05;17;15.37;4.23;11.8;9.60;69221;5128.276;-12826.705;266;150;158.4;57;57.2;-2;-1.8;29.0;-1.0;
15/06/2019 02:27:36;117;0;246.08;17;14.93;2.24;10.1;9.70;69270;5128.276;-12826.705;266;150;158.4;57;57.2;-1;-0.9;29.0;-1.0;
