Timestamp;NavState;SecurityLevel;Heading;Declination;Pitch;Roll;Depth;Temperature;Pa;Lat;Lon;DesiredH;BallastCmd;BallastPos;LinCmd;LinPos;AngCmd;AngPos;Voltage;Altitude;
14/06/2019 14:00:41;117;0;221.88;17;18.00;-1.48;9.8;10.10;69378;5133.953;-12823.116;212;150;158.4;56;56.2;-11;-10.8;29.1;-1.0;
14/06/2019 14:00:51;115;0;215.12;17;16.01;-2.25;9.1;10.10;69378;5133.953;-12823.116;212;500;168.3;100;100.4;0;0.5;29.1;-1.0;
14/06/2019 14:01:01;115;0;187.57;17;-27.25;3.99;8.6;10.10;69291;5133.953;-12823.116;212;500;318.8;100;100.0;0;0.5;28.8;-1.0;
14/06/2019 14:01:11;115;0;236.22;17;-71.40;-5.18;9.2;10.20;69105;5133.953;-12823.116;212;500;469.3;100;100.0;0;0.5;28.8;-1.0;
14/06/2019 14:01:21;115;0;335.98;17;-54.82;-1.10;8.1;10.20;68853;5133.953;-12823.116;212;500;505.0;100;99.9;0;0.5;28.8;-1.0;
14/06/2019 14:01:31;115;0;3.08;17;-48.92;-2.50;5.5;10.20;68824;5133.953;-12823.116;212;500;505.0;100;99.9;0;0.9;29.1;-1.0;
14/06/2019 14:01:41;116;0;95.35;17;-66.31;-55.17;1.3;10.20;68823;5133.953;-12823.116;212;500;506.9;100;100.0;0;0.5;29.1;-1.0;
14/06/2019 14:02:01;116;0;245.54;17;-30.70;0.45;1.3;10.30;68831;5133.953;-12823.116;212;500;506.9;100;99.9;0;0.5;29.1;-1.0;
14/06/2019 14:02:21;116;0;303.18;17;-31.41;3.44;1.4;10.40;68851;5133.493;-12823.378;212;500;506.9;100;99.9;0;0.5;29.1;-1.0;
14/06/2019 14:02:41;116;0;328.95;17;-11.76;5.30;1.2;10.50;68858;5133.493;-12823.380;212;500;508.9;100;99.7;0;0.5;29.1;-1.0;
14/06/2019 14:03:01;116;0;347.40;17;-6.65;1.63;1.1;10.60;68867;5133.494;-12823.382;212;500;508.9;100;99.9;0;0.5;29.1;-1.0;
14/06/2019 14:03:21;116;0;304.52;17;-8.42;2.19;1.1;10.70;68875;5133.502;-12823.399;212;500;508.9;100;99.9;0;0.5;29.1;-1.0;
14/06/2019 14:04:26;116;0;299.21;17;-27.46;5.20;1.3;11.10;68905;5133.502;-12823.400;212;500;508.9;100;99.7;0;0.5;29.1;-1.0;
14/06/2019 14:04:46;116;0;335.54;17;-8.62;3.78;1.1;11.30;68902;5133.500;-12823.400;212;500;510.9;100;99.7;0;0.5;29.1;-1.0;
14/06/2019 14:05:06;116;0;310.69;17;-5.78;6.72;1.2;11.40;68918;5133.498;-12823.407;212;500;508.9;100;99.9;0;0.5;29.1;-1.0;
14/06/2019 14:05:37;116;0;332.89;17;-7.80;-1.58;1.2;11.60;68926;5133.498;-12823.407;212;500;508.9;100;99.7;0;0.9;29.1;-1.0;
14/06/2019 14:05:57;116;0;320.46;17;-17.01;3.60;1.2;11.70;68926;5133.487;-12823.405;212;500;510.9;100;99.7;0;0.5;29.1;-1.0;
14/06/2019 14:06:17;116;0;307.47;17;-9.38;2.30;1.2;11.90;68930;5133.473;-12823.394;212;500;508.9;100;99.7;0;0.5;29.1;-1.0;
14/06/2019 14:06:37;116;0;325.86;17;-4.54;0.70;1.2;12.10;68947;5133.508;-12823.433;212;500;508.9;100;99.7;0;0.5;29.1;-1.0;
14/06/2019 14:08:09;116;0;310.61;17;-24.77;3.16;1.3;12.70;68975;5133.508;-12823.433;212;500;508.9;100;99.7;0;0.5;29.1;-1.0;
14/06/2019 14:08:29;116;0;302.36;17;-7.17;-1.10;1.2;12.80;68973;5133.453;-12823.415;212;500;508.9;100;99.9;0;0.5;29.1;-1.0;
14/06/2019 14:08:56;116;0;328.08;17;-22.98;1.90;1.3;12.90;68987;5133.446;-12823.411;212;500;508.9;100;99.9;0;0.5;29.1;-1.0;
14/06/2019 14:09:16;116;0;320.70;17;-8.69;3.37;1.1;13.00;68986;5133.440;-12823.399;212;500;508.9;100;99.9;0;0.5;29.1;-1.0;
14/06/2019 14:09:36;116;0;331.07;17;-16.20;1.27;1.2;13.20;68988;5133.513;-12823.448;212;500;508.9;100;99.7;0;0.5;29.0;-1.0;
14/06/2019 14:09:56;116;0;314.87;17;-8.19;6.10;1.1;13.30;68988;5133.515;-12823.452;212;500;508.9;100;99.9;0;0.5;29.1;-1.0;
14/06/2019 14:10:16;116;0;302.52;17;-13.44;4.41;1.1;13.40;69007;5133.515;-12823.452;212;500;508.9;100;99.7;0;0.5;29.1;-1.0;
14/06/2019 14:10:36;116;0;323.19;17;-8.17;2.62;1.1;13.50;68991;5133.515;-12823.452;212;500;508.9;100;99.7;0;0.5;29.1;-1.0;
14/06/2019 14:10:56;116;0;333.59;17;-13.95;4.26;1.2;13.50;69002;5133.518;-12823.456;212;500;508.9;100;99.7;0;0.5;29.1;-1.0;
14/06/2019 14:11:16;116;0;322.66;17;-16.53;1.32;1.3;13.60;68995;5133.520;-12823.462;212;500;510.9;100;99.7;0;0.9;29.1;-1.0;
14/06/2019 14:11:36;116;0;316.22;17;-16.96;3.76;1.2;13.60;69012;5133.521;-12823.467;212;500;508.9;100;99.7;0;0.5;29.1;-1.0;
14/06/2019 14:11:56;116;0;324.05;17;-4.97;5.51;1.1;13.70;69018;5133.524;-12823.474;212;500;508.9;100;99.7;0;0.5;29.1;-1.0;
14/06/2019 14:12:34;116;0;329.59;17;-5.43;7.19;1.1;13.70;69022;5133.523;-12823.475;212;500;508.9;100;99.7;0;0.5;29.1;-1.0;
14/06/2019 14:12:54;116;0;310.55;17;-9.13;5.17;1.1;13.80;69023;5133.526;-12823.481;212;500;508.9;100;99.9;0;0.5;29.1;-1.0;
14/06/2019 14:13:16;116;0;327.42;17;-6.47;-0.17;1.1;13.80;69018;5133.526;-12823.481;212;500;510.9;100;99.7;0;0.5;29.1;-1.0;
14/06/2019 14:13:36;116;0;327.92;17;-4.90;4.46;1.1;13.90;69021;5133.530;-12823.489;212;500;508.9;100;99.9;0;0.5;29.1;-1.0;
14/06/2019 14:13:56;116;0;305.08;17;-29.74;5.75;1.2;13.90;69028;5133.531;-12823.491;212;500;508.9;100;99.7;0;0.5;29.1;-1.0;
14/06/2019 14:14:16;116;0;289.20;17;-6.24;-0.23;1.2;14.00;69033;5133.533;-12823.492;212;500;508.9;100;99.7;0;0.5;29.1;-1.0;
14/06/2019 14:14:36;116;0;311.69;17;-23.62;1.26;1.3;14.00;69047;5133.534;-12823.497;212;500;508.9;100;99.7;0;0.5;29.1;-1.0;
14/06/2019 14:14:56;116;0;304.00;17;-5.31;1.72;1.2;14.00;69025;5133.535;-12823.500;212;500;508.9;100;99.7;0;0.5;29.1;-1.0;
14/06/2019 14:15:16;116;0;322.52;17;-13.03;2.24;1.2;14.10;69038;5133.535;-12823.502;212;500;508.9;100;99.9;0;0.5;29.1;-1.0;
14/06/2019 14:15:36;116;0;319.28;17;-13.32;7.94;1.1;14.10;69037;5133.537;-12823.505;212;500;508.9;100;99.7;0;0.5;29.1;-1.0;
14/06/2019 14:15:56;116;0;328.93;17;-6.75;11.24;1.1;14.10;69039;5133.537;-12823.508;212;500;508.9;100;99.7;0;0.5;29.1;-1.0;
14/06/2019 14:16:16;116;0;322.00;17;-8.64;-1.93;1.2;14.20;69037;5133.538;-12823.511;212;500;508.9;100;99.7;0;0.5;29.1;-1.0;
14/06/2019 14:16:36;116;0;316.67;17;-5.42;0.70;1.2;14.20;69048;5133.539;-12823.513;212;500;508.9;100;99.9;0;0.5;29.1;-1.0;
14/06/2019 14:16:56;116;0;321.37;17;-7.31;6.52;1.1;14.20;69054;5133.539;-12823.515;212;500;508.9;100;99.7;0;0.5;29.1;-1.0;
14/06/2019 14:17:16;116;0;328.96;17;-8.74;-0.16;1.1;14.20;69047;5133.541;-12823.522;212;500;508.9;100;99.7;0;0.5;29.1;-1.0;
14/06/2019 14:17:36;116;0;309.21;17;-8.02;2.67;1.1;14.20;69054;5133.545;-12823.525;212;500;508.9;100;99.7;0;0.5;29.1;-1.0;
14/06/2019 14:17:56;116;0;314.76;17;-10.33;2.74;1.2;14.30;69050;5133.547;-12823.526;212;500;508.9;100;99.7;0;0.5;29.1;-1.0;
14/06/2019 14:18:16;116;0;313.87;17;-9.68;4.12;1.2;14.30;69059;5133.548;-12823.531;212;500;508.9;100;99.7;0;0.5;29.1;-1.0;
14/06/2019 14:18:36;116;0;297.07;17;-8.16;1.26;1.2;14.30;69058;5133.550;-12823.534;212;500;508.9;100;99.7;0;0.5;29.1;-1.0;
14/06/2019 14:18:56;116;0;308.42;17;-7.47;1.86;1.1;14.30;69057;5133.551;-12823.536;212;500;508.9;100;99.7;0;0.5;29.1;-1.0;
14/06/2019 14:19:16;116;0;310.36;17;-4.51;9.27;1.1;14.30;69050;5133.552;-12823.541;212;500;508.9;100;99.7;0;0.5;29.1;-1.0;
14/06/2019 14:19:36;116;0;330.96;17;-7.41;-0.07;1.2;14.40;69061;5133.555;-12823.546;212;500;508.9;100;99.7;0;0.5;29.1;-1.0;
14/06/2019 14:20:14;116;0;325.53;17;-7.63;-2.15;1.1;14.40;69060;5133.555;-12823.545;212;500;508.9;100;99.7;0;0.5;29.1;-1.0;
14/06/2019 14:20:34;116;0;336.25;17;-6.45;-0.92;1.2;14.40;69067;5133.559;-12823.553;212;500;508.9;100;99.9;0;0.5;29.1;-1.0;
14/06/2019 14:20:54;116;0;321.94;17;-40.18;3.15;1.5;14.50;69067;5133.560;-12823.556;212;500;506.9;100;99.9;0;0.5;29.1;-1.0;
14/06/2019 14:21:14;116;0;306.98;17;-23.25;1.35;1.2;14.50;69070;5133.560;-12823.557;212;500;508.9;100;99.7;0;0.5;29.1;-1.0;
14/06/2019 14:21:34;116;0;337.10;17;-19.01;5.49;1.2;14.50;69077;5133.561;-12823.560;212;500;508.9;100;99.9;0;0.5;29.1;-1.0;
14/06/2019 14:21:54;116;0;346.74;17;-4.49;2.98;1.1;14.60;69088;5133.562;-12823.562;212;500;508.9;100;99.7;0;0.5;29.1;-1.0;
14/06/2019 14:22:14;116;0;327.89;17;-16.66;6.85;1.2;14.60;69074;5133.565;-12823.565;212;500;508.9;100;99.9;0;0.5;29.1;-1.0;
14/06/2019 14:22:34;116;0;325.88;17;-34.15;15.91;1.4;14.60;69076;5133.565;-12823.568;212;500;506.9;100;99.9;0;0.5;29.1;-1.0;
14/06/2019 14:22:54;116;0;318.03;17;-25.40;9.00;1.2;14.60;69076;5133.567;-12823.570;212;500;508.9;100;99.9;0;0.5;29.1;-1.0;
14/06/2019 14:23:14;116;0;317.66;17;-11.42;7.32;1.2;14.60;69083;5133.567;-12823.571;212;500;508.9;100;99.7;0;0.5;29.1;-1.0;
14/06/2019 14:23:34;116;0;317.66;17;-7.25;0.04;1.1;14.60;69085;5133.569;-12823.576;212;500;508.9;100;99.9;0;0.5;29.1;-1.0;
14/06/2019 14:23:54;116;0;332.60;17;-25.79;7.40;1.4;14.70;69079;5133.571;-12823.578;212;500;508.9;100;99.9;0;0.5;29.1;-1.0;
14/06/2019 14:24:14;116;0;324.72;17;-3.29;10.39;1.1;14.70;69083;5133.571;-12823.580;212;500;508.9;100;99.9;0;0.5;29.1;-1.0;
14/06/2019 14:24:34;116;0;327.50;17;-26.02;1.69;1.2;14.70;69080;5133.573;-12823.582;212;500;510.9;100;99.7;0;0.5;29.1;-1.0;
14/06/2019 14:24:54;116;0;333.33;17;-5.07;9.79;1.1;14.70;69093;5133.573;-12823.585;212;500;508.9;100;99.7;0;0.5;29.1;-1.0;
14/06/2019 14:25:14;116;0;321.11;17;-22.72;3.68;1.3;14.70;69089;5133.578;-12823.590;212;500;508.9;100;99.9;0;0.5;29.1;-1.0;
14/06/2019 14:25:52;116;0;323.13;17;-16.40;2.55;1.1;14.70;69091;5133.577;-12823.589;212;500;508.9;100;99.9;0;0.5;29.1;-1.0;
14/06/2019 14:26:12;116;0;324.40;17;-10.87;8.42;1.3;14.70;69093;5133.582;-12823.595;212;500;508.9;100;99.7;0;0.5;29.1;-1.0;
14/06/2019 14:26:34;116;0;307.81;17;-7.39;4.99;1.2;14.70;69098;5133.583;-12823.600;212;500;508.9;100;99.7;0;0.5;29.1;-1.0;
14/06/2019 14:26:54;116;0;318.11;17;-10.39;-3.99;1.2;14.80;69090;5133.584;-12823.599;212;500;508.9;100;99.7;0;0.5;29.1;-1.0;
14/06/2019 14:27:14;116;0;313.61;17;-11.90;4.25;1.1;14.80;69094;5133.585;-12823.601;212;500;508.9;100;99.9;0;0.5;29.1;-1.0;
14/06/2019 14:27:34;116;0;331.52;17;-49.24;1.09;1.8;14.80;69101;5133.587;-12823.606;212;500;506.9;100;99.9;0;0.5;29.1;-1.0;
14/06/2019 14:27:54;116;0;334.58;17;-3.71;0.54;1.1;14.90;69100;5133.589;-12823.607;212;500;508.9;100;99.7;0;0.5;29.1;-1.0;
14/06/2019 14:28:14;116;0;322.18;17;-15.28;2.13;1.2;14.90;69098;5133.589;-12823.609;212;500;508.9;100;99.7;0;0.5;29.1;-1.0;
14/06/2019 14:28:34;116;0;314.41;17;-10.07;5.09;1.1;14.90;69095;5133.591;-12823.611;212;500;508.9;100;99.7;0;0.5;29.1;-1.0;
14/06/2019 14:28:54;116;0;324.62;17;-7.07;-0.39;1.2;14.90;69100;5133.591;-12823.609;212;500;510.9;100;99.7;0;0.5;29.1;-1.0;
14/06/2019 14:29:14;116;0;320.93;17;-7.89;5.77;1.1;14.90;69107;5133.593;-12823.612;212;500;508.9;100;99.7;0;0.5;29.1;-1.0;
14/06/2019 14:29:34;116;0;338.05;17;-8.86;4.30;1.1;14.90;69096;5133.595;-12823.617;212;500;508.9;100;99.9;0;0.5;29.1;-1.0;
14/06/2019 14:29:54;116;0;358.60;17;-7.24;0.14;1.1;14.90;69106;5133.595;-12823.619;212;500;508.9;100;99.7;0;0.5;29.1;-1.0;
14/06/2019 14:30:14;116;0;326.35;17;-7.55;7.22;1.2;14.90;69104;5133.597;-12823.620;212;500;508.9;100;99.7;0;0.5;29.1;-1.0;
14/06/2019 14:30:34;116;0;339.44;17;-6.07;2.17;1.1;14.90;69112;5133.599;-12823.621;212;500;508.9;100;99.7;0;0.5;29.1;-1.0;
14/06/2019 14:30:54;116;0;332.92;17;-30.64;5.08;1.5;14.90;69102;5133.600;-12823.624;212;500;508.9;100;99.9;0;0.5;29.1;-1.0;
14/06/2019 14:31:14;116;0;324.67;17;-20.63;8.12;1.3;15.00;69113;5133.602;-12823.625;212;500;508.9;100;99.9;0;0.5;29.1;-1.0;
14/06/2019 14:31:34;116;0;315.95;17;-21.80;5.82;1.2;15.00;69106;5133.603;-12823.626;212;500;508.9;100;99.7;0;0.5;29.1;-1.0;
14/06/2019 14:31:54;116;0;310.42;17;-5.44;2.09;1.1;15.00;69122;5133.604;-12823.628;212;500;508.9;100;99.9;0;0.5;29.1;-1.0;
14/06/2019 14:32:14;116;0;318.32;17;-4.48;5.52;1.2;15.00;69097;5133.605;-12823.629;212;500;508.9;100;99.9;0;0.5;29.0;-1.0;
14/06/2019 14:32:34;116;0;314.21;17;-7.17;-0.19;1.1;15.00;69111;5133.609;-12823.636;212;500;506.9;100;99.9;0;0.5;29.1;-1.0;
14/06/2019 14:33:12;116;0;329.60;17;-36.02;0.27;1.6;15.00;69114;5133.609;-12823.639;212;500;508.9;100;99.9;0;0.5;29.1;-1.0;
14/06/2019 14:33:32;116;0;324.17;17;-6.50;-3.62;1.2;15.00;69120;5133.611;-12823.639;212;500;506.9;100;99.7;0;0.5;29.1;-1.0;
14/06/2019 14:33:52;116;0;333.41;17;-7.22;2.58;1.1;15.00;69125;5133.612;-12823.639;212;500;508.9;100;99.9;0;0.5;29.1;-1.0;
14/06/2019 14:34:16;116;0;321.62;17;-15.67;0.47;1.2;15.00;69122;5133.612;-12823.638;212;500;508.9;100;99.9;0;0.5;29.1;-1.0;
14/06/2019 14:34:36;116;0;322.90;17;-34.95;4.46;1.5;15.10;69120;5133.615;-12823.640;212;500;506.9;100;99.9;0;0.5;29.1;-1.0;
14/06/2019 14:34:56;116;0;306.91;17;-21.44;5.53;1.3;15.10;69124;5133.615;-12823.641;212;500;508.9;100;99.9;0;0.5;29.0;-1.0;
14/06/2019 14:35:16;116;0;316.91;17;-4.54;4.32;1.1;15.10;69127;5133.616;-12823.640;212;500;508.9;100;99.7;0;0.5;29.1;-1.0;
14/06/2019 14:35:36;116;0;342.01;17;-6.28;2.65;1.2;15.10;69126;5133.618;-12823.644;212;500;508.9;100;99.9;0;0.5;29.1;-1.0;
14/06/2019 14:35:56;116;0;332.50;17;-9.08;6.04;1.2;15.20;69129;5133.619;-12823.645;212;500;508.9;100;99.7;0;0.5;29.1;-1.0;
14/06/2019 14:36:16;116;0;316.70;17;-8.86;7.02;1.1;15.20;69121;5133.620;-12823.646;212;500;508.9;100;99.7;0;0.5;29.1;-1.0;
14/06/2019 14:36:36;116;0;333.85;17;-19.66;5.69;1.3;15.20;69124;5133.622;-12823.648;212;500;508.9;100;99.7;0;0.5;29.1;-1.0;
14/06/2019 14:36:56;116;0;324.39;17;-18.93;4.01;1.2;15.20;69132;5133.622;-12823.649;212;500;508.9;100;99.9;0;0.5;29.1;-1.0;
14/06/2019 14:37:16;116;0;336.92;17;-9.10;6.45;1.1;15.20;69132;5133.622;-12823.650;212;500;508.9;100;99.7;0;0.5;29.1;-1.0;
14/06/2019 14:37:36;116;0;316.80;17;-11.81;4.35;1.2;15.20;69134;5133.624;-12823.652;212;500;508.9;100;99.7;0;0.5;29.1;-1.0;
14/06/2019 14:37:56;116;0;311.63;17;-30.02;6.06;1.4;15.20;69131;5133.627;-12823.654;212;500;506.9;100;99.9;0;0.5;29.1;-1.0;
14/06/2019 14:38:16;116;0;304.92;17;-6.44;3.34;1.1;15.20;69136;5133.629;-12823.657;212;500;508.9;100;99.7;0;0.5;29.1;-1.0;
14/06/2019 14:38:54;116;0;309.65;17;-11.26;-0.82;1.2;15.20;69126;5133.629;-12823.656;212;500;508.9;100;99.9;0;0.5;29.1;-1.0;
14/06/2019 14:39:14;116;0;312.84;17;-8.65;-0.18;1.2;15.20;69135;5133.633;-12823.664;212;500;508.9;100;99.7;0;0.5;29.1;-1.0;
14/06/2019 14:39:34;116;0;337.85;17;-8.94;-1.34;1.2;15.20;69133;5133.634;-12823.663;212;500;508.9;100;99.7;0;0.5;29.1;-1.0;
14/06/2019 14:39:54;116;0;317.37;17;-13.47;2.82;1.1;15.20;69133;5133.636;-12823.666;212;500;508.9;100;99.7;0;0.5;29.1;-1.0;
14/06/2019 14:40:14;116;0;307.47;17;-6.43;-3.88;1.1;15.20;69137;5133.637;-12823.669;212;500;508.9;100;99.7;0;0.5;29.1;-1.0;
14/06/2019 14:40:34;116;0;338.91;17;-30.18;5.04;1.3;15.20;69133;5133.637;-12823.670;212;500;506.9;100;99.9;0;0.5;29.1;-1.0;
14/06/2019 14:40:54;116;0;332.32;17;-30.19;3.94;1.2;15.30;69140;5133.638;-12823.671;212;500;506.9;100;99.9;0;0.5;29.1;-1.0;
14/06/2019 14:41:14;116;0;306.40;17;-8.85;0.71;1.1;15.30;69136;5133.639;-12823.672;212;500;508.9;100;99.9;0;0.5;29.1;-1.0;
14/06/2019 14:41:34;116;0;311.76;17;-11.23;4.06;1.1;15.30;69138;5133.641;-12823.674;212;500;508.9;100;99.7;0;0.5;29.1;-1.0;
14/06/2019 14:41:54;116;0;319.19;17;-6.01;7.60;1.2;15.30;69141;5133.643;-12823.677;212;500;508.9;100;99.7;0;0.5;29.1;-1.0;
14/06/2019 14:42:14;116;0;328.13;17;-4.97;-0.29;1.2;15.30;69145;5133.646;-12823.679;212;500;508.9;100;99.7;0;0.5;29.1;-1.0;
14/06/2019 14:42:34;116;0;330.38;17;-9.51;4.67;1.2;15.30;69143;5133.648;-12823.681;212;500;508.9;100;99.9;0;0.5;29.1;-1.0;
14/06/2019 14:42:54;116;0;344.02;17;-12.30;3.18;1.1;15.30;69146;5133.647;-12823.682;212;500;508.9;100;99.7;0;0.5;29.1;-1.0;
14/06/2019 14:43:14;116;0;307.25;17;-8.36;9.19;1.1;15.40;69145;5133.650;-12823.684;212;500;508.9;100;99.7;0;0.5;29.1;-1.0;
14/06/2019 14:43:37;116;0;302.61;17;-5.99;-3.79;1.2;15.40;69143;5133.651;-12823.685;212;500;508.9;100;99.7;0;0.5;29.2;-1.0;
14/06/2019 14:43:57;116;0;320.85;17;-8.42;2.10;1.1;15.40;69153;5133.656;-12823.690;212;500;508.9;100;99.9;0;0.5;29.1;-1.0;
14/06/2019 14:44:52;116;0;346.83;17;-26.97;8.26;1.3;15.40;69136;5133.657;-12823.691;212;500;508.9;100;99.9;0;0.5;29.1;-1.0;
14/06/2019 14:45:14;116;0;314.93;17;-23.41;2.14;1.2;15.40;69148;5133.659;-12823.692;212;500;506.9;100;99.9;0;0.5;29.1;-1.0;
14/06/2019 14:45:34;116;0;321.70;17;-31.40;6.28;1.2;15.40;69137;5133.658;-12823.693;212;500;508.9;100;99.7;0;0.5;29.1;-1.0;
14/06/2019 14:45:54;116;0;322.38;17;-4.31;2.01;1.1;15.50;69155;5133.659;-12823.692;212;500;508.9;100;99.7;0;0.5;29.1;-1.0;
14/06/2019 14:46:14;116;0;307.95;17;-9.15;2.63;1.1;15.50;69146;5133.664;-12823.698;212;500;506.9;100;99.7;0;0.5;29.1;-1.0;
14/06/2019 14:46:36;116;0;322.56;17;-13.58;3.86;1.2;15.50;69150;5133.664;-12823.699;212;500;508.9;100;99.7;0;0.5;29.1;-1.0;
14/06/2019 14:46:56;116;0;315.68;17;-10.78;3.73;1.2;15.50;69143;5133.665;-12823.699;212;500;508.9;100;99.7;0;0.5;29.1;-1.0;
14/06/2019 14:47:16;116;0;319.69;17;-21.85;1.42;1.3;15.50;69151;5133.666;-12823.703;212;500;508.9;100;99.9;0;0.5;29.1;-1.0;
14/06/2019 14:47:36;116;0;315.55;17;-3.64;1.71;1.1;15.50;69143;5133.667;-12823.704;212;500;508.9;100;99.7;0;0.5;29.1;-1.0;
14/06/2019 14:47:56;116;0;316.95;17;-5.54;3.46;1.1;15.50;69152;5133.668;-12823.707;212;500;508.9;100;99.7;0;0.5;29.0;-1.0;
14/06/2019 14:48:16;116;0;319.80;17;-13.27;0.66;1.1;15.50;69157;5133.670;-12823.710;212;500;508.9;100;99.7;0;0.5;29.1;-1.0;
14/06/2019 14:48:36;116;0;315.53;17;-13.14;7.15;1.2;15.50;69146;5133.670;-12823.711;212;500;508.9;100;99.7;0;0.5;29.1;-1.0;
14/06/2019 14:48:56;116;0;318.96;17;-4.38;0.50;1.1;15.50;69146;5133.673;-12823.712;212;500;508.9;100;99.9;0;0.5;29.1;-1.0;
14/06/2019 14:49:16;116;0;319.94;17;-11.36;17.65;1.1;15.50;69146;5133.676;-12823.715;212;500;508.9;100;99.7;0;0.5;29.1;-1.0;
14/06/2019 14:49:36;116;0;319.89;17;-7.37;-3.54;1.1;15.50;69152;5133.677;-12823.716;212;500;508.9;100;99.7;0;0.5;29.1;-1.0;
14/06/2019 14:49:58;116;0;321.44;17;-19.79;4.14;1.2;15.50;69160;5133.678;-12823.719;212;500;506.9;100;99.9;0;0.5;29.1;-1.0;
14/06/2019 14:50:18;116;0;328.04;17;-18.77;-1.19;1.2;15.50;69152;5133.679;-12823.719;212;500;506.9;100;99.7;0;0.5;29.1;-1.0;
14/06/2019 14:50:38;116;0;345.80;17;-13.67;8.69;1.2;15.50;69148;5133.680;-12823.720;212;500;508.9;100;99.7;0;0.5;29.0;-1.0;
14/06/2019 14:50:58;116;0;300.07;17;-24.05;0.92;1.3;15.50;69150;5133.683;-12823.721;212;500;508.9;100;99.9;0;0.5;29.1;-1.0;
14/06/2019 14:51:18;116;0;312.60;17;-31.08;7.83;1.3;15.50;69157;5133.686;-12823.724;212;500;506.9;100;100.0;0;0.5;29.1;-1.0;
14/06/2019 14:51:38;116;0;325.77;17;-24.21;5.85;1.4;15.50;69152;5133.685;-12823.724;212;500;508.9;100;99.7;0;0.5;29.1;-1.0;
14/06/2019 14:51:58;116;0;333.37;17;-6.59;3.53;1.2;15.50;69162;5133.686;-12823.723;212;500;508.9;100;99.9;0;0.9;29.1;-1.0;
14/06/2019 14:52:18;116;0;332.21;17;-6.00;0.95;1.1;15.50;69148;5133.686;-12823.723;212;500;506.9;100;99.7;0;0.5;29.1;-1.0;
14/06/2019 14:52:42;116;0;352.06;17;-9.47;3.57;1.1;15.50;69156;5133.689;-12823.726;212;500;508.9;100;99.9;0;0.5;29.1;-1.0;
14/06/2019 14:53:03;116;0;324.59;17;-5.89;2.74;1.1;15.50;69155;5133.693;-12823.731;212;500;508.9;100;99.7;0;0.5;29.1;-1.0;
14/06/2019 14:53:56;116;0;308.56;17;-8.29;3.34;1.1;15.60;69159;5133.693;-12823.731;212;500;508.9;100;99.9;0;0.5;29.1;-1.0;
14/06/2019 14:54:16;116;0;328.36;17;-9.44;3.08;1.2;15.60;69168;5133.695;-12823.734;212;500;508.9;100;99.7;0;0.5;29.1;-1.0;
14/06/2019 14:54:36;116;0;323.59;17;-50.66;-2.41;1.8;15.60;69159;5133.697;-12823.738;212;500;506.9;100;99.9;0;0.5;29.1;-1.0;
14/06/2019 14:54:56;116;0;301.45;17;-5.84;-2.47;1.1;15.60;69159;5133.698;-12823.737;212;500;508.9;100;99.7;0;0.5;29.1;-1.0;
14/06/2019 14:55:16;116;0;335.49;17;-18.25;5.64;1.3;15.60;69156;5133.699;-12823.736;212;500;508.9;100;99.9;0;0.5;29.1;-1.0;
14/06/2019 14:55:36;116;0;304.21;17;-4.67;5.23;1.1;15.60;69159;5133.700;-12823.737;212;500;508.9;100;99.7;0;0.5;29.1;-1.0;
14/06/2019 14:55:56;116;0;319.98;17;-3.35;-3.36;1.2;15.60;69167;5133.701;-12823.738;212;500;508.9;100;99.7;0;0.5;29.1;-1.0;
14/06/2019 14:56:16;116;0;335.47;17;-6.97;7.52;1.1;15.60;69166;5133.704;-12823.741;212;500;508.9;100;99.9;0;0.5;29.1;-1.0;
14/06/2019 14:56:36;116;0;308.81;17;-19.98;2.89;1.2;15.60;69160;5133.704;-12823.742;212;500;506.9;100;99.7;0;0.5;29.1;-1.0;
14/06/2019 14:56:56;116;0;304.59;17;-8.87;1.71;1.2;15.60;69166;5133.706;-12823.744;212;500;508.9;100;99.9;0;0.5;29.1;-1.0;
14/06/2019 14:57:16;116;0;303.86;17;-26.96;5.01;1.3;15.60;69160;5133.708;-12823.746;212;500;508.9;100;99.9;0;0.5;29.1;-1.0;
14/06/2019 14:57:36;116;0;321.42;17;-27.00;7.06;1.2;15.60;69166;5133.710;-12823.749;212;500;508.9;100;99.9;0;0.5;29.0;-1.0;
14/06/2019 14:57:56;116;0;297.01;17;-11.79;-0.54;1.2;15.60;69170;5133.711;-12823.750;212;500;508.9;100;99.9;0;0.5;29.1;-1.0;
14/06/2019 14:58:16;116;0;335.45;17;-10.07;-0.76;1.2;15.60;69166;5133.712;-12823.750;212;500;508.9;100;99.9;0;0.5;29.1;-1.0;
14/06/2019 14:58:36;116;0;331.91;17;-11.21;5.07;1.1;15.60;69172;5133.717;-12823.751;212;500;508.9;100;99.9;0;0.5;29.1;-1.0;
14/06/2019 14:58:56;116;0;338.90;17;-15.45;-1.76;1.2;15.60;69171;5133.717;-12823.753;212;500;508.9;100;99.7;0;0.5;29.1;-1.0;
14/06/2019 14:59:16;116;0;317.50;17;-6.90;1.51;1.2;15.60;69162;5133.720;-12823.753;212;500;506.9;100;99.7;0;0.5;29.1;-1.0;
14/06/2019 14:59:36;116;0;338.92;17;-6.32;5.57;1.1;15.60;69175;5133.721;-12823.757;212;500;506.9;100;99.7;0;0.5;29.1;-1.0;
14/06/2019 14:59:56;116;0;329.10;17;-10.02;5.38;1.1;15.60;69171;5133.723;-12823.757;212;500;508.9;100;99.7;0;0.5;29.1;-1.0;
14/06/2019 15:00:16;116;0;303.88;17;-8.08;-1.90;1.1;15.60;69161;5133.726;-12823.760;212;500;508.9;100;99.7;0;0.5;29.1;-1.0;
14/06/2019 15:00:39;116;0;328.35;17;-5.43;5.77;1.1;15.60;69171;5133.726;-12823.760;212;500;506.9;100;99.9;0;0.5;29.1;-1.0;
14/06/2019 15:00:59;116;0;341.88;17;-5.92;0.03;1.1;15.60;69165;5133.729;-12823.762;212;500;506.9;100;99.7;0;0.5;29.1;-1.0;
14/06/2019 15:01:22;116;0;342.28;17;-6.63;3.77;1.1;15.60;69175;5133.732;-12823.763;212;500;508.9;100;99.9;0;0.5;29.1;-1.0;
14/06/2019 15:01:42;116;0;341.80;17;-10.64;4.43;1.1;15.60;69168;5133.732;-12823.763;212;500;508.9;100;99.9;0;0.5;29.1;-1.0;
14/06/2019 15:02:39;116;0;306.62;17;-15.05;-1.16;1.2;15.60;69169;5133.735;-12823.769;212;500;508.9;100;99.7;0;0.5;29.1;-1.0;
14/06/2019 15:02:59;116;0;337.33;17;-18.94;1.13;1.2;15.60;69169;5133.740;-12823.767;212;500;508.9;100;99.7;0;0.5;29.1;-1.0;
14/06/2019 15:03:22;116;0;327.75;17;-11.12;9.39;1.2;15.60;69175;5133.742;-12823.768;212;500;508.9;100;99.7;0;0.5;29.1;-1.0;
14/06/2019 15:03:42;116;0;334.85;17;-6.59;5.20;1.1;15.60;69168;5133.743;-12823.770;212;500;508.9;100;99.7;0;0.5;29.1;-1.0;
14/06/2019 15:04:02;116;0;314.48;17;-7.63;5.73;1.1;15.70;69179;5133.747;-12823.773;212;500;508.9;100;99.9;0;0.5;29.1;-1.0;
14/06/2019 15:04:34;116;0;325.31;17;-4.37;0.65;1.2;15.70;69178;5133.748;-12823.774;212;500;508.9;100;99.7;0;0.5;29.1;-1.0;
14/06/2019 15:04:54;116;0;316.55;17;-9.96;6.78;1.1;15.70;69173;5133.748;-12823.775;212;500;508.9;100;99.9;0;0.5;29.1;-1.0;
14/06/2019 15:05:14;116;0;336.53;17;-9.80;-0.09;1.2;15.70;69182;5133.748;-12823.777;212;500;508.9;100;99.9;0;0.5;29.1;-1.0;
14/06/2019 15:05:34;116;0;339.47;17;-7.26;4.14;1.1;15.70;69179;5133.751;-12823.779;212;500;506.9;100;99.9;0;0.5;29.1;-1.0;
14/06/2019 15:05:54;116;0;332.04;17;-8.11;4.22;1.1;15.70;69184;5133.754;-12823.779;212;500;508.9;100;99.7;0;0.5;29.1;-1.0;
14/06/2019 15:06:14;116;0;331.53;17;-8.35;9.73;1.1;15.70;69184;5133.756;-12823.779;212;500;506.9;100;99.7;0;0.5;29.1;-1.0;
14/06/2019 15:06:34;116;0;326.70;17;-10.54;1.13;1.1;15.70;69176;5133.759;-12823.780;212;500;508.9;100;99.7;0;0.5;29.1;-1.0;
14/06/2019 15:06:54;116;0;278.50;17;-7.77;4.70;1.2;15.60;69182;5133.760;-12823.780;212;500;506.9;100;99.7;0;0.5;29.1;-1.0;
14/06/2019 15:07:14;116;0;315.35;17;-6.81;0.11;1.1;15.60;69175;5133.760;-12823.783;212;500;506.9;100;99.7;0;0.5;29.1;-1.0;
14/06/2019 15:07:34;110;0;300.40;17;-6.80;0.85;1.2;15.60;69177;5133.760;-12823.783;212;-300;405.9;100;99.7;0;0.5;29.1;-1.0;
14/06/2019 15:07:44;110;0;325.55;17;-8.07;-7.09;1.1;15.60;69430;5133.760;-12823.783;212;-300;267.3;100;99.7;0;0.5;29.0;-1.0;
14/06/2019 15:07:54;110;0;331.37;17;-8.17;2.92;1.1;15.60;69607;5133.760;-12823.783;212;-300;126.7;100;99.9;0;0.5;29.0;-1.0;
14/06/2019 15:08:04;110;0;307.52;17;-17.47;-1.33;1.1;15.60;69831;5133.760;-12823.783;212;-300;-17.8;100;99.9;0;0.5;29.0;-1.0;
14/06/2019 15:08:14;110;0;330.24;17;-30.84;5.08;1.5;15.60;70062;5133.760;-12823.783;212;-300;-188.1;98;97.9;0;0.5;29.1;-1.0;
14/06/2019 15:08:24;110;0;339.72;17;-58.52;4.06;3.1;15.60;70354;5133.760;-12823.783;212;-300;-299.0;83;82.9;0;0.5;29.0;-1.0;
14/06/2019 15:08:34;110;0;325.91;17;-50.55;3.48;6.2;15.60;70519;5133.760;-12823.783;212;-300;-301.0;73;72.9;0;0.5;29.1;-1.0;
14/06/2019 15:08:44;100;0;325.29;17;-38.47;3.79;9.7;15.50;70499;5133.760;-12823.783;212;-300;-303.0;73;72.9;0;0.5;29.1;-1.0;
14/06/2019 15:09:04;100;0;323.96;17;-29.05;4.20;15.2;15.50;70509;5133.760;-12823.783;212;-300;-299.0;73;72.9;45;45.1;29.1;0.0;
14/06/2019 15:09:24;100;0;302.64;17;-22.60;25.30;20.1;15.40;70500;5133.760;-12823.783;212;-300;-297.0;73;72.9;43;42.9;29.1;0.0;
14/06/2019 15:09:44;100;0;282.77;17;-21.96;23.67;23.9;15.40;70483;5133.760;-12823.783;212;-300;-297.0;73;72.7;29;28.9;29.1;0.0;
14/06/2019 15:10:04;100;0;272.02;17;-23.69;16.34;27.4;15.30;70419;5133.760;-12823.783;212;-300;-297.0;73;72.7;25;24.8;29.1;0.0;
14/06/2019 15:10:24;100;0;249.57;17;-23.15;14.69;30.9;15.20;70359;5133.760;-12823.783;212;-300;-297.0;73;72.9;14;14.0;29.1;0.0;
14/06/2019 15:10:44;100;0;229.36;17;-23.36;9.20;34.3;15.10;70318;5133.760;-12823.783;212;-300;-295.0;73;72.7;8;8.1;29.1;0.0;
14/06/2019 15:11:04;100;0;211.05;17;-24.02;6.60;37.7;15.00;70273;5133.760;-12823.783;212;-300;-297.0;73;72.7;4;4.1;29.1;0.0;
14/06/2019 15:11:24;100;0;204.44;17;-24.37;4.79;41.1;14.90;70235;5133.760;-12823.783;212;-300;-297.0;73;72.7;7;7.7;29.1;0.0;
14/06/2019 15:11:44;100;0;196.56;17;-23.54;6.89;44.5;14.80;70205;5133.760;-12823.783;212;-300;-295.0;73;72.7;7;8.1;29.1;0.0;
14/06/2019 15:12:04;100;0;184.39;17;-23.81;6.98;47.8;14.70;70188;5133.760;-12823.783;212;-300;-295.0;73;72.7;7;8.1;29.1;0.0;
14/06/2019 15:12:24;100;0;175.61;17;-23.79;6.99;51.2;14.60;70157;5133.760;-12823.783;212;-300;-297.0;73;72.7;2;1.8;29.1;0.0;
14/06/2019 15:12:44;100;0;164.01;17;-23.32;3.71;54.7;14.50;70141;5133.760;-12823.783;212;-300;-297.0;73;72.7;0;0.0;29.1;0.0;
14/06/2019 15:13:04;100;0;164.75;17;-23.68;3.21;58.2;14.40;70110;5133.760;-12823.783;212;-300;-295.0;73;72.7;2;1.8;29.1;0.0;
14/06/2019 15:13:24;100;0;156.30;17;-22.46;4.38;61.6;14.30;70098;5133.760;-12823.783;212;-300;-295.0;73;72.7;0;0.0;29.1;0.0;
14/06/2019 15:13:44;100;0;150.14;17;-23.05;3.10;64.8;14.20;70078;5133.760;-12823.783;212;-300;-297.0;73;72.7;-1;-1.4;29.1;0.0;
14/06/2019 15:14:04;100;0;138.24;17;-22.56;2.55;68.1;14.10;70061;5133.760;-12823.783;212;-300;-293.1;73;72.7;-8;-8.6;29.1;0.0;
14/06/2019 15:14:24;100;0;129.95;17;-22.48;-0.78;71.4;14.00;70051;5133.760;-12823.783;212;-300;-295.0;73;72.7;-13;-13.1;29.1;0.0;
14/06/2019 15:14:44;100;0;122.51;17;-22.90;-2.96;74.5;14.00;70023;5133.760;-12823.783;212;-300;-295.0;73;72.7;-16;-16.2;29.1;0.0;
14/06/2019 15:15:04;100;0;125.14;17;-21.93;-4.40;77.5;13.90;70011;5133.760;-12823.783;212;-300;-295.0;73;72.7;-14;-13.5;29.1;0.0;
14/06/2019 15:15:24;100;0;129.91;17;-21.98;-2.77;80.2;13.80;70012;5133.760;-12823.783;212;-300;-293.1;73;72.7;-13;-13.1;29.1;0.0;
14/06/2019 15:15:44;100;0;120.45;17;-22.21;-2.68;83.1;13.70;69992;5133.760;-12823.783;212;-300;-295.0;73;72.7;-22;-22.1;29.1;0.0;
14/06/2019 15:16:04;100;0;117.34;17;-21.80;-6.93;85.9;13.60;69981;5133.760;-12823.783;212;-300;-295.0;73;72.7;-25;-24.8;29.1;0.0;
14/06/2019 15:16:24;100;0;119.27;17;-21.65;-8.31;88.7;13.60;69959;5133.760;-12823.783;212;-300;-295.0;73;72.7;-26;-26.2;29.1;0.0;
14/06/2019 15:16:44;100;0;125.45;17;-21.78;-8.90;91.3;13.50;69948;5133.760;-12823.783;212;-300;-297.0;73;72.7;-25;-24.8;29.2;0.0;
14/06/2019 15:17:04;100;0;125.66;17;-21.37;-7.72;94.1;13.40;69943;5133.760;-12823.783;212;-300;-295.0;73;72.7;-27;-27.1;29.1;0.0;
14/06/2019 15:17:24;100;0;130.64;17;-21.19;-9.34;96.6;13.30;69932;5133.760;-12823.783;212;-300;-295.0;73;72.7;-25;-24.8;29.1;0.0;
14/06/2019 15:17:44;100;0;128.40;17;-21.09;-7.51;99.2;13.30;69928;5133.760;-12823.783;212;-300;-293.1;73;72.6;-27;-27.5;29.1;0.0;
14/06/2019 15:18:04;100;0;126.14;17;-21.08;-9.44;101.8;13.20;69916;5133.760;-12823.783;212;-300;-295.0;73;72.7;-29;-28.9;29.1;0.0;
14/06/2019 15:18:24;100;0;125.83;17;-21.23;-10.33;104.2;13.10;69901;5133.760;-12823.783;212;-300;-293.1;73;72.7;-29;-29.3;29.1;0.0;
14/06/2019 15:18:45;100;0;129.59;17;-20.95;-10.33;106.7;13.10;69898;5133.760;-12823.783;212;-300;-293.1;73;72.7;-26;-25.7;29.1;0.0;
14/06/2019 15:19:05;100;0;131.44;17;-20.96;-8.31;109.3;13.00;69893;5133.760;-12823.783;212;-300;-293.1;73;72.7;-26;-25.3;29.1;0.0;
14/06/2019 15:19:25;100;0;134.98;17;-20.50;-8.16;111.9;12.90;69879;5133.760;-12823.783;212;-300;-295.0;73;72.6;-25;-24.8;29.1;0.0;
14/06/2019 15:19:45;100;0;130.89;17;-20.71;-8.27;114.4;12.90;69876;5133.760;-12823.783;212;-300;-293.1;73;72.7;-28;-28.0;29.1;0.0;
14/06/2019 15:20:05;100;0;127.98;17;-20.98;-9.92;116.8;12.80;69865;5133.760;-12823.783;212;-300;-293.1;73;72.7;-29;-28.9;29.1;0.0;
14/06/2019 15:20:25;100;0;132.78;17;-20.74;-10.39;119.2;12.70;69850;5133.760;-12823.783;212;-300;-293.1;73;72.7;-26;-26.2;29.1;0.0;
14/06/2019 15:20:45;100;0;132.93;17;-20.85;-8.36;121.6;12.60;69836;5133.760;-12823.783;212;-300;-293.1;73;72.7;-26;-25.3;29.1;0.0;
14/06/2019 15:21:05;100;0;133.89;17;-20.51;-8.40;124.0;12.60;69840;5133.760;-12823.783;212;-300;-295.0;73;72.7;-26;-25.3;29.1;0.0;
14/06/2019 15:21:25;100;0;136.27;17;-20.11;-8.40;126.3;12.50;69834;5133.760;-12823.783;212;-300;-295.0;73;72.7;-25;-24.4;29.1;0.0;
14/06/2019 15:21:45;100;0;140.49;17;-20.15;-7.72;128.6;12.50;69824;5133.760;-12823.783;212;-300;-293.1;73;72.6;-23;-22.6;29.1;0.0;
14/06/2019 15:22:05;100;0;142.16;17;-20.22;-6.83;130.8;12.40;69814;5133.760;-12823.783;212;-300;-293.1;73;72.7;-23;-22.1;29.1;44.4;
14/06/2019 15:22:25;100;0;146.39;17;-20.28;-6.88;133.0;12.30;69810;5133.760;-12823.783;212;-300;-293.1;73;72.7;-22;-22.1;29.1;41.9;
14/06/2019 15:22:45;100;0;150.90;17;-20.27;-6.91;135.1;12.30;69803;5133.760;-12823.783;212;-300;-293.1;73;72.7;-21;-20.8;29.1;39.6;
14/06/2019 15:23:05;100;0;154.69;17;-19.94;-5.95;137.4;12.20;69797;5133.760;-12823.783;212;-300;-295.0;73;72.7;-20;-19.9;29.1;37.5;
14/06/2019 15:23:25;100;0;159.85;17;-19.22;-5.46;139.6;12.20;69787;5133.760;-12823.783;212;-300;-293.1;73;72.7;-18;-18.1;29.1;35.1;
14/06/2019 15:23:45;100;0;164.07;17;-18.84;-4.48;141.6;12.10;69764;5133.760;-12823.783;212;-300;-293.1;73;72.7;-17;-17.1;29.1;33.0;
14/06/2019 15:24:05;100;0;162.86;17;-18.87;-4.46;143.8;12.10;69759;5133.760;-12823.783;212;-300;-293.1;73;72.6;-20;-19.9;29.1;30.9;
14/06/2019 15:24:25;100;0;162.16;17;-18.93;-5.94;145.8;12.00;69739;5133.760;-12823.783;212;-300;-293.1;73;72.7;-20;-20.3;29.1;28.9;
14/06/2019 15:24:45;100;0;161.62;17;-18.80;-5.91;147.9;11.90;69720;5133.760;-12823.783;212;-300;-293.1;73;72.7;-21;-21.2;29.1;26.6;
14/06/2019 15:25:05;100;0;161.74;17;-19.07;-6.77;150.0;11.90;69711;5133.760;-12823.783;212;-300;-293.1;73;72.7;-21;-21.7;29.1;24.5;
14/06/2019 15:25:25;100;0;161.68;17;-19.00;-6.77;152.1;11.80;69707;5133.760;-12823.783;212;-300;-293.1;73;72.7;-21;-21.7;29.1;22.4;
14/06/2019 15:25:45;100;0;161.19;17;-19.02;-6.73;154.2;11.80;69715;5133.760;-12823.783;212;-300;-293.1;73;72.7;-21;-21.7;29.1;20.2;
14/06/2019 15:26:05;100;0;163.58;17;-18.90;-6.78;156.2;11.70;69702;5133.760;-12823.783;212;-300;-293.1;73;72.7;-20;-19.9;29.1;18.2;
14/06/2019 15:26:25;118;0;164.28;17;-19.07;-5.60;158.3;11.60;69692;5133.760;-12823.783;212;150;-277.2;58;57.8;0;0.5;29.1;16.1;
14/06/2019 15:26:35;118;0;135.64;17;1.21;3.96;159.0;11.60;69605;5133.760;-12823.783;212;150;-118.8;58;58.1;0;0.5;28.6;16.1;
14/06/2019 15:26:45;118;0;135.74;17;17.53;3.51;158.8;11.60;69393;5133.760;-12823.783;212;150;35.6;58;58.1;0;0.5;28.6;-1.0;
14/06/2019 15:26:55;118;0;135.50;17;21.27;3.66;158.1;11.50;69136;5133.760;-12823.783;212;150;156.4;58;58.0;0;0.5;28.6;-1.0;
14/06/2019 15:27:05;118;0;167.92;17;22.10;3.63;156.9;11.50;68956;5133.760;-12823.783;212;150;156.4;58;58.1;0;0.5;29.1;-1.0;
14/06/2019 15:27:15;118;0;167.77;17;24.49;3.73;155.4;11.50;68957;5133.760;-12823.783;212;150;156.4;58;58.0;0;0.5;29.1;-1.0;
14/06/2019 15:27:25;117;0;167.98;17;25.26;3.72;153.8;11.50;68954;5133.760;-12823.783;212;150;156.4;58;58.0;0;0.5;29.1;-1.0;
14/06/2019 15:27:45;117;0;167.42;17;25.48;3.86;149.9;11.40;68962;5133.760;-12823.783;212;150;156.4;58;58.0;18;18.5;29.0;-1.0;
14/06/2019 15:28:05;117;0;175.90;17;24.96;12.51;145.6;11.40;68950;5133.760;-12823.783;212;150;156.4;58;58.0;15;14.9;29.0;-1.0;
14/06/2019 15:28:25;117;0;178.78;17;24.99;9.97;141.7;11.30;68945;5133.760;-12823.783;212;150;158.4;58;58.0;15;14.0;29.1;-1.0;
14/06/2019 15:28:45;117;0;176.50;17;25.88;10.20;137.7;11.30;68951;5133.760;-12823.783;212;150;156.4;58;58.1;17;17.1;29.1;-1.0;
14/06/2019 15:29:05;117;0;176.83;17;24.49;11.91;133.8;11.20;68947;5133.760;-12823.783;212;150;156.4;58;58.1;18;18.5;29.1;-1.0;
14/06/2019 15:29:25;117;0;175.77;17;24.61;12.65;130.0;11.10;68968;5133.760;-12823.783;212;150;156.4;58;58.0;18;19.0;29.1;-1.0;
14/06/2019 15:29:45;117;0;177.08;17;24.03;12.66;126.0;11.10;68975;5133.760;-12823.783;212;150;158.4;58;58.0;17;16.7;29.1;-1.0;
14/06/2019 15:30:05;117;0;184.20;17;23.60;11.37;122.3;11.00;68977;5133.760;-12823.783;212;150;156.4;58;58.0;14;14.0;29.1;-1.0;
14/06/2019 15:30:25;117;0;186.35;17;23.49;9.85;118.6;11.00;68975;5133.760;-12823.783;212;150;156.4;58;58.0;14;13.5;29.1;-1.0;
14/06/2019 15:30:45;117;0;193.84;17;23.24;9.80;114.9;11.00;68977;5133.760;-12823.783;212;150;156.4;58;58.0;11;10.8;29.1;-1.0;
14/06/2019 15:31:05;117;0;197.75;17;22.68;8.10;111.4;11.00;68982;5133.760;-12823.783;212;150;156.4;58;58.0;11;10.4;29.1;-1.0;
14/06/2019 15:31:25;117;0;196.57;17;22.94;8.18;108.1;10.90;68987;5133.760;-12823.783;212;150;156.4;58;58.0;11;10.4;29.1;-1.0;
14/06/2019 15:31:45;117;0;195.42;17;22.98;8.14;104.8;10.90;68990;5133.760;-12823.783;212;150;158.4;58;58.0;11;10.4;29.1;-1.0;
14/06/2019 15:32:05;117;0;199.61;17;22.45;8.18;101.5;10.80;68992;5133.760;-12823.783;212;150;156.4;58;58.0;12;12.6;29.1;-1.0;
14/06/2019 15:32:25;117;0;205.13;17;22.01;9.60;98.4;10.80;68999;5133.760;-12823.783;212;150;156.4;58;58.1;9;8.6;29.1;-1.0;
14/06/2019 15:32:45;117;0;206.19;17;22.42;7.06;95.3;10.80;68990;5133.760;-12823.783;212;150;158.4;58;58.0;9;7.7;29.1;-1.0;
14/06/2019 15:33:05;117;0;206.87;17;22.07;7.09;92.0;10.80;68997;5133.760;-12823.783;212;150;156.4;58;58.0;10;9.9;29.1;-1.0;
14/06/2019 15:33:25;117;0;205.24;17;22.32;8.63;89.0;10.70;68993;5133.760;-12823.783;212;150;156.4;58;58.0;10;10.4;29.1;-1.0;
14/06/2019 15:33:45;117;0;212.93;17;21.31;8.58;85.8;10.70;69006;5133.760;-12823.783;212;150;158.4;58;58.0;6;5.9;29.1;-1.0;
14/06/2019 15:34:05;117;0;212.81;17;20.91;5.82;82.9;10.70;68999;5133.760;-12823.783;212;150;156.4;58;58.0;7;7.7;29.1;-1.0;
14/06/2019 15:34:25;117;0;214.84;17;20.97;7.47;80.2;10.70;69006;5133.760;-12823.783;212;150;156.4;58;58.0;6;5.9;29.1;-1.0;
14/06/2019 15:34:45;117;0;219.81;17;20.85;5.86;77.5;10.70;69018;5133.760;-12823.783;212;150;156.4;58;58.0;3;3.2;29.1;-1.0;
14/06/2019 15:35:05;117;0;217.06;17;20.32;4.37;74.6;10.60;69013;5133.760;-12823.783;212;150;158.4;58;58.0;5;5.4;29.1;-1.0;
14/06/2019 15:35:25;117;0;221.89;17;19.46;6.26;72.0;10.60;69011;5133.760;-12823.783;212;150;156.4;58;58.0;2;1.8;29.1;-1.0;
14/06/2019 15:35:45;117;0;223.01;17;19.21;3.99;69.7;10.60;69020;5133.760;-12823.783;212;150;156.4;58;58.0;1;0.9;29.1;-1.0;
14/06/2019 15:36:05;117;0;222.67;17;19.04;3.33;67.5;10.60;69037;5133.760;-12823.783;212;150;156.4;58;58.0;2;1.8;29.1;-1.0;
14/06/2019 15:36:25;117;0;224.66;17;18.58;4.69;65.3;10.60;69033;5133.760;-12823.783;212;150;158.4;58;58.0;0;0.0;29.1;-1.0;
14/06/2019 15:36:45;117;0;226.94;17;18.49;3.02;63.1;10.60;69041;5133.760;-12823.783;212;150;156.4;58;58.0;0;-0.5;29.1;-1.0;
14/06/2019 15:37:05;117;0;228.91;17;18.12;3.01;60.9;10.60;69050;5133.760;-12823.783;212;150;156.4;58;58.0;-1;-0.9;29.1;-1.0;
14/06/2019 15:37:25;117;0;224.89;17;18.38;2.23;58.8;10.50;69036;5133.760;-12823.783;212;150;156.4;58;58.0;0;0.0;29.1;-1.0;
14/06/2019 15:37:45;117;0;217.95;17;18.43;3.70;56.6;10.50;69046;5133.760;-12823.783;212;150;158.4;58;58.0;3;3.2;29.1;-1.0;
14/06/2019 15:38:05;117;0;215.58;17;17.61;5.26;54.3;10.50;69042;5133.760;-12823.783;212;150;156.4;58;58.0;2;1.8;29.1;-1.0;
14/06/2019 15:38:25;117;0;216.85;17;17.22;3.81;52.3;10.50;69045;5133.760;-12823.783;212;150;156.4;58;58.0;0;-0.5;29.1;-1.0;
14/06/2019 15:38:45;117;0;215.10;17;17.00;2.83;50.2;10.50;69057;5133.760;-12823.783;212;150;158.4;58;58.0;0;-0.9;29.1;-1.0;
14/06/2019 15:39:05;117;0;214.52;17;16.96;2.84;48.3;10.50;69059;5133.760;-12823.783;212;150;156.4;58;58.0;0;-0.9;29.1;-1.0;
14/06/2019 15:39:25;117;0;214.56;17;16.91;2.95;46.3;10.50;69073;5133.760;-12823.783;212;150;156.4;58;58.0;-1;-0.9;29.2;-1.0;
14/06/2019 15:39:45;117;0;217.58;17;16.57;2.80;44.4;10.50;69071;5133.760;-12823.783;212;150;156.4;58;58.0;-3;-3.2;29.1;-1.0;
14/06/2019 15:40:05;117;0;214.55;17;16.70;1.38;42.6;10.50;69092;5133.760;-12823.783;212;150;158.4;58;58.0;-2;-1.4;29.1;-1.0;
14/06/2019 15:40:25;117;0;211.78;17;16.58;2.89;40.7;10.50;69078;5133.760;-12823.783;212;150;158.4;58;58.0;-1;-0.9;29.1;-1.0;
14/06/2019 15:40:45;117;0;211.41;17;16.56;2.95;38.9;10.50;69104;5133.760;-12823.783;212;150;156.4;58;58.0;-2;-1.8;29.1;-1.0;
14/06/2019 15:41:05;117;0;209.06;17;16.28;2.00;37.3;10.50;69117;5133.760;-12823.783;212;150;158.4;58;58.0;-2;-2.7;29.1;-1.0;
14/06/2019 15:41:25;117;0;208.05;17;16.39;2.05;35.6;10.50;69118;5133.760;-12823.783;212;150;160.4;58;58.0;-2;-2.7;29.1;-1.0;
14/06/2019 15:41:45;117;0;206.80;17;16.21;1.99;33.7;10.50;69131;5133.760;-12823.783;212;150;158.4;58;58.0;-2;-2.7;29.1;-1.0;
14/06/2019 15:42:05;117;0;208.61;17;15.81;1.99;32.0;10.50;69142;5133.760;-12823.783;212;150;156.4;58;58.0;-4;-4.1;29.1;-1.0;
14/06/2019 15:42:25;117;0;209.83;17;15.58;1.22;30.3;10.50;69155;5133.760;-12823.783;212;150;158.4;58;58.0;-6;-5.9;29.1;-1.0;
14/06/2019 15:42:45;117;0;214.72;17;15.53;0.35;28.7;10.50;69166;5133.760;-12823.783;212;150;158.4;58;58.0;-9;-9.0;29.1;-1.0;
14/06/2019 15:43:05;117;0;210.06;17;15.01;-1.48;27.0;10.50;69185;5133.760;-12823.783;212;150;158.4;58;58.0;-6;-5.9;29.1;-1.0;
14/06/2019 15:43:25;117;0;206.41;17;14.05;0.67;25.5;10.50;69228;5133.760;-12823.783;212;150;158.4;58;58.0;-4;-4.1;29.1;-1.0;
14/06/2019 15:43:45;117;0;209.52;17;13.41;1.64;23.9;10.60;69277;5133.760;-12823.783;212;150;158.4;58;58.0;-8;-8.1;29.1;-1.0;
14/06/2019 15:44:05;117;0;207.17;17;13.61;-0.82;22.4;10.60;69325;5133.760;-12823.783;212;150;158.4;58;58.0;-7;-6.8;29.1;-1.0;
14/06/2019 15:44:25;117;0;201.58;17;13.62;0.31;20.9;10.60;69358;5133.760;-12823.783;212;150;158.4;58;58.0;-4;-4.1;29.1;-1.0;
14/06/2019 15:44:45;117;0;201.41;17;13.30;1.90;19.4;10.70;69382;5133.760;-12823.783;212;150;156.4;58;58.0;-5;-5.0;29.1;-1.0;
14/06/2019 15:45:05;117;0;201.47;17;13.37;0.80;17.9;10.70;69411;5133.760;-12823.783;212;150;158.4;58;58.0;-6;-6.3;29.1;-1.0;
14/06/2019 15:45:25;117;0;201.27;17;13.52;0.17;16.4;10.70;69412;5133.760;-12823.783;212;150;158.4;58;58.0;-7;-7.2;29.1;-1.0;
14/06/2019 15:45:45;117;0;197.56;17;13.78;-0.54;14.9;10.80;69436;5133.760;-12823.783;212;150;158.4;58;58.0;-5;-5.0;29.1;-1.0;
14/06/2019 15:46:05;117;0;199.59;17;13.92;1.27;13.3;10.80;69455;5133.760;-12823.783;212;150;158.4;58;58.0;-7;-7.2;29.1;-1.0;
14/06/2019 15:46:25;117;0;200.59;17;13.48;-0.20;11.8;10.90;69472;5133.760;-12823.783;212;150;158.4;58;58.0;-8;-8.1;29.1;-1.0;
14/06/2019 15:46:45;117;0;194.43;17;12.70;-0.72;10.2;10.90;69500;5133.760;-12823.783;212;150;158.4;58;58.0;-8;-8.1;29.1;-1.0;
