Timestamp;NavState;SecurityLevel;Heading;Declination;Pitch;Roll;Depth;Temperature;Pa;Lat;Lon;DesiredH;BallastCmd;BallastPos;LinCmd;LinPos;AngCmd;AngPos;Voltage;Altitude;
16/06/2019 11:21:47;117;0;33.26;17;15.41;2.27;9.1;11.00;69524;5125.053;-12837.848;50;150;158.4;57;57.1;-2;-2.7;28.7;-1.0;
16/06/2019 11:21:57;110;0;33.32;17;16.78;2.31;8.4;11.10;69531;5125.053;-12837.848;50;-300;-55.4;73;73.3;0;0.9;28.7;-1.0;
16/06/2019 11:22:07;110;0;39.26;17;-10.10;4.23;8.0;11.10;70035;5125.053;-12837.848;50;-300;-303.0;73;73.0;0;1.4;28.6;-1.0;
16/06/2019 11:22:17;110;0;25.90;17;-23.14;4.48;8.7;11.10;70325;5125.053;-12837.848;50;-300;-303.0;73;72.9;0;1.4;28.7;-1.0;
16/06/2019 11:22:27;100;0;20.96;17;-28.16;4.51;10.3;11.10;70318;5125.053;-12837.848;50;-300;-305.0;73;73.0;0;1.4;28.7;-1.0;
16/06/2019 11:22:47;100;0;12.08;17;-26.57;3.84;14.7;11.20;70327;5125.053;-12837.848;50;-300;-305.0;73;73.0;-7;-7.2;28.7;0.0;
16/06/2019 11:23:07;100;0;9.29;17;-26.24;0.12;19.3;11.20;70319;5125.053;-12837.848;50;-300;-305.0;73;73.0;-6;-5.9;28.7;0.0;
16/06/2019 11:23:27;100;0;6.00;17;-26.34;1.34;23.4;11.30;70335;5125.053;-12837.848;50;-300;-305.0;73;73.0;-7;-7.2;28.7;0.0;
16/06/2019 11:23:47;100;0;357.35;17;-25.98;-0.04;27.5;11.30;70314;5125.053;-12837.848;50;-300;-305.0;73;72.9;-10;-9.9;28.7;0.0;
16/06/2019 11:24:07;100;0;350.69;17;-26.00;-1.18;31.4;11.30;70261;5125.053;-12837.848;50;-300;-305.0;73;72.9;-13;-13.5;28.7;0.0;
16/06/2019 11:24:27;100;0;356.59;17;-24.91;-2.86;35.3;11.30;70216;5125.053;-12837.848;50;-300;-306.9;73;72.9;-7;-7.2;28.7;0.0;
16/06/2019 11:24:47;100;0;355.27;17;-25.07;0.51;39.2;11.30;70168;5125.053;-12837.848;50;-300;-305.0;73;72.9;-8;-8.6;28.8;0.0;
16/06/2019 11:25:07;100;0;353.01;17;-24.77;-0.66;42.9;11.30;70144;5125.053;-12837.848;50;-300;-306.9;73;73.0;-10;-10.4;28.7;0.0;
16/06/2019 11:25:27;100;0;347.46;17;-24.79;-1.34;46.8;11.30;70122;5125.053;-12837.848;50;-300;-303.0;73;73.0;-15;-14.9;28.7;0.0;
16/06/2019 11:25:47;100;0;347.92;17;-24.79;-3.56;50.6;11.30;70103;5125.053;-12837.848;50;-300;-305.0;73;73.0;-15;-15.3;28.6;0.0;
16/06/2019 11:26:07;100;0;348.98;17;-24.78;-3.54;54.5;11.30;70086;5125.053;-12837.848;50;-300;-305.0;73;73.0;-14;-14.0;28.7;0.0;
16/06/2019 11:26:27;100;0;350.41;17;-24.86;-2.52;58.2;11.30;70066;5125.053;-12837.848;50;-300;-305.0;73;73.0;-14;-13.5;28.7;0.0;
16/06/2019 11:26:47;100;0;344.48;17;-24.82;-2.76;62.0;11.30;70066;5125.053;-12837.848;50;-300;-305.0;73;72.9;-19;-19.0;28.7;0.0;
16/06/2019 11:27:07;100;0;342.80;17;-24.85;-5.43;65.6;11.30;70052;5125.053;-12837.848;50;-300;-305.0;73;73.0;-21;-21.2;28.7;0.0;
16/06/2019 11:27:27;100;0;340.45;17;-24.82;-6.47;69.1;11.30;70035;5125.053;-12837.848;50;-300;-305.0;73;72.9;-24;-23.9;28.7;0.0;
16/06/2019 11:27:47;100;0;342.23;17;-24.90;-7.88;72.6;11.30;70021;5125.053;-12837.848;50;-300;-305.0;73;73.0;-24;-24.4;28.7;0.0;
16/06/2019 11:28:07;100;0;343.23;17;-24.40;-8.06;76.0;11.20;69994;5125.053;-12837.848;50;-300;-305.0;73;73.0;-24;-24.4;28.7;0.0;
16/06/2019 11:28:27;100;0;344.63;17;-24.38;-7.99;79.3;11.20;69960;5125.053;-12837.848;50;-300;-305.0;73;72.9;-24;-24.4;28.7;0.0;
16/06/2019 11:28:47;100;0;347.62;17;-24.24;-7.86;82.8;11.20;69946;5125.053;-12837.848;50;-300;-305.0;73;73.0;-22;-22.1;28.7;0.0;
16/06/2019 11:29:07;100;0;343.41;17;-24.07;-6.41;86.4;11.20;69933;5125.053;-12837.848;50;-300;-305.0;73;73.0;-25;-24.8;28.7;0.0;
16/06/2019 11:29:27;100;0;337.20;17;-24.10;-8.33;89.7;11.10;69914;5125.053;-12837.848;50;-300;-305.0;73;73.0;-28;-28.4;28.7;0.0;
16/06/2019 11:29:47;100;0;336.62;17;-24.05;-9.92;93.0;11.10;69898;5125.053;-12837.848;50;-300;-305.0;73;72.9;-27;-27.1;28.7;0.0;
16/06/2019 11:30:07;100;0;339.07;17;-23.52;-8.71;96.4;11.10;69897;5125.053;-12837.848;50;-300;-306.9;73;73.0;-25;-24.8;28.7;0.0;
16/06/2019 11:30:27;100;0;337.40;17;-23.03;-7.62;99.8;11.10;69877;5125.053;-12837.848;50;-300;-306.9;73;72.9;-26;-26.2;28.7;0.0;
16/06/2019 11:30:47;100;0;336.99;17;-22.95;-9.04;103.0;11.10;69881;5125.053;-12837.848;50;-300;-305.0;73;72.9;-26;-26.6;28.7;0.0;
16/06/2019 11:31:07;100;0;333.50;17;-23.28;-9.07;106.3;11.00;69865;5125.053;-12837.848;50;-300;-305.0;73;73.0;-28;-28.0;28.7;0.0;
16/06/2019 11:31:27;100;0;335.04;17;-22.54;-9.91;109.6;11.00;69846;5125.053;-12837.848;50;-300;-305.0;73;73.0;-26;-26.2;28.7;0.0;
16/06/2019 11:31:47;100;0;336.88;17;-21.98;-8.41;112.7;11.00;69846;5125.053;-12837.848;50;-300;-305.0;73;72.9;-25;-24.8;28.7;0.0;
16/06/2019 11:32:07;100;0;340.46;17;-22.04;-7.81;115.7;11.00;69827;5125.053;-12837.848;50;-300;-305.0;73;72.9;-23;-23.0;28.7;0.0;
16/06/2019 11:32:27;100;0;340.28;17;-21.30;-6.87;118.8;10.90;69809;5125.053;-12837.848;50;-300;-306.9;73;72.9;-24;-24.4;28.7;0.0;
16/06/2019 11:32:47;100;0;345.14;17;-21.22;-8.15;121.6;10.90;69800;5125.053;-12837.848;50;-300;-305.0;73;72.9;-22;-21.7;28.7;0.0;
16/06/2019 11:33:07;100;0;348.49;17;-21.12;-6.45;124.1;10.90;69788;5125.053;-12837.848;50;-300;-305.0;73;72.9;-21;-21.2;28.7;0.0;
16/06/2019 11:33:27;100;0;349.14;17;-21.07;-6.28;126.5;10.90;69792;5125.053;-12837.848;50;-300;-305.0;73;73.0;-22;-22.1;28.7;0.0;
16/06/2019 11:33:47;100;0;355.54;17;-20.56;-7.29;129.0;10.80;69766;5125.053;-12837.848;50;-300;-305.0;73;72.9;-19;-19.0;28.7;0.0;
16/06/2019 11:34:07;100;0;0.18;17;-20.26;-5.15;131.5;10.80;69757;5125.053;-12837.848;50;-300;-305.0;73;72.9;-18;-18.1;28.7;0.0;
16/06/2019 11:34:27;100;0;2.91;17;-19.77;-4.56;134.0;10.80;69745;5125.053;-12837.848;50;-300;-305.0;73;72.9;-18;-17.1;28.7;0.0;
16/06/2019 11:34:47;100;0;2.32;17;-19.65;-4.53;136.3;10.70;69736;5125.053;-12837.848;50;-300;-305.0;73;73.0;-19;-19.0;28.7;0.0;
16/06/2019 11:35:07;100;0;5.88;17;-19.43;-5.59;138.7;10.70;69722;5125.053;-12837.848;50;-300;-303.0;73;73.0;-18;-18.1;28.7;0.0;
16/06/2019 11:35:27;100;0;5.09;17;-19.74;-4.70;141.0;10.70;69717;5125.053;-12837.848;50;-300;-303.0;73;72.9;-19;-19.0;28.7;0.0;
16/06/2019 11:35:47;100;0;6.50;17;-19.50;-5.61;143.4;10.60;69701;5125.053;-12837.848;50;-300;-305.0;73;72.9;-19;-19.4;28.7;0.0;
16/06/2019 11:36:07;100;0;6.43;17;-19.75;-5.46;145.8;10.60;69698;5125.053;-12837.848;50;-300;-306.9;73;72.9;-19;-19.4;28.7;0.0;
16/06/2019 11:36:27;100;0;5.82;17;-19.88;-5.53;148.1;10.60;69689;5125.053;-12837.848;50;-300;-306.9;73;72.9;-20;-20.3;28.7;0.0;
16/06/2019 11:36:47;100;0;1.32;17;-19.32;-6.14;150.4;10.50;69680;5125.053;-12837.848;50;-300;-305.0;73;72.9;-22;-22.6;28.7;0.0;
16/06/2019 11:37:07;100;0;0.63;17;-19.77;-7.37;152.7;10.50;69671;5125.053;-12837.848;50;-300;-305.0;73;72.9;-22;-23.0;28.7;0.0;
16/06/2019 11:37:27;100;0;2.61;17;-18.82;-7.27;155.0;10.50;69675;5125.053;-12837.848;50;-300;-305.0;73;72.9;-20;-19.4;28.7;0.0;
16/06/2019 11:37:47;100;0;0.30;17;-18.69;-5.30;157.2;10.50;69658;5125.053;-12837.848;50;-300;-305.0;73;72.9;-22;-22.1;28.7;0.0;
16/06/2019 11:38:07;100;0;1.21;17;-18.37;-7.22;159.5;10.40;69635;5125.053;-12837.848;50;-300;-305.0;73;72.9;-21;-21.2;28.7;0.0;
16/06/2019 11:38:27;100;0;0.75;17;-18.82;-6.09;161.4;10.40;69611;5125.053;-12837.848;50;-300;-305.0;73;72.9;-21;-20.3;28.7;0.0;
16/06/2019 11:38:47;100;0;0.01;17;-19.00;-6.06;163.3;10.30;69599;5125.053;-12837.848;50;-300;-305.0;73;73.0;-21;-20.3;28.7;0.0;
16/06/2019 11:39:07;100;0;358.82;17;-18.93;-6.03;165.2;10.30;69592;5125.053;-12837.848;50;-300;-305.0;73;72.9;-22;-22.1;28.7;0.0;
16/06/2019 11:39:27;100;0;358.60;17;-19.01;-7.10;167.1;10.30;69578;5125.053;-12837.848;50;-300;-305.0;73;73.0;-22;-22.6;28.7;0.0;
16/06/2019 11:39:47;100;0;358.34;17;-19.45;-6.99;169.1;10.20;69566;5125.053;-12837.848;50;-300;-305.0;73;72.9;-22;-22.6;28.7;0.0;
16/06/2019 11:40:07;100;0;359.06;17;-18.89;-7.23;171.1;10.20;69559;5125.053;-12837.848;50;-300;-305.0;73;73.0;-21;-21.2;28.7;44.1;
16/06/2019 11:40:27;100;0;0.10;17;-18.73;-6.25;173.0;10.20;69549;5125.053;-12837.848;50;-300;-306.9;73;72.9;-20;-19.9;28.7;42.1;
16/06/2019 11:40:47;100;0;0.35;17;-18.89;-5.42;175.1;10.10;69542;5125.053;-12837.848;50;-300;-305.0;73;72.9;-21;-21.2;28.7;39.9;
16/06/2019 11:41:07;100;0;1.45;17;-18.92;-6.80;177.1;10.10;69538;5125.053;-12837.848;50;-300;-305.0;73;73.0;-20;-19.9;28.7;37.8;
16/06/2019 11:41:27;100;0;0.93;17;-18.85;-5.75;179.1;10.10;69528;5125.053;-12837.848;50;-300;-305.0;73;73.0;-21;-21.2;28.7;35.6;
16/06/2019 11:41:47;100;0;2.21;17;-18.76;-6.88;181.2;10.00;69524;5125.053;-12837.848;50;-300;-305.0;73;73.0;-20;-19.9;28.7;33.6;
16/06/2019 11:42:07;100;0;2.02;17;-18.77;-5.57;183.1;10.00;69529;5125.053;-12837.848;50;-300;-305.0;73;72.9;-20;-19.4;28.7;31.4;
16/06/2019 11:42:27;100;0;3.70;17;-19.35;-5.54;185.2;10.00;69522;5125.053;-12837.848;50;-300;-305.0;73;72.9;-20;-19.0;28.7;29.4;
16/06/2019 11:42:47;100;0;5.20;17;-18.47;-5.54;187.2;9.90;69522;5125.053;-12837.848;50;-300;-303.0;73;73.0;-19;-18.5;28.7;27.2;
16/06/2019 11:43:07;100;0;6.07;17;-18.89;-4.95;189.0;9.90;69517;5125.053;-12837.848;50;-300;-305.0;73;73.0;-19;-18.1;28.7;25.2;
16/06/2019 11:43:27;100;0;8.05;17;-18.83;-4.96;191.0;9.90;69513;5125.053;-12837.848;50;-300;-305.0;73;73.0;-18;-18.1;28.7;23.3;
16/06/2019 11:43:47;100;0;6.91;17;-18.27;-5.01;192.9;9.80;69501;5125.053;-12837.848;50;-300;-305.0;73;72.9;-20;-19.9;28.7;21.3;
16/06/2019 11:44:07;100;0;5.41;17;-18.83;-5.98;194.9;9.80;69500;5125.053;-12837.848;50;-300;-303.0;73;72.9;-20;-20.3;28.7;19.1;
16/06/2019 11:44:27;118;0;4.86;17;-19.07;-5.96;197.0;9.80;69502;5125.053;-12837.848;50;150;-291.1;57;56.8;0;0.5;28.7;16.9;
16/06/2019 11:44:38;118;0;38.52;17;3.04;3.58;197.9;9.80;69411;5125.053;-12837.848;50;150;-134.7;57;57.2;0;0.5;28.1;16.9;
16/06/2019 11:44:48;118;0;35.77;17;18.94;3.41;197.6;9.80;69204;5125.053;-12837.848;50;150;21.8;57;57.2;0;0.5;28.1;-1.0;
16/06/2019 11:44:58;118;0;34.89;17;23.66;3.89;196.8;9.80;68944;5125.053;-12837.848;50;150;154.5;57;57.2;0;0.5;28.2;-1.0;
16/06/2019 11:45:08;118;0;352.37;17;23.97;4.03;195.6;9.70;68740;5125.053;-12837.848;50;150;156.4;57;57.2;0;0.5;28.7;-1.0;
16/06/2019 11:45:18;118;0;350.72;17;27.58;3.27;194.1;9.70;68754;5125.053;-12837.848;50;150;156.4;57;57.2;0;0.5;28.7;-1.0;
16/06/2019 11:45:28;117;0;350.82;17;27.98;3.36;192.2;9.70;68748;5125.053;-12837.848;50;150;156.4;57;57.1;0;0.5;28.7;-1.0;
16/06/2019 11:45:48;117;0;349.26;17;28.22;3.67;187.8;9.70;68748;5125.053;-12837.848;50;150;156.4;57;57.2;29;28.9;28.7;-1.0;
16/06/2019 11:46:08;117;0;356.43;17;27.52;17.95;182.9;9.70;68736;5125.053;-12837.848;50;150;156.4;57;57.1;22;21.7;28.7;-1.0;
16/06/2019 11:46:28;117;0;4.82;17;27.56;13.27;178.4;9.60;68734;5125.053;-12837.848;50;150;156.4;57;57.2;17;17.1;28.7;-1.0;
16/06/2019 11:46:48;117;0;14.60;17;27.84;11.31;173.9;9.60;68737;5125.053;-12837.848;50;150;156.4;57;57.1;13;13.1;28.7;-1.0;
16/06/2019 11:47:08;117;0;21.20;17;28.15;9.34;169.2;9.60;68724;5125.053;-12837.848;50;150;158.4;57;57.2;12;11.7;28.7;-1.0;
16/06/2019 11:47:28;117;0;28.11;17;27.78;8.37;164.5;9.50;68717;5125.053;-12837.848;50;150;156.4;57;57.1;10;9.9;28.7;-1.0;
16/06/2019 11:47:48;117;0;34.99;17;27.69;7.77;160.1;9.50;68734;5125.053;-12837.848;50;150;158.4;57;57.2;10;9.5;28.7;-1.0;
16/06/2019 11:48:08;117;0;43.06;17;27.86;7.89;155.6;9.50;68726;5125.053;-12837.848;50;150;156.4;57;57.2;6;5.9;28.7;-1.0;
16/06/2019 11:48:28;117;0;40.28;17;26.97;5.59;151.3;9.50;68742;5125.053;-12837.848;50;150;158.4;57;57.1;11;10.8;28.7;-1.0;
16/06/2019 11:48:48;117;0;41.12;17;26.73;8.96;147.4;9.40;68750;5125.053;-12837.848;50;150;158.4;57;57.1;11;11.7;28.7;-1.0;
16/06/2019 11:49:08;117;0;48.61;17;25.78;8.84;143.6;9.40;68769;5125.053;-12837.848;50;150;158.4;57;57.2;7;7.2;28.7;-1.0;
16/06/2019 11:49:28;117;0;50.59;17;26.58;6.42;139.9;9.40;68762;5125.053;-12837.848;50;150;156.4;57;57.2;6;5.9;28.7;-1.0;
16/06/2019 11:49:48;117;0;47.66;17;27.26;5.86;135.9;9.40;68776;5125.053;-12837.848;50;150;156.4;57;57.2;9;9.0;28.7;-1.0;
16/06/2019 11:50:08;117;0;36.68;17;26.54;7.97;131.8;9.40;68791;5125.053;-12837.848;50;150;158.4;57;57.2;15;14.9;28.7;-1.0;
16/06/2019 11:50:28;117;0;34.77;17;26.63;10.47;127.9;9.40;68786;5125.053;-12837.848;50;150;158.4;57;57.2;14;14.0;28.7;-1.0;
16/06/2019 11:50:48;117;0;41.51;17;26.20;10.06;123.6;9.40;68802;5125.053;-12837.848;50;150;156.4;57;57.2;8;8.1;28.7;-1.0;
16/06/2019 11:51:08;117;0;52.99;17;25.84;7.15;119.3;9.40;68811;5125.053;-12837.848;50;150;156.4;57;57.1;2;1.8;28.7;-1.0;
16/06/2019 11:51:28;117;0;59.98;17;24.06;3.55;115.2;9.40;68830;5125.053;-12837.848;50;150;156.4;57;57.1;0;0.0;28.7;-1.0;
16/06/2019 11:51:48;117;0;59.94;17;23.32;3.07;111.8;9.40;68838;5125.053;-12837.848;50;150;156.4;57;57.1;2;1.8;28.7;-1.0;
16/06/2019 11:52:08;117;0;62.37;17;22.60;4.28;108.5;9.40;68855;5125.053;-12837.848;50;150;156.4;57;57.2;1;0.9;28.7;-1.0;
16/06/2019 11:52:28;117;0;65.56;17;22.73;3.01;105.4;9.40;68862;5125.053;-12837.848;50;150;158.4;57;57.2;0;0.0;28.7;-1.0;
16/06/2019 11:52:48;117;0;66.03;17;22.30;3.13;102.5;9.40;68874;5125.053;-12837.848;50;150;156.4;57;57.2;0;0.0;28.7;-1.0;
16/06/2019 11:53:08;117;0;64.77;17;21.68;3.13;99.6;9.40;68884;5125.053;-12837.848;50;150;158.4;57;57.1;1;0.9;28.7;-1.0;
16/06/2019 11:53:28;117;0;60.39;17;21.51;3.81;96.9;9.40;68884;5125.053;-12837.848;50;150;158.4;57;57.2;3;3.2;28.7;-1.0;
16/06/2019 11:53:48;117;0;63.40;17;21.14;5.05;94.2;9.40;68894;5125.053;-12837.848;50;150;156.4;57;57.2;0;0.0;28.7;-1.0;
16/06/2019 11:54:08;117;0;61.79;17;21.04;2.96;91.5;9.40;68893;5125.053;-12837.848;50;150;156.4;57;57.2;0;0.0;28.7;-1.0;
16/06/2019 11:54:28;117;0;65.87;17;20.80;3.02;88.9;9.40;68910;5125.053;-12837.848;50;150;158.4;57;57.2;-2;-2.3;28.7;-1.0;
16/06/2019 11:54:48;117;0;68.92;17;20.57;1.78;86.4;9.40;68915;5125.053;-12837.848;50;150;156.4;57;57.1;-4;-4.1;28.7;-1.0;
16/06/2019 11:55:08;117;0;70.13;17;20.15;1.03;83.9;9.40;68913;5125.053;-12837.848;50;150;156.4;57;57.2;-5;-5.0;28.7;-1.0;
16/06/2019 11:55:28;117;0;65.13;17;20.37;0.36;81.6;9.40;68930;5125.053;-12837.848;50;150;156.4;57;57.2;-2;-1.4;28.7;-1.0;
16/06/2019 11:55:48;117;0;59.07;17;20.75;2.69;78.9;9.40;68926;5125.053;-12837.848;50;150;158.4;57;57.2;0;0.5;28.7;-1.0;
16/06/2019 11:56:08;117;0;56.65;17;20.31;3.53;76.3;9.40;68937;5125.053;-12837.848;50;150;156.4;57;57.1;0;0.9;28.7;-1.0;
16/06/2019 11:56:28;117;0;59.73;17;20.44;3.57;73.6;9.50;68943;5125.053;-12837.848;50;150;158.4;57;57.2;-3;-3.6;28.7;-1.0;
16/06/2019 11:56:48;117;0;62.16;17;19.79;1.21;71.0;9.50;68957;5125.053;-12837.848;50;150;156.4;57;57.2;-5;-5.4;28.7;-1.0;
16/06/2019 11:57:08;117;0;60.69;17;19.66;0.48;68.4;9.50;68963;5125.053;-12837.848;50;150;156.4;57;57.2;-4;-4.1;28.7;-1.0;
16/06/2019 11:57:28;117;0;58.87;17;18.88;1.64;66.1;9.50;68979;5125.053;-12837.848;50;150;156.4;57;57.1;-4;-3.2;28.7;-1.0;
16/06/2019 11:57:48;117;0;59.24;17;18.73;1.73;63.7;9.50;69003;5125.053;-12837.848;50;150;156.4;57;57.1;-6;-5.9;28.7;-1.0;
16/06/2019 11:58:08;117;0;58.15;17;18.86;0.33;61.6;9.50;69011;5125.053;-12837.848;50;150;156.4;57;57.2;-6;-6.3;28.7;-1.0;
16/06/2019 11:58:28;117;0;56.86;17;18.24;0.42;59.5;9.50;69028;5125.053;-12837.848;50;150;156.4;57;57.2;-5;-5.0;28.7;-1.0;
16/06/2019 11:58:48;117;0;55.60;17;18.42;1.16;57.5;9.60;69038;5125.053;-12837.848;50;150;156.4;57;57.2;-6;-6.3;28.7;-1.0;
16/06/2019 11:59:08;117;0;52.74;17;18.44;-0.10;55.5;9.60;69048;5125.053;-12837.848;50;150;158.4;57;57.1;-5;-5.0;28.7;-1.0;
16/06/2019 11:59:28;117;0;50.96;17;18.27;1.32;53.6;9.60;69066;5125.053;-12837.848;50;150;156.4;57;57.2;-5;-4.5;28.7;-1.0;
16/06/2019 11:59:48;117;0;50.97;17;18.78;1.29;51.7;9.60;69069;5125.053;-12837.848;50;150;156.4;57;57.2;-7;-7.2;28.7;-1.0;
16/06/2019 12:00:08;117;0;49.03;17;17.45;-0.16;49.8;9.60;69080;5125.053;-12837.848;50;150;156.4;57;57.2;-7;-7.7;28.7;-1.0;
16/06/2019 12:00:28;117;0;47.08;17;18.36;-0.40;48.0;9.70;69091;5125.053;-12837.848;50;150;156.4;57;57.2;-7;-7.7;28.7;-1.0;
16/06/2019 12:00:48;117;0;41.76;17;18.14;-0.38;46.1;9.70;69098;5125.053;-12837.848;50;150;156.4;57;57.2;-4;-3.6;28.7;-1.0;
16/06/2019 12:01:08;117;0;36.36;17;18.12;1.99;44.2;9.70;69100;5125.053;-12837.848;50;150;158.4;57;57.2;-3;-3.2;28.7;-1.0;
16/06/2019 12:01:28;117;0;36.36;17;17.91;1.98;42.3;9.70;69122;5125.053;-12837.848;50;150;156.4;57;57.2;-5;-5.0;28.7;-1.0;
16/06/2019 12:01:48;117;0;34.47;17;18.00;0.75;40.4;9.80;69115;5125.053;-12837.848;50;150;156.4;57;57.2;-4;-3.6;28.7;-1.0;
16/06/2019 12:02:08;117;0;33.82;17;17.93;2.09;38.5;9.80;69126;5125.053;-12837.848;50;150;156.4;57;57.2;-4;-2.7;28.7;-1.0;
16/06/2019 12:02:28;117;0;31.86;17;18.07;2.09;36.7;9.80;69133;5125.053;-12837.848;50;150;156.4;57;57.2;-4;-2.7;28.7;-1.0;
16/06/2019 12:02:48;117;0;33.48;17;17.73;2.10;34.8;9.80;69134;5125.053;-12837.848;50;150;158.4;57;57.2;-4;-2.7;28.7;-1.0;
16/06/2019 12:03:08;117;0;25.61;17;17.61;2.03;32.7;9.80;69165;5125.053;-12837.848;50;150;158.4;57;57.2;-1;-0.5;28.7;-1.0;
16/06/2019 12:03:28;117;0;19.49;17;16.71;3.60;30.9;9.90;69187;5125.053;-12837.848;50;150;158.4;57;57.2;0;0.0;28.7;-1.0;
16/06/2019 12:03:48;117;0;22.63;17;15.93;3.73;29.1;9.90;69223;5125.053;-12837.848;50;150;160.4;57;57.2;-2;-1.8;28.7;-1.0;
16/06/2019 12:04:08;117;0;30.48;17;16.17;2.57;27.6;9.90;69254;5125.053;-12837.848;50;150;156.4;57;57.2;-7;-7.2;28.7;-1.0;
16/06/2019 12:04:28;117;0;31.34;17;15.92;-0.18;26.1;10.00;69269;5125.053;-12837.848;50;150;156.4;57;57.2;-6;-5.9;28.7;-1.0;
16/06/2019 12:04:48;117;0;32.76;17;15.72;1.00;24.3;10.00;69300;5125.053;-12837.848;50;150;156.4;57;57.2;-6;-5.0;28.7;-1.0;
16/06/2019 12:05:08;117;0;35.41;17;15.68;1.04;22.8;10.10;69314;5125.053;-12837.848;50;150;158.4;57;57.2;-6;-5.0;28.7;-1.0;
16/06/2019 12:05:28;117;0;34.01;17;16.27;0.92;21.4;10.10;69336;5125.053;-12837.848;50;150;156.4;57;57.2;-6;-5.0;28.7;-1.0;
16/06/2019 12:05:48;117;0;31.89;17;15.35;1.07;19.8;10.20;69357;5125.053;-12837.848;50;150;154.5;57;57.2;-6;-5.0;28.7;-1.0;
16/06/2019 12:06:08;117;0;28.56;17;15.69;0.97;18.2;10.20;69386;5125.053;-12837.848;50;150;156.4;57;57.2;-2;-1.8;28.7;-1.0;
16/06/2019 12:06:28;117;0;24.09;17;15.64;3.11;16.6;10.20;69400;5125.053;-12837.848;50;150;156.4;57;57.2;0;0.5;28.7;-1.0;
16/06/2019 12:06:48;117;0;20.87;17;15.60;3.87;15.1;10.30;69425;5125.053;-12837.848;50;150;156.4;57;57.2;0;0.9;28.7;-1.0;
16/06/2019 12:07:08;117;0;17.84;17;15.60;3.97;13.6;10.40;69446;5125.053;-12837.848;50;150;156.4;57;57.2;2;1.8;28.7;-1.0;
16/06/2019 12:07:28;117;0;13.91;17;15.36;4.70;12.0;10.40;69455;5125.053;-12837.848;50;150;158.4;57;57.2;3;3.2;28.7;-1.0;
16/06/2019 12:07:48;117;0;19.61;17;15.37;5.59;10.5;10.40;69470;5125.053;-12837.848;50;150;158.4;57;57.2;0;0.0;28.7;-1.0;
