Timestamp;NavState;SecurityLevel;Heading;Declination;Pitch;Roll;Depth;Temperature;Pa;Lat;Lon;DesiredH;BallastCmd;BallastPos;LinCmd;LinPos;AngCmd;AngPos;Voltage;Altitude;
16/06/2019 04:41:44;117;0;34.20;17;16.22;2.78;9.9;10.30;69360;5123.606;-12841.591;53;150;160.4;57;57.1;-2;-1.4;28.8;-1.0;
16/06/2019 04:41:54;110;0;31.78;17;16.77;2.76;9.0;10.30;69366;5123.606;-12841.591;53;-300;-59.4;73;73.3;0;0.5;28.8;-1.0;
16/06/2019 04:42:04;110;0;36.29;17;-8.23;3.81;8.4;10.30;69877;5123.606;-12841.591;53;-300;-303.0;73;72.9;0;0.5;28.7;-1.0;
16/06/2019 04:42:14;110;0;24.22;17;-21.14;3.97;9.3;10.30;70158;5123.606;-12841.591;53;-300;-305.0;73;72.9;0;0.5;28.7;-1.0;
16/06/2019 04:42:24;100;0;22.63;17;-26.81;3.70;10.8;10.40;70161;5123.606;-12841.591;53;-300;-305.0;73;72.9;0;0.5;28.7;-1.0;
16/06/2019 04:42:44;100;0;20.19;17;-27.20;3.81;14.9;10.40;70176;5123.606;-12841.591;53;-300;-306.9;73;73.0;-5;-5.0;28.8;0.0;
16/06/2019 04:43:04;100;0;9.91;17;-25.50;1.26;19.8;10.50;70156;5123.606;-12841.591;53;-300;-306.9;73;73.0;-8;-8.6;28.8;0.0;
16/06/2019 04:43:24;100;0;5.63;17;-24.94;-0.45;23.9;10.50;70121;5123.606;-12841.591;53;-300;-305.0;73;73.0;-7;-7.2;28.7;0.0;
16/06/2019 04:43:44;100;0;3.88;17;-24.99;0.85;27.7;10.60;70075;5123.606;-12841.591;53;-300;-305.0;73;73.0;-7;-6.8;28.8;0.0;
16/06/2019 04:44:04;100;0;3.35;17;-24.70;0.59;31.6;10.60;70045;5123.606;-12841.591;53;-300;-305.0;73;72.9;-6;-5.9;28.8;0.0;
16/06/2019 04:44:24;100;0;355.80;17;-24.71;1.34;35.2;10.60;70023;5123.606;-12841.591;53;-300;-305.0;73;73.0;-10;-9.9;28.8;0.0;
16/06/2019 04:44:44;100;0;352.76;17;-25.11;-1.15;38.9;10.60;70003;5123.606;-12841.591;53;-300;-305.0;73;73.0;-10;-10.4;28.8;0.0;
16/06/2019 04:45:04;100;0;349.50;17;-25.08;-1.30;42.6;10.60;69986;5123.606;-12841.591;53;-300;-305.0;73;73.0;-12;-12.2;28.8;0.0;
16/06/2019 04:45:24;100;0;351.00;17;-24.90;-2.39;46.4;10.60;69958;5123.606;-12841.591;53;-300;-306.9;73;72.9;-10;-9.9;28.8;0.0;
16/06/2019 04:45:44;100;0;347.59;17;-24.33;-0.75;50.0;10.60;69941;5123.606;-12841.591;53;-300;-305.0;73;73.0;-14;-14.4;28.8;0.0;
16/06/2019 04:46:04;100;0;346.18;17;-24.78;-3.19;53.4;10.50;69923;5123.606;-12841.591;53;-300;-305.0;73;72.9;-16;-16.2;28.8;0.0;
16/06/2019 04:46:24;100;0;345.12;17;-25.08;-4.15;57.1;10.50;69904;5123.606;-12841.591;53;-300;-305.0;73;73.0;-18;-18.5;28.7;0.0;
16/06/2019 04:46:44;100;0;341.13;17;-24.79;-5.29;60.7;10.50;69901;5123.606;-12841.591;53;-300;-305.0;73;73.0;-22;-22.1;28.8;0.0;
16/06/2019 04:47:04;100;0;345.35;17;-25.01;-6.69;64.2;10.50;69885;5123.606;-12841.591;53;-300;-305.0;73;72.9;-20;-19.4;28.8;0.0;
16/06/2019 04:47:24;100;0;341.17;17;-23.91;-5.07;67.9;10.50;69864;5123.606;-12841.591;53;-300;-306.9;73;73.0;-25;-25.3;28.8;0.0;
16/06/2019 04:47:44;100;0;339.43;17;-24.27;-8.32;71.4;10.50;69839;5123.606;-12841.591;53;-300;-306.9;73;73.0;-27;-27.1;28.7;0.0;
16/06/2019 04:48:04;100;0;341.43;17;-24.04;-9.38;75.0;10.50;69825;5123.606;-12841.591;53;-300;-305.0;73;73.0;-25;-24.8;28.7;0.0;
16/06/2019 04:48:24;100;0;349.82;17;-22.89;-7.70;78.5;10.50;69818;5123.606;-12841.591;53;-300;-306.9;73;72.9;-21;-21.2;28.7;0.0;
16/06/2019 04:48:44;100;0;352.27;17;-22.60;-5.89;82.0;10.50;69807;5123.606;-12841.591;53;-300;-306.9;73;73.0;-20;-19.4;28.8;0.0;
16/06/2019 04:49:04;100;0;355.75;17;-22.52;-5.13;85.3;10.50;69794;5123.606;-12841.591;53;-300;-305.0;73;73.0;-20;-18.5;28.7;0.0;
16/06/2019 04:49:24;100;0;2.24;17;-22.04;-5.26;88.5;10.40;69784;5123.606;-12841.591;53;-300;-306.9;73;73.0;-17;-16.7;28.8;0.0;
16/06/2019 04:49:44;100;0;0.36;17;-21.88;-4.00;91.5;10.40;69774;5123.606;-12841.591;53;-300;-306.9;73;73.0;-20;-19.9;28.8;0.0;
16/06/2019 04:50:04;100;0;359.06;17;-22.09;-5.79;94.6;10.40;69769;5123.606;-12841.591;53;-300;-306.9;73;73.0;-21;-21.7;28.8;0.0;
16/06/2019 04:50:24;100;0;358.47;17;-21.50;-6.64;97.8;10.40;69758;5123.606;-12841.591;53;-300;-306.9;73;73.0;-22;-22.1;28.8;0.0;
16/06/2019 04:50:44;100;0;359.30;17;-21.34;-6.65;100.9;10.40;69745;5123.606;-12841.591;53;-300;-306.9;73;73.0;-21;-20.8;28.8;0.0;
16/06/2019 04:51:04;100;0;359.03;17;-21.08;-5.77;103.7;10.30;69732;5123.606;-12841.591;53;-300;-306.9;73;73.0;-22;-22.1;28.7;0.0;
16/06/2019 04:51:24;100;0;357.45;17;-21.02;-6.91;106.6;10.30;69732;5123.606;-12841.591;53;-300;-306.9;73;73.0;-23;-23.0;28.8;0.0;
16/06/2019 04:51:44;100;0;356.11;17;-20.59;-7.43;109.7;10.30;69725;5123.606;-12841.591;53;-300;-305.0;73;73.0;-23;-23.5;28.7;0.0;
16/06/2019 04:52:04;100;0;356.73;17;-20.52;-7.51;112.3;10.30;69704;5123.606;-12841.591;53;-300;-305.0;73;73.0;-23;-23.5;28.8;0.0;
16/06/2019 04:52:24;100;0;358.06;17;-21.10;-7.57;114.9;10.30;69696;5123.606;-12841.591;53;-300;-305.0;73;73.0;-21;-21.2;28.8;0.0;
16/06/2019 04:52:44;100;0;359.69;17;-21.37;-6.18;117.2;10.30;69691;5123.606;-12841.591;53;-300;-305.0;73;72.9;-21;-20.3;28.8;0.0;
16/06/2019 04:53:04;100;0;2.57;17;-20.37;-6.06;119.7;10.20;69690;5123.606;-12841.591;53;-300;-305.0;73;73.0;-20;-19.9;28.8;0.0;
16/06/2019 04:53:24;100;0;5.42;17;-20.04;-5.42;122.1;10.20;69677;5123.606;-12841.591;53;-300;-306.9;73;72.9;-19;-19.0;28.8;0.0;
16/06/2019 04:53:44;100;0;4.80;17;-20.30;-5.47;124.3;10.20;69667;5123.606;-12841.591;53;-300;-305.0;73;73.0;-20;-19.9;28.8;0.0;
16/06/2019 04:54:04;100;0;5.45;17;-20.17;-6.03;126.6;10.20;69660;5123.606;-12841.591;53;-300;-305.0;73;73.0;-20;-20.3;28.8;0.0;
16/06/2019 04:54:24;100;0;5.67;17;-20.60;-6.02;128.7;10.10;69657;5123.606;-12841.591;53;-300;-305.0;73;72.9;-20;-20.3;28.8;0.0;
16/06/2019 04:54:44;100;0;5.42;17;-19.87;-5.92;131.0;10.10;69641;5123.606;-12841.591;53;-300;-306.9;73;73.0;-20;-20.3;28.8;0.0;
16/06/2019 04:55:04;100;0;5.80;17;-19.64;-6.02;133.2;10.10;69645;5123.606;-12841.591;53;-300;-305.0;73;72.9;-20;-20.3;28.8;0.0;
16/06/2019 04:55:24;100;0;6.64;17;-19.58;-5.96;135.5;10.10;69638;5123.606;-12841.591;53;-300;-306.9;73;73.0;-20;-20.3;28.8;0.0;
16/06/2019 04:55:45;100;0;7.41;17;-19.60;-5.88;137.7;10.10;69630;5123.606;-12841.591;53;-300;-306.9;73;73.0;-20;-20.3;28.8;0.0;
16/06/2019 04:56:05;100;0;7.82;17;-19.58;-6.02;140.0;10.00;69631;5123.606;-12841.591;53;-300;-306.9;73;73.0;-20;-20.3;28.8;0.0;
16/06/2019 04:56:25;100;0;6.94;17;-19.49;-6.03;142.1;10.00;69631;5123.606;-12841.591;53;-300;-306.9;73;73.0;-21;-21.2;28.8;0.0;
16/06/2019 04:56:45;100;0;7.51;17;-19.49;-6.72;144.2;10.00;69630;5123.606;-12841.591;53;-300;-306.9;73;72.9;-20;-19.9;28.8;0.0;
16/06/2019 04:57:05;100;0;7.57;17;-19.49;-5.58;146.3;10.00;69620;5123.606;-12841.591;53;-300;-305.0;73;73.0;-20;-19.4;28.8;0.0;
16/06/2019 04:57:25;100;0;7.62;17;-19.70;-5.59;148.5;9.90;69611;5123.606;-12841.591;53;-300;-305.0;73;73.0;-20;-19.4;28.7;0.0;
16/06/2019 04:57:45;100;0;8.17;17;-19.53;-5.62;150.8;9.90;69596;5123.606;-12841.591;53;-300;-306.9;73;73.0;-19;-19.0;28.8;0.0;
16/06/2019 04:58:05;100;0;8.73;17;-19.45;-5.02;152.9;9.90;69591;5123.606;-12841.591;53;-300;-305.0;73;73.0;-20;-19.9;28.8;0.0;
16/06/2019 04:58:25;100;0;9.54;17;-19.09;-5.96;155.1;9.90;69579;5123.606;-12841.591;53;-300;-305.0;73;72.9;-19;-19.0;28.8;0.0;
16/06/2019 04:58:45;100;0;7.77;17;-19.35;-5.20;157.4;9.90;69574;5123.606;-12841.591;53;-300;-305.0;73;72.9;-21;-21.7;28.8;0.0;
16/06/2019 04:59:05;100;0;7.00;17;-19.41;-6.95;159.7;9.80;69587;5123.606;-12841.591;53;-300;-305.0;73;72.9;-20;-19.9;28.8;0.0;
16/06/2019 04:59:25;100;0;2.18;17;-19.13;-5.38;161.9;9.80;69573;5123.606;-12841.591;53;-300;-305.0;73;72.9;-23;-23.0;28.8;0.0;
16/06/2019 04:59:45;100;0;2.08;17;-19.07;-7.60;164.0;9.80;69560;5123.606;-12841.591;53;-300;-305.0;73;72.9;-22;-22.1;28.8;0.0;
16/06/2019 05:00:05;100;0;3.76;17;-18.93;-6.63;166.0;9.80;69550;5123.606;-12841.591;53;-300;-306.9;73;73.0;-21;-21.2;28.8;0.0;
16/06/2019 05:00:25;100;0;0.91;17;-19.10;-6.30;168.1;9.70;69543;5123.606;-12841.591;53;-300;-305.0;73;73.0;-23;-23.0;28.8;0.0;
16/06/2019 05:00:45;100;0;0.21;17;-18.97;-7.48;170.1;9.70;69536;5123.606;-12841.591;53;-300;-305.0;73;72.9;-22;-22.1;28.8;0.0;
16/06/2019 05:01:05;100;0;1.64;17;-18.87;-6.57;172.3;9.70;69522;5123.606;-12841.591;53;-300;-306.9;73;73.0;-21;-21.2;28.8;0.0;
16/06/2019 05:01:25;100;0;4.45;17;-18.83;-6.63;174.7;9.70;69513;5123.606;-12841.591;53;-300;-306.9;73;73.0;-20;-19.4;28.7;11.0;
16/06/2019 05:01:45;118;0;5.14;17;-18.73;-5.45;177.1;9.60;69512;5123.606;-12841.591;53;150;-291.1;57;56.9;0;0.5;28.8;41.4;
16/06/2019 05:01:55;118;0;40.17;17;1.83;3.90;177.9;9.60;69419;5123.606;-12841.591;53;150;-134.7;57;57.1;0;0.5;28.2;41.4;
16/06/2019 05:02:05;118;0;36.43;17;18.98;3.40;177.8;9.60;69212;5123.606;-12841.591;53;150;19.8;57;57.1;0;0.5;28.2;-1.0;
16/06/2019 05:02:15;118;0;35.35;17;23.80;3.63;177.0;9.60;68958;5123.606;-12841.591;53;150;156.4;57;57.1;0;0.5;28.2;-1.0;
16/06/2019 05:02:25;118;0;353.07;17;24.69;4.27;175.9;9.60;68753;5123.606;-12841.591;53;150;158.4;57;57.2;0;0.5;28.7;-1.0;
16/06/2019 05:02:35;118;0;350.97;17;26.80;3.54;174.4;9.60;68762;5123.606;-12841.591;53;150;156.4;57;57.1;0;0.5;28.7;-1.0;
16/06/2019 05:02:45;117;0;349.23;17;27.63;3.59;172.6;9.60;68761;5123.606;-12841.591;53;150;156.4;57;57.2;0;0.5;28.7;-1.0;
16/06/2019 05:03:05;117;0;348.34;17;27.56;3.95;168.5;9.60;68756;5123.606;-12841.591;53;150;156.4;57;57.1;29;28.9;28.8;-1.0;
16/06/2019 05:03:25;117;0;1.26;17;26.40;17.90;164.1;9.50;68749;5123.606;-12841.591;53;150;156.4;57;57.1;20;19.9;28.8;-1.0;
16/06/2019 05:03:45;117;0;17.42;17;25.99;12.93;160.1;9.50;68756;5123.606;-12841.591;53;150;156.4;57;57.1;11;10.8;28.7;-1.0;
16/06/2019 05:04:05;117;0;25.96;17;26.89;8.12;156.1;9.50;68769;5123.606;-12841.591;53;150;158.4;57;57.1;10;9.9;28.8;-1.0;
16/06/2019 05:04:25;117;0;28.39;17;27.32;7.59;152.1;9.50;68770;5123.606;-12841.591;53;150;156.4;57;57.1;12;12.2;28.7;-1.0;
16/06/2019 05:04:45;117;0;35.53;17;27.16;9.34;147.7;9.50;68782;5123.606;-12841.591;53;150;158.4;57;57.1;12;12.6;28.7;-1.0;
16/06/2019 05:05:05;117;0;38.61;17;27.09;9.37;143.6;9.40;68786;5123.606;-12841.591;53;150;156.4;57;57.1;12;12.6;28.8;-1.0;
16/06/2019 05:05:25;117;0;45.20;17;26.82;9.31;139.4;9.40;68778;5123.606;-12841.591;53;150;156.4;57;57.1;8;7.7;28.7;-1.0;
16/06/2019 05:05:45;117;0;45.06;17;26.70;6.78;135.5;9.40;68790;5123.606;-12841.591;53;150;156.4;57;57.1;10;9.9;28.7;-1.0;
16/06/2019 05:06:05;117;0;44.21;17;26.45;8.20;131.3;9.40;68796;5123.606;-12841.591;53;150;156.4;57;57.1;11;11.3;28.8;-1.0;
16/06/2019 05:06:25;117;0;53.53;17;26.53;8.90;127.2;9.40;68797;5123.606;-12841.591;53;150;158.4;57;57.1;6;5.9;28.7;-1.0;
16/06/2019 05:06:45;117;0;55.10;17;26.27;5.92;123.0;9.40;68797;5123.606;-12841.591;53;150;158.4;57;57.1;6;5.4;28.8;-1.0;
16/06/2019 05:07:05;117;0;53.87;17;26.24;5.95;118.9;9.40;68801;5123.606;-12841.591;53;150;156.4;57;57.1;8;8.1;28.8;-1.0;
16/06/2019 05:07:25;117;0;66.33;17;25.70;7.27;114.8;9.40;68802;5123.606;-12841.591;53;150;156.4;57;57.1;0;0.0;28.8;-1.0;
16/06/2019 05:07:45;117;0;71.50;17;25.52;3.09;110.7;9.30;68804;5123.606;-12841.591;53;150;158.4;57;57.1;0;-0.5;28.8;-1.0;
16/06/2019 05:08:05;117;0;63.35;17;24.96;3.23;106.9;9.30;68811;5123.606;-12841.591;53;150;158.4;57;57.1;5;5.0;28.7;-1.0;
16/06/2019 05:08:25;117;0;54.34;17;24.67;6.19;103.3;9.30;68832;5123.606;-12841.591;53;150;158.4;57;57.1;9;9.0;28.8;-1.0;
16/06/2019 05:08:45;117;0;53.51;17;24.59;8.20;99.9;9.30;68816;5123.606;-12841.591;53;150;158.4;57;57.1;7;6.8;28.8;-1.0;
16/06/2019 05:09:05;117;0;54.50;17;23.73;6.46;96.4;9.30;68838;5123.606;-12841.591;53;150;158.4;57;57.1;5;5.0;28.7;-1.0;
16/06/2019 05:09:25;117;0;55.44;17;23.48;5.22;93.3;9.30;68841;5123.606;-12841.591;53;150;158.4;57;57.1;4;4.1;28.8;-1.0;
16/06/2019 05:09:45;117;0;54.54;17;23.15;5.24;90.1;9.30;68857;5123.606;-12841.591;53;150;158.4;57;57.2;4;4.1;28.8;-1.0;
16/06/2019 05:10:05;117;0;47.00;17;24.46;5.48;86.9;9.30;68852;5123.606;-12841.591;53;150;158.4;57;57.1;8;8.1;28.8;-1.0;
16/06/2019 05:10:25;117;0;41.07;17;22.93;7.66;83.8;9.30;68860;5123.606;-12841.591;53;150;156.4;57;57.1;9;9.5;28.8;-1.0;
16/06/2019 05:10:45;117;0;44.63;17;22.22;8.51;80.8;9.30;68863;5123.606;-12841.591;53;150;158.4;57;57.1;5;4.5;28.8;-1.0;
16/06/2019 05:11:05;117;0;41.13;17;23.14;5.46;78.0;9.30;68869;5123.606;-12841.591;53;150;160.4;57;57.1;6;5.9;28.8;-1.0;
16/06/2019 05:11:25;117;0;35.63;17;21.80;6.70;75.0;9.30;68880;5123.606;-12841.591;53;150;158.4;57;57.1;6;6.3;28.8;-1.0;
16/06/2019 05:11:45;117;0;29.36;17;21.62;6.88;72.2;9.30;68886;5123.606;-12841.591;53;150;160.4;57;57.1;11;11.3;28.7;-1.0;
16/06/2019 05:12:05;117;0;28.69;17;20.56;9.10;69.6;9.40;68893;5123.606;-12841.591;53;150;158.4;57;57.1;10;9.9;28.7;-1.0;
16/06/2019 05:12:25;117;0;34.39;17;20.11;7.93;67.2;9.40;68899;5123.606;-12841.591;53;150;156.4;57;57.1;5;5.0;28.8;-1.0;
16/06/2019 05:12:45;117;0;38.37;17;19.69;5.58;64.7;9.40;68904;5123.606;-12841.591;53;150;158.4;57;57.1;5;5.0;28.7;-1.0;
16/06/2019 05:13:05;117;0;37.16;17;20.00;5.76;62.3;9.40;68915;5123.606;-12841.591;53;150;156.4;57;57.1;5;5.0;28.8;-1.0;
16/06/2019 05:13:25;117;0;40.79;17;19.30;5.69;59.8;9.40;68937;5123.606;-12841.591;53;150;158.4;57;57.1;4;4.1;28.8;-1.0;
16/06/2019 05:13:45;117;0;42.35;17;19.16;5.12;57.5;9.40;68948;5123.606;-12841.591;53;150;158.4;57;57.1;3;3.2;28.7;-1.0;
16/06/2019 05:14:05;117;0;47.91;17;18.70;4.53;55.3;9.40;68966;5123.606;-12841.591;53;150;158.4;57;57.1;0;0.0;28.8;-1.0;
16/06/2019 05:14:25;117;0;48.30;17;19.16;3.20;53.1;9.40;68974;5123.606;-12841.591;53;150;158.4;57;57.1;1;0.9;28.7;-1.0;
16/06/2019 05:14:45;117;0;49.38;17;18.74;3.96;50.9;9.40;68994;5123.606;-12841.591;53;150;158.4;57;57.1;0;0.0;28.7;-1.0;
16/06/2019 05:15:05;117;0;47.71;17;18.82;3.19;48.8;9.50;69012;5123.606;-12841.591;53;150;158.4;57;57.1;2;1.8;28.8;-1.0;
16/06/2019 05:15:25;117;0;50.14;17;18.78;4.66;46.7;9.50;69013;5123.606;-12841.591;53;150;156.4;57;57.1;0;0.0;28.8;-1.0;
16/06/2019 05:15:45;117;0;49.85;17;18.78;3.23;44.5;9.50;69018;5123.606;-12841.591;53;150;156.4;57;57.1;0;-0.5;28.8;-1.0;
16/06/2019 05:16:05;117;0;53.15;17;18.86;3.15;42.3;9.50;69035;5123.606;-12841.591;53;150;158.4;57;57.1;-2;-1.8;28.8;-1.0;
16/06/2019 05:16:25;117;0;57.69;17;18.88;2.15;40.0;9.60;69050;5123.606;-12841.591;53;150;158.4;57;57.1;-4;-4.5;28.8;-1.0;
16/06/2019 05:16:45;117;0;57.17;17;18.57;1.09;37.7;9.60;69050;5123.606;-12841.591;53;150;156.4;57;57.2;-3;-3.2;28.7;-1.0;
16/06/2019 05:17:05;117;0;57.50;17;18.27;2.41;35.6;9.60;69062;5123.606;-12841.591;53;150;156.4;57;57.2;-3;-2.3;28.8;-1.0;
16/06/2019 05:17:25;117;0;56.81;17;18.29;2.43;33.5;9.60;69069;5123.606;-12841.591;53;150;158.4;57;57.1;-3;-2.3;28.8;-1.0;
16/06/2019 05:17:45;117;0;58.02;17;18.11;2.38;31.3;9.60;69099;5123.606;-12841.591;53;150;156.4;57;57.1;-5;-5.4;28.8;-1.0;
16/06/2019 05:18:05;117;0;56.77;17;18.48;0.64;29.1;9.60;69104;5123.606;-12841.591;53;150;158.4;57;57.1;-4;-4.1;28.8;-1.0;
16/06/2019 05:18:25;117;0;54.78;17;18.44;1.83;27.0;9.70;69101;5123.606;-12841.591;53;150;158.4;57;57.1;-4;-3.2;28.8;-1.0;
16/06/2019 05:18:45;117;0;51.71;17;18.06;1.89;24.8;9.70;69122;5123.606;-12841.591;53;150;158.4;57;57.1;-3;-3.2;28.8;-1.0;
16/06/2019 05:19:05;117;0;46.85;17;18.28;1.86;22.7;9.70;69116;5123.606;-12841.591;53;150;158.4;57;57.1;-1;-0.9;28.8;-1.0;
16/06/2019 05:19:25;117;0;51.82;17;18.00;3.37;20.6;9.70;69126;5123.606;-12841.591;53;150;158.4;57;57.1;-6;-5.9;28.8;-1.0;
16/06/2019 05:19:45;117;0;57.02;17;18.38;0.39;18.4;9.70;69140;5123.606;-12841.591;53;150;158.4;57;57.1;-10;-9.9;28.8;-1.0;
16/06/2019 05:20:05;117;0;54.97;17;16.47;-1.57;16.4;9.80;69177;5123.606;-12841.591;53;150;158.4;57;57.1;-8;-8.1;28.8;-1.0;
16/06/2019 05:20:25;117;0;50.44;17;15.90;-0.04;14.9;9.80;69209;5123.606;-12841.591;53;150;158.4;57;57.1;-6;-5.9;28.8;-1.0;
16/06/2019 05:20:45;117;0;48.81;17;16.18;1.10;13.5;9.90;69249;5123.606;-12841.591;53;150;158.4;57;57.2;-6;-5.0;28.8;-1.0;
16/06/2019 05:21:05;117;0;44.97;17;15.83;0.95;12.1;9.90;69276;5123.606;-12841.591;53;150;160.4;57;57.1;-5;-5.0;28.8;-1.0;
16/06/2019 05:21:25;117;0;38.46;17;16.42;1.09;10.6;9.90;69299;5123.606;-12841.591;53;150;158.4;57;57.1;-2;-1.8;28.8;-1.0;
