Timestamp;NavState;SecurityLevel;Heading;Declination;Pitch;Roll;Depth;Temperature;Pa;Lat;Lon;DesiredH;BallastCmd;BallastPos;LinCmd;LinPos;AngCmd;AngPos;Voltage;Altitude;
16/06/2019 10:29:50;117;0;61.40;17;15.85;3.50;9.4;11.00;69503;5125.179;-12837.774;52;150;156.4;57;57.1;-4;-4.1;28.7;-1.0;
16/06/2019 10:30:00;115;0;61.86;17;15.53;1.23;8.7;11.10;69517;5125.179;-12837.774;52;500;168.3;100;100.3;0;0.9;28.7;-1.0;
16/06/2019 10:30:10;115;0;65.74;17;-27.27;4.97;8.0;11.10;69442;5125.179;-12837.774;52;500;316.8;100;100.0;0;0.9;28.4;-1.0;
16/06/2019 10:30:20;115;0;46.76;17;-69.33;2.46;8.7;11.10;69241;5125.179;-12837.774;52;500;469.3;100;99.9;0;0.9;28.4;-1.0;
16/06/2019 10:30:30;115;0;34.94;17;-58.62;5.77;7.2;11.10;69000;5125.179;-12837.774;52;500;506.9;100;99.9;0;0.9;28.4;-1.0;
16/06/2019 10:30:40;115;0;0.54;17;-32.52;5.01;4.2;11.10;68968;5125.179;-12837.774;52;500;506.9;100;99.7;0;0.9;28.7;-1.0;
16/06/2019 10:30:50;116;0;322.72;17;-42.96;-11.90;1.4;11.20;68975;5125.173;-12837.806;52;500;506.9;100;99.9;0;0.9;28.7;-1.0;
16/06/2019 10:31:10;116;0;273.84;17;-18.86;3.47;1.4;11.20;68984;5125.172;-12837.807;52;500;506.9;100;99.7;0;0.9;28.7;-1.0;
16/06/2019 10:31:30;116;0;253.80;17;-18.47;6.25;1.5;11.30;68989;5125.170;-12837.807;52;500;508.9;100;99.7;0;0.9;28.7;-1.0;
16/06/2019 10:31:50;116;0;220.08;17;-14.54;2.05;1.4;11.40;69008;5125.166;-12837.810;52;500;508.9;100;99.7;0;0.9;28.7;-1.0;
16/06/2019 10:32:10;116;0;197.31;17;-13.77;4.94;1.4;11.50;69016;5125.166;-12837.810;52;500;506.9;100;99.7;0;0.9;28.7;-1.0;
16/06/2019 10:32:30;116;0;155.70;17;-9.94;7.16;1.3;11.60;69028;5125.161;-12837.814;50;500;508.9;100;99.7;0;0.9;28.7;-1.0;
16/06/2019 10:32:50;116;0;182.04;17;-21.27;-0.15;1.4;11.70;69038;5125.146;-12837.814;50;500;508.9;100;99.7;0;0.9;28.7;-1.0;
16/06/2019 10:33:45;116;0;174.64;17;-7.69;6.06;1.3;12.00;69049;5125.145;-12837.814;50;500;508.9;100;99.7;0;0.9;28.7;-1.0;
16/06/2019 10:34:05;116;0;178.57;17;-7.32;4.72;1.3;12.10;69064;5125.140;-12837.816;50;500;508.9;100;99.6;0;0.9;28.7;-1.0;
16/06/2019 10:34:25;116;0;205.44;17;-22.04;1.27;1.5;12.20;69060;5125.134;-12837.814;50;500;508.9;100;99.7;0;0.9;28.7;-1.0;
16/06/2019 10:34:45;116;0;188.87;17;-15.08;5.72;1.4;12.40;69069;5125.133;-12837.813;50;500;508.9;100;99.7;0;0.9;28.6;-1.0;
16/06/2019 10:35:05;116;0;195.78;17;-24.71;5.55;1.5;12.50;69077;5125.126;-12837.821;50;500;508.9;100;99.7;0;0.9;28.7;-1.0;
16/06/2019 10:35:25;116;0;178.39;17;-7.43;4.40;1.3;12.60;69091;5125.108;-12837.829;50;500;508.9;100;99.7;0;0.9;28.7;-1.0;
16/06/2019 10:36:35;116;0;161.53;17;-9.76;5.47;1.3;13.10;69106;5125.108;-12837.828;50;500;508.9;100;99.7;0;0.9;28.7;-1.0;
16/06/2019 10:36:55;116;0;168.11;17;-29.41;5.00;1.6;13.30;69102;5125.102;-12837.831;50;500;508.9;100;99.7;0;0.9;28.7;-1.0;
16/06/2019 10:37:15;116;0;165.69;17;-10.33;1.98;1.4;13.40;69110;5125.100;-12837.822;50;500;508.9;100;99.7;0;0.9;28.7;-1.0;
16/06/2019 10:37:48;116;0;174.29;17;-6.31;2.44;1.4;13.60;69118;5125.100;-12837.821;50;500;508.9;100;99.9;0;0.9;28.6;-1.0;
16/06/2019 10:38:08;116;0;170.45;17;-5.73;-1.05;1.3;13.70;69126;5125.096;-12837.820;50;500;508.9;100;99.7;0;0.9;28.6;-1.0;
16/06/2019 10:38:28;116;0;163.96;17;-6.75;1.70;1.4;13.80;69123;5125.067;-12837.842;50;500;506.9;100;99.7;0;0.9;28.7;-1.0;
16/06/2019 10:39:35;116;0;169.26;17;-6.57;-0.70;1.3;14.20;69135;5125.066;-12837.843;50;500;506.9;100;99.7;0;0.9;28.7;-1.0;
16/06/2019 10:39:55;116;0;167.09;17;-9.06;3.71;1.3;14.30;69133;5125.063;-12837.844;50;500;508.9;100;99.7;0;0.9;28.7;-1.0;
16/06/2019 10:40:15;116;0;167.24;17;-4.35;3.02;1.3;14.40;69145;5125.057;-12837.846;50;500;508.9;100;99.7;0;0.9;28.7;-1.0;
16/06/2019 10:40:35;116;0;173.87;17;-7.09;3.79;1.3;14.40;69152;5125.053;-12837.848;50;500;508.9;100;99.7;0;0.9;28.7;-1.0;
16/06/2019 10:40:55;110;0;178.30;17;-6.68;3.27;1.3;14.50;69150;5125.053;-12837.848;50;-300;423.8;100;99.7;0;0.9;28.7;-1.0;
16/06/2019 10:41:05;110;0;166.81;17;-9.42;3.26;1.4;14.50;69369;5125.053;-12837.848;50;-300;283.2;100;99.7;0;0.9;28.6;-1.0;
16/06/2019 10:41:16;110;0;180.35;17;-7.72;3.34;1.3;14.50;69554;5125.053;-12837.848;50;-300;142.6;100;99.7;0;0.9;28.7;-1.0;
16/06/2019 10:41:26;110;0;164.68;17;-16.55;5.92;1.4;14.50;69779;5125.053;-12837.848;50;-300;-11.9;100;99.9;0;0.9;28.6;-1.0;
16/06/2019 10:41:36;110;0;166.66;17;-44.97;5.83;2.2;14.50;70028;5125.053;-12837.848;50;-300;-200.0;99;98.8;0;0.9;28.6;-1.0;
16/06/2019 10:41:46;110;0;159.44;17;-62.15;3.86;4.1;14.50;70346;5125.053;-12837.848;50;-300;-301.0;82;81.7;0;0.9;28.6;-1.0;
16/06/2019 10:41:56;110;0;173.26;17;-50.10;3.92;6.9;14.50;70477;5125.053;-12837.848;50;-300;-301.0;73;73.0;0;0.9;28.7;-1.0;
16/06/2019 10:42:06;100;0;170.59;17;-37.87;4.06;10.3;14.50;70473;5125.053;-12837.848;50;-300;-301.0;73;72.9;0;0.9;28.7;-1.0;
16/06/2019 10:42:26;100;0;168.70;17;-27.88;4.16;15.8;14.50;70481;5125.053;-12837.848;50;-300;-297.0;73;72.9;45;45.1;28.7;0.0;
16/06/2019 10:42:46;100;0;147.35;17;-23.37;25.35;20.7;14.50;70461;5125.053;-12837.848;50;-300;-297.0;73;72.9;45;45.6;28.7;0.0;
16/06/2019 10:43:06;100;0;133.61;17;-23.34;25.21;24.7;14.40;70430;5125.053;-12837.848;50;-300;-295.0;73;72.9;35;35.2;28.7;0.0;
16/06/2019 10:43:26;100;0;119.04;17;-23.16;19.52;28.5;14.40;70390;5125.053;-12837.848;50;-300;-295.0;73;72.9;27;27.1;28.7;0.0;
16/06/2019 10:43:46;100;0;105.25;17;-23.48;15.62;32.2;14.30;70346;5125.053;-12837.848;50;-300;-295.0;73;72.9;21;21.2;28.7;0.0;
16/06/2019 10:44:06;100;0;91.13;17;-24.08;12.48;35.9;14.30;70305;5125.053;-12837.848;50;-300;-295.0;73;72.7;17;17.1;28.7;0.0;
16/06/2019 10:44:26;100;0;78.20;17;-23.60;11.13;39.6;14.20;70268;5125.053;-12837.848;50;-300;-295.0;73;72.9;14;14.0;28.7;0.0;
16/06/2019 10:44:46;100;0;66.17;17;-23.87;9.30;43.3;14.10;70235;5125.053;-12837.848;50;-300;-295.0;73;72.9;12;12.2;28.7;0.0;
16/06/2019 10:45:06;100;0;55.79;17;-23.86;8.44;46.9;14.00;70218;5125.053;-12837.848;50;-300;-293.1;73;72.7;10;9.9;28.7;0.0;
16/06/2019 10:45:26;100;0;47.02;17;-23.96;7.40;50.5;14.00;70198;5125.053;-12837.848;50;-300;-295.0;73;72.7;10;9.0;28.7;0.0;
16/06/2019 10:45:46;100;0;39.55;17;-24.53;7.24;54.0;13.90;70179;5125.053;-12837.848;50;-300;-295.0;73;72.9;9;9.0;28.7;0.0;
16/06/2019 10:46:06;100;0;31.19;17;-23.69;7.31;57.7;13.80;70153;5125.053;-12837.848;50;-300;-295.0;73;72.9;9;9.0;28.7;0.0;
16/06/2019 10:46:26;100;0;22.28;17;-23.29;7.22;61.3;13.70;70128;5125.053;-12837.848;50;-300;-293.1;73;72.9;6;5.4;28.7;0.0;
16/06/2019 10:46:46;100;0;14.84;17;-23.28;5.40;64.9;13.70;70107;5125.053;-12837.848;50;-300;-293.1;73;72.7;4;3.6;28.7;0.0;
16/06/2019 10:47:06;100;0;7.78;17;-23.23;4.73;68.2;13.60;70089;5125.053;-12837.848;50;-300;-293.1;73;72.7;2;1.4;28.7;0.0;
16/06/2019 10:47:26;100;0;4.85;17;-24.30;3.49;71.5;13.60;70058;5125.053;-12837.848;50;-300;-295.0;73;72.7;3;3.2;28.7;0.0;
16/06/2019 10:47:46;100;0;0.73;17;-23.75;4.78;75.0;13.50;70036;5125.053;-12837.848;50;-300;-293.1;73;72.9;2;1.8;28.7;0.0;
16/06/2019 10:48:06;100;0;359.56;17;-23.94;3.79;78.4;13.40;70025;5125.053;-12837.848;50;-300;-295.0;73;72.7;2;1.4;28.7;0.0;
16/06/2019 10:48:26;100;0;351.44;17;-23.31;3.77;81.9;13.30;70001;5125.053;-12837.848;50;-300;-293.1;73;72.7;-1;-1.4;28.7;0.0;
16/06/2019 10:48:46;100;0;346.67;17;-23.02;2.49;85.4;13.30;69993;5125.053;-12837.848;50;-300;-293.1;73;72.7;-3;-3.6;28.7;0.0;
16/06/2019 10:49:06;100;0;340.36;17;-23.45;1.32;88.8;13.20;69975;5125.053;-12837.848;50;-300;-293.1;73;72.7;-7;-7.2;28.7;0.0;
16/06/2019 10:49:26;100;0;334.49;17;-23.37;-0.09;92.1;13.10;69964;5125.053;-12837.848;50;-300;-295.0;73;72.7;-11;-10.8;28.7;0.0;
16/06/2019 10:49:46;100;0;328.94;17;-23.69;-2.07;95.3;13.10;69937;5125.053;-12837.848;50;-300;-293.1;73;72.7;-15;-15.3;28.7;0.0;
16/06/2019 10:50:06;100;0;331.50;17;-23.10;-3.83;98.5;13.00;69936;5125.053;-12837.848;50;-300;-293.1;73;72.7;-13;-12.6;28.7;0.0;
16/06/2019 10:50:26;100;0;326.69;17;-23.26;-2.24;101.6;13.00;69924;5125.053;-12837.848;50;-300;-293.1;73;72.7;-18;-18.1;28.7;0.0;
16/06/2019 10:50:46;100;0;323.19;17;-23.01;-5.14;104.4;12.90;69910;5125.053;-12837.848;50;-300;-291.1;73;72.7;-21;-21.7;28.7;0.0;
16/06/2019 10:51:06;100;0;323.88;17;-23.08;-6.70;107.1;12.80;69903;5125.053;-12837.848;50;-300;-293.1;73;72.7;-23;-23.0;28.7;0.0;
16/06/2019 10:51:26;100;0;322.81;17;-22.99;-7.54;109.9;12.80;69894;5125.053;-12837.848;50;-300;-293.1;73;72.7;-26;-26.2;28.7;0.0;
16/06/2019 10:51:46;100;0;330.72;17;-21.94;-8.98;112.6;12.70;69882;5125.053;-12837.848;50;-300;-293.1;73;72.7;-23;-23.0;28.7;0.0;
16/06/2019 10:52:06;100;0;332.74;17;-21.86;-6.87;115.1;12.60;69872;5125.053;-12837.848;50;-300;-291.1;73;72.7;-24;-23.9;28.7;0.0;
16/06/2019 10:52:26;100;0;331.32;17;-22.16;-8.06;117.6;12.60;69851;5125.053;-12837.848;50;-300;-293.1;73;72.7;-26;-26.2;28.7;0.0;
16/06/2019 10:52:46;100;0;327.52;17;-22.10;-8.94;120.0;12.60;69850;5125.053;-12837.848;50;-300;-291.1;73;72.7;-29;-29.3;28.8;0.0;
16/06/2019 10:53:06;100;0;333.32;17;-21.13;-10.43;122.6;12.50;69836;5125.053;-12837.848;50;-300;-293.1;73;72.7;-25;-24.8;28.7;0.0;
16/06/2019 10:53:26;100;0;334.54;17;-21.16;-7.79;125.0;12.40;69829;5125.053;-12837.848;50;-300;-293.1;73;72.7;-25;-23.9;28.7;0.0;
16/06/2019 10:53:46;100;0;338.38;17;-21.05;-7.87;127.3;12.40;69813;5125.053;-12837.848;50;-300;-293.1;73;72.7;-23;-22.6;28.7;0.0;
16/06/2019 10:54:06;100;0;341.04;17;-20.96;-6.99;129.8;12.30;69808;5125.053;-12837.848;50;-300;-293.1;73;72.7;-23;-22.1;28.7;0.0;
16/06/2019 10:54:26;100;0;347.44;17;-20.49;-7.05;132.0;12.30;69796;5125.053;-12837.848;50;-300;-291.1;73;72.7;-20;-19.9;28.7;0.0;
16/06/2019 10:54:46;100;0;351.03;17;-20.17;-5.48;134.4;12.20;69780;5125.053;-12837.848;50;-300;-293.1;73;72.7;-20;-19.4;28.7;0.0;
16/06/2019 10:55:06;100;0;354.67;17;-19.90;-5.47;136.7;12.10;69772;5125.053;-12837.848;50;-300;-293.1;73;72.7;-19;-19.0;28.7;0.0;
16/06/2019 10:55:26;100;0;356.75;17;-19.64;-5.45;139.0;12.10;69755;5125.053;-12837.848;50;-300;-293.1;73;72.7;-20;-19.9;28.7;0.0;
16/06/2019 10:55:46;100;0;356.45;17;-19.58;-5.89;141.3;12.00;69744;5125.053;-12837.848;50;-300;-293.1;73;72.7;-21;-21.7;28.7;0.0;
16/06/2019 10:56:06;100;0;357.17;17;-19.42;-6.77;143.6;12.00;69730;5125.053;-12837.848;50;-300;-291.1;73;72.7;-21;-22.1;28.7;0.0;
16/06/2019 10:56:26;100;0;355.91;17;-19.55;-6.79;145.9;11.90;69724;5125.053;-12837.848;50;-300;-291.1;73;72.7;-22;-22.1;28.7;0.0;
16/06/2019 10:56:46;100;0;351.81;17;-19.39;-6.79;148.2;11.80;69706;5125.053;-12837.848;50;-300;-291.1;73;72.7;-24;-23.9;28.7;0.0;
16/06/2019 10:57:06;100;0;349.95;17;-19.70;-7.85;150.5;11.80;69702;5125.053;-12837.848;50;-300;-293.1;73;72.7;-25;-24.8;28.7;0.0;
16/06/2019 10:57:26;100;0;352.09;17;-19.04;-8.41;152.7;11.70;69680;5125.053;-12837.848;50;-300;-291.1;73;72.7;-22;-21.7;28.7;0.0;
16/06/2019 10:57:46;100;0;352.31;17;-18.91;-6.30;154.9;11.70;69682;5125.053;-12837.848;50;-300;-293.1;73;72.7;-22;-20.8;28.7;0.0;
16/06/2019 10:58:06;100;0;351.65;17;-18.45;-6.36;157.2;11.60;69669;5125.053;-12837.848;50;-300;-291.1;73;72.7;-23;-23.5;28.7;0.0;
16/06/2019 10:58:26;100;0;353.42;17;-18.58;-7.65;159.3;11.50;69651;5125.053;-12837.848;50;-300;-293.1;73;72.7;-22;-22.1;28.7;0.0;
16/06/2019 10:58:46;100;0;352.15;17;-18.67;-6.59;161.3;11.50;69635;5125.053;-12837.848;50;-300;-291.1;73;72.7;-23;-23.0;28.7;0.0;
16/06/2019 10:59:06;100;0;353.45;17;-18.91;-7.77;163.3;11.40;69619;5125.053;-12837.848;50;-300;-291.1;73;72.7;-22;-22.1;28.7;0.0;
16/06/2019 10:59:26;100;0;353.87;17;-19.00;-6.79;165.2;11.40;69602;5125.053;-12837.848;50;-300;-291.1;73;72.7;-22;-21.7;28.7;0.0;
16/06/2019 10:59:46;100;0;353.61;17;-18.88;-6.79;167.1;11.30;69597;5125.053;-12837.848;50;-300;-291.1;73;72.7;-22;-21.7;28.7;0.0;
16/06/2019 11:00:06;100;0;353.23;17;-18.76;-6.81;169.2;11.30;69595;5125.053;-12837.848;50;-300;-291.1;73;72.7;-22;-21.7;28.7;16.2;
16/06/2019 11:00:26;118;0;352.81;17;-19.16;-6.69;171.0;11.20;69573;5125.053;-12837.848;50;150;-275.2;57;56.8;0;0.5;28.7;0.0;
16/06/2019 11:00:36;118;0;30.16;17;3.01;3.98;171.8;11.20;69497;5125.053;-12837.848;50;150;-118.8;57;57.1;0;0.5;28.2;0.0;
16/06/2019 11:00:46;118;0;26.76;17;20.74;3.51;171.5;11.20;69289;5125.053;-12837.848;50;150;37.6;57;56.9;0;0.5;28.1;-1.0;
16/06/2019 11:00:56;118;0;26.86;17;24.26;3.69;170.7;11.10;69024;5125.053;-12837.848;50;150;156.4;57;57.1;0;0.5;28.2;-1.0;
16/06/2019 11:01:06;118;0;344.80;17;25.12;3.63;169.4;11.10;68846;5125.053;-12837.848;50;150;154.5;57;56.9;0;0.5;28.7;-1.0;
16/06/2019 11:01:16;118;0;345.59;17;27.25;3.67;167.6;11.10;68858;5125.053;-12837.848;50;150;156.4;57;56.9;0;0.5;28.7;-1.0;
16/06/2019 11:01:26;117;0;346.91;17;28.09;3.66;165.6;11.10;68846;5125.053;-12837.848;50;150;156.4;57;57.1;0;0.5;28.7;-1.0;
16/06/2019 11:01:46;117;0;347.06;17;28.49;3.71;161.3;11.00;68843;5125.053;-12837.848;50;150;156.4;57;56.9;26;26.2;28.6;-1.0;
16/06/2019 11:02:06;117;0;354.24;17;27.53;16.65;156.1;11.00;68843;5125.053;-12837.848;50;150;156.4;57;56.9;21;21.2;28.7;-1.0;
16/06/2019 11:02:26;117;0;0.58;17;26.97;13.38;152.0;10.90;68847;5125.053;-12837.848;50;150;156.4;57;56.9;18;18.1;28.7;-1.0;
16/06/2019 11:02:46;117;0;7.33;17;26.86;11.85;147.9;10.90;68859;5125.053;-12837.848;50;150;156.4;57;56.9;15;14.9;28.7;-1.0;
16/06/2019 11:03:06;117;0;18.79;17;26.52;10.21;144.0;10.80;68865;5125.053;-12837.848;50;150;156.4;57;56.9;11;10.8;28.7;-1.0;
16/06/2019 11:03:26;117;0;20.72;17;26.48;7.96;140.0;10.80;68868;5125.053;-12837.848;50;150;156.4;57;56.9;13;13.1;28.7;-1.0;
16/06/2019 11:03:46;117;0;19.69;17;26.96;9.92;136.0;10.70;68877;5125.053;-12837.848;50;150;156.4;57;56.9;16;15.8;28.7;-1.0;
16/06/2019 11:04:06;117;0;16.79;17;27.00;11.34;131.9;10.70;68884;5125.053;-12837.848;50;150;156.4;57;56.9;18;18.1;28.7;-1.0;
16/06/2019 11:04:26;117;0;13.66;17;27.34;12.92;127.5;10.70;68892;5125.053;-12837.848;50;150;158.4;57;56.9;20;19.9;28.7;-1.0;
16/06/2019 11:04:46;117;0;23.38;17;26.12;13.59;123.0;10.60;68902;5125.053;-12837.848;50;150;158.4;57;56.9;13;13.1;28.7;-1.0;
16/06/2019 11:05:06;117;0;34.73;17;25.22;9.22;118.9;10.60;68910;5125.053;-12837.848;50;150;156.4;57;57.1;13;12.2;28.7;-1.0;
16/06/2019 11:05:26;117;0;39.75;17;23.99;9.03;115.2;10.60;68914;5125.053;-12837.848;50;150;158.4;57;56.9;8;8.1;28.7;-1.0;
16/06/2019 11:05:46;117;0;50.14;17;24.47;6.93;111.7;10.60;68927;5125.053;-12837.848;50;150;158.4;57;56.9;4;4.1;28.7;-1.0;
16/06/2019 11:06:06;117;0;52.88;17;23.31;4.94;107.9;10.50;68934;5125.053;-12837.848;50;150;156.4;57;56.9;5;5.0;28.7;-1.0;
16/06/2019 11:06:26;117;0;53.78;17;22.63;6.04;104.7;10.50;68952;5125.053;-12837.848;50;150;156.4;57;56.9;6;5.9;28.7;-1.0;
16/06/2019 11:06:46;117;0;60.18;17;21.90;5.96;101.7;10.50;68948;5125.053;-12837.848;50;150;158.4;57;56.9;3;3.2;28.7;-1.0;
16/06/2019 11:07:06;117;0;60.88;17;21.57;4.57;98.9;10.50;68960;5125.053;-12837.848;50;150;158.4;57;56.9;4;4.1;28.7;-1.0;
16/06/2019 11:07:26;117;0;61.26;17;21.56;5.14;96.2;10.50;68958;5125.053;-12837.848;50;150;156.4;57;56.9;4;4.1;28.7;-1.0;
16/06/2019 11:07:46;117;0;61.55;17;21.28;5.54;93.6;10.50;68967;5125.053;-12837.848;50;150;160.4;57;56.9;4;4.1;28.7;-1.0;
16/06/2019 11:08:06;117;0;66.79;17;21.28;5.49;91.1;10.50;68986;5125.053;-12837.848;50;150;156.4;57;56.9;1;0.9;28.7;-1.0;
16/06/2019 11:08:26;117;0;64.53;17;20.44;3.74;88.8;10.40;68983;5125.053;-12837.848;50;150;156.4;57;56.9;2;1.8;28.7;-1.0;
16/06/2019 11:08:46;117;0;65.60;17;20.68;4.13;86.6;10.40;68991;5125.053;-12837.848;50;150;156.4;57;56.9;1;0.9;28.7;-1.0;
16/06/2019 11:09:06;117;0;61.68;17;20.50;3.39;84.5;10.40;68994;5125.053;-12837.848;50;150;156.4;57;56.9;3;3.2;28.7;-1.0;
16/06/2019 11:09:26;117;0;59.84;17;20.62;5.20;82.1;10.40;68998;5125.053;-12837.848;50;150;158.4;57;56.9;3;4.1;28.7;-1.0;
16/06/2019 11:09:46;117;0;60.53;17;20.91;5.38;79.8;10.40;69010;5125.053;-12837.848;50;150;158.4;57;56.9;1;0.5;28.7;-1.0;
16/06/2019 11:10:06;117;0;58.48;17;20.71;3.49;77.2;10.40;69012;5125.053;-12837.848;50;150;156.4;57;56.9;2;1.8;28.7;-1.0;
16/06/2019 11:10:27;117;0;56.73;17;20.83;4.48;74.7;10.40;69018;5125.053;-12837.848;50;150;158.4;57;56.9;2;2.3;28.7;-1.0;
16/06/2019 11:10:47;117;0;63.62;17;19.85;4.30;72.2;10.40;69040;5125.053;-12837.848;50;150;158.4;57;56.9;-2;-1.8;28.7;-1.0;
16/06/2019 11:11:07;117;0;65.73;17;19.72;2.15;69.8;10.40;69053;5125.053;-12837.848;50;150;156.4;57;56.9;-3;-3.2;28.7;-1.0;
16/06/2019 11:11:27;117;0;65.87;17;19.66;1.52;67.7;10.40;69070;5125.053;-12837.848;50;150;158.4;57;56.9;-3;-3.6;28.7;-1.0;
16/06/2019 11:11:47;117;0;64.70;17;19.34;1.49;65.6;10.40;69074;5125.053;-12837.848;50;150;156.4;57;56.9;-2;-1.4;28.7;-1.0;
16/06/2019 11:12:07;117;0;65.03;17;19.44;2.96;63.6;10.40;69067;5125.053;-12837.848;50;150;156.4;57;56.9;-4;-4.1;28.7;-1.0;
16/06/2019 11:12:27;117;0;65.35;17;19.24;1.18;61.4;10.40;69090;5125.053;-12837.848;50;150;156.4;57;56.9;-4;-4.1;28.7;-1.0;
16/06/2019 11:12:47;117;0;64.06;17;19.06;1.24;59.4;10.40;69106;5125.053;-12837.848;50;150;158.4;57;56.9;-4;-4.1;28.7;-1.0;
16/06/2019 11:13:07;117;0;63.95;17;18.99;1.20;57.3;10.40;69114;5125.053;-12837.848;50;150;158.4;57;56.9;-4;-4.1;28.7;-1.0;
16/06/2019 11:13:27;117;0;62.15;17;18.63;1.15;55.4;10.40;69120;5125.053;-12837.848;50;150;158.4;57;56.9;-4;-4.1;28.7;-1.0;
16/06/2019 11:13:47;117;0;59.77;17;20.10;0.68;53.5;10.50;69141;5125.053;-12837.848;50;150;158.4;57;56.9;-4;-4.1;28.7;-1.0;
16/06/2019 11:14:07;117;0;57.54;17;19.02;0.92;51.5;10.50;69144;5125.053;-12837.848;50;150;158.4;57;56.9;-4;-4.1;28.7;-1.0;
16/06/2019 11:14:27;117;0;55.44;17;19.70;1.11;49.4;10.50;69158;5125.053;-12837.848;50;150;158.4;57;56.9;-4;-4.1;28.7;-1.0;
16/06/2019 11:14:47;117;0;50.95;17;19.04;1.29;47.2;10.50;69151;5125.053;-12837.848;50;150;158.4;57;56.9;-2;-1.8;28.7;-1.0;
16/06/2019 11:15:07;117;0;50.11;17;18.90;2.71;45.1;10.50;69159;5125.053;-12837.848;50;150;156.4;57;56.9;-4;-4.5;28.7;-1.0;
16/06/2019 11:15:27;117;0;48.69;17;18.70;0.93;43.0;10.50;69175;5125.053;-12837.848;50;150;158.4;57;56.9;-4;-4.5;28.7;-1.0;
16/06/2019 11:15:47;117;0;44.96;17;18.67;0.91;41.0;10.50;69173;5125.053;-12837.848;50;150;158.4;57;56.9;-3;-3.2;28.7;-1.0;
16/06/2019 11:16:07;117;0;40.45;17;18.79;2.12;39.0;10.50;69188;5125.053;-12837.848;50;150;158.4;57;56.9;-2;-1.8;28.7;-1.0;
16/06/2019 11:16:27;117;0;38.49;17;18.51;2.75;36.9;10.50;69203;5125.053;-12837.848;50;150;158.4;57;57.1;-3;-3.2;28.7;-1.0;
16/06/2019 11:16:47;117;0;39.46;17;18.80;1.48;34.8;10.60;69222;5125.053;-12837.848;50;150;156.4;57;56.9;-4;-4.1;28.7;-1.0;
16/06/2019 11:17:07;117;0;29.72;17;18.01;0.98;32.7;10.60;69224;5125.053;-12837.848;50;150;158.4;57;56.9;-4;-4.5;28.7;-1.0;
16/06/2019 11:17:27;117;0;27.52;17;17.49;0.96;30.9;10.60;69250;5125.053;-12837.848;50;150;158.4;57;56.9;0;0.0;28.7;-1.0;
16/06/2019 11:17:47;117;0;31.08;17;16.82;3.70;29.2;10.60;69279;5125.053;-12837.848;50;150;158.4;57;56.9;-4;-4.1;28.8;-1.0;
16/06/2019 11:18:07;117;0;32.92;17;17.06;1.07;27.5;10.60;69289;5125.053;-12837.848;50;150;158.4;57;56.9;-4;-4.5;28.7;-1.0;
16/06/2019 11:18:27;117;0;34.98;17;16.70;1.09;25.9;10.70;69325;5125.053;-12837.848;50;150;158.4;57;56.9;-4;-4.5;28.7;-1.0;
16/06/2019 11:18:47;117;0;36.48;17;16.30;1.09;24.3;10.70;69339;5125.053;-12837.848;50;150;160.4;57;56.9;-5;-5.4;28.7;-1.0;
16/06/2019 11:19:07;117;0;33.66;17;16.24;0.72;22.8;10.70;69372;5125.053;-12837.848;50;150;158.4;57;56.9;-5;-5.4;28.7;-1.0;
16/06/2019 11:19:27;117;0;31.64;17;15.98;0.52;21.2;10.80;69413;5125.053;-12837.848;50;150;158.4;57;56.9;-5;-5.4;28.7;-1.0;
16/06/2019 11:19:47;117;0;30.62;17;16.19;0.49;19.6;10.80;69427;5125.053;-12837.848;50;150;160.4;57;56.9;-5;-5.9;28.7;-1.0;
16/06/2019 11:20:07;117;0;30.01;17;16.03;0.50;17.7;10.90;69454;5125.053;-12837.848;50;150;158.4;57;56.9;-5;-5.9;28.7;-1.0;
16/06/2019 11:20:27;117;0;28.70;17;16.67;0.60;15.9;10.90;69470;5125.053;-12837.848;50;150;158.4;57;56.9;-2;-1.4;28.7;-1.0;
16/06/2019 11:20:47;117;0;27.76;17;16.00;2.83;14.1;10.90;69488;5125.053;-12837.848;50;150;158.4;57;56.9;-1;-0.9;28.7;-1.0;
16/06/2019 11:21:07;117;0;27.87;17;16.54;2.75;12.5;11.00;69495;5125.053;-12837.848;50;150;158.4;57;56.9;-2;-2.3;28.7;-1.0;
16/06/2019 11:21:27;117;0;27.64;17;16.19;2.24;10.7;11.00;69510;5125.053;-12837.848;50;150;158.4;57;56.9;-2;-2.7;28.7;-1.0;
