Timestamp;NavState;SecurityLevel;Heading;Declination;Pitch;Roll;Depth;Temperature;Pa;Lat;Lon;DesiredH;BallastCmd;BallastPos;LinCmd;LinPos;AngCmd;AngPos;Voltage;Altitude;
16/06/2019 01:56:16;117;0;324.85;17;16.10;2.50;8.6;10.50;69503;5122.438;-12841.101;339;150;158.4;57;57.1;-1;-1.8;28.8;-1.0;
16/06/2019 01:56:26;115;0;324.02;17;16.05;2.73;7.6;10.60;69509;5122.438;-12841.101;339;500;170.3;100;100.1;0;0.9;28.8;-1.0;
16/06/2019 01:56:36;115;0;1.08;17;-22.83;4.52;7.1;10.60;69430;5122.438;-12841.101;339;500;320.8;100;99.9;0;0.9;28.4;-1.0;
16/06/2019 01:56:46;115;0;354.97;17;-59.98;4.41;8.0;10.60;69238;5122.438;-12841.101;339;500;471.3;100;100.0;0;0.9;28.4;-1.0;
16/06/2019 01:56:56;115;0;350.42;17;-58.79;2.76;7.2;10.70;68999;5122.438;-12841.101;339;500;505.0;100;99.9;0;0.9;28.5;-1.0;
16/06/2019 01:57:06;115;0;319.92;17;-28.33;4.91;4.7;10.70;68960;5122.438;-12841.101;339;500;506.9;100;99.9;0;0.9;28.8;-1.0;
16/06/2019 01:57:16;116;0;288.85;17;-67.35;7.42;1.8;10.70;68968;5122.438;-12841.101;339;500;506.9;100;100.0;0;0.9;28.8;-1.0;
16/06/2019 01:57:36;116;0;228.49;17;-22.94;4.28;1.5;10.80;69012;5122.438;-12841.101;339;500;508.9;100;99.9;0;0.9;28.8;-1.0;
16/06/2019 01:57:56;116;0;177.12;17;-4.78;2.38;1.3;10.90;69023;5122.438;-12841.101;339;500;508.9;100;99.7;0;0.9;28.8;-1.0;
16/06/2019 01:58:16;116;0;181.72;17;-13.65;4.72;1.4;11.00;69038;5122.438;-12841.101;339;500;508.9;100;99.7;0;0.9;28.8;-1.0;
16/06/2019 01:58:36;116;0;161.41;17;-9.77;2.96;1.3;11.10;69062;5122.438;-12841.101;339;500;508.9;100;99.9;0;0.9;28.8;-1.0;
16/06/2019 01:59:55;116;0;168.76;17;-6.25;3.92;1.4;11.80;69106;5122.438;-12841.101;339;500;508.9;100;99.7;0;0.9;28.8;-1.0;
16/06/2019 02:00:15;116;0;159.53;17;-8.11;2.84;1.3;11.90;69118;5122.438;-12841.101;339;500;508.9;100;99.7;0;0.9;28.8;-1.0;
16/06/2019 02:00:35;116;0;168.33;17;-6.07;0.19;1.3;12.00;69120;5122.438;-12841.101;339;500;508.9;100;99.7;0;0.9;28.8;-1.0;
16/06/2019 02:01:09;116;0;161.78;17;-5.17;2.29;1.3;12.30;69145;5122.438;-12841.101;339;500;510.9;100;99.9;0;0.9;28.8;-1.0;
16/06/2019 02:01:29;116;0;162.88;17;-7.42;2.46;1.3;12.40;69138;5122.438;-12841.101;339;500;510.9;100;99.7;0;0.9;28.7;-1.0;
16/06/2019 02:01:49;116;0;152.71;17;-7.27;7.34;1.3;12.60;69162;5122.438;-12841.101;339;500;508.9;100;99.7;0;0.9;28.8;-1.0;
16/06/2019 02:03:03;116;0;168.08;17;-23.62;1.17;1.5;13.20;69184;5122.438;-12841.101;339;500;508.9;100;99.9;0;0.9;28.8;-1.0;
16/06/2019 02:03:23;116;0;182.25;17;-18.06;3.46;1.4;13.40;69195;5122.438;-12841.101;339;500;508.9;100;99.9;0;0.9;28.8;-1.0;
16/06/2019 02:03:43;116;0;168.00;17;-8.44;2.50;1.3;13.50;69195;5122.438;-12841.101;339;500;510.9;100;99.7;0;0.9;28.8;-1.0;
16/06/2019 02:04:27;116;0;162.57;17;-8.93;0.65;1.4;13.80;69210;5122.438;-12841.101;339;500;508.9;100;99.9;0;0.9;28.8;-1.0;
16/06/2019 02:04:47;116;0;171.18;17;-7.54;1.36;1.3;13.90;69213;5122.438;-12841.101;339;500;508.9;100;99.7;0;0.9;28.8;-1.0;
16/06/2019 02:05:07;116;0;152.96;17;-7.59;0.55;1.3;14.10;69220;5122.438;-12841.101;339;500;508.9;100;99.7;0;0.9;28.8;-1.0;
16/06/2019 02:05:27;116;0;169.05;17;-4.00;1.18;1.4;14.20;69243;5122.438;-12841.101;339;500;508.9;100;99.7;0;0.9;28.8;-1.0;
16/06/2019 02:05:47;116;0;168.88;17;-5.53;-0.03;1.3;14.20;69224;5121.433;-12842.306;339;500;508.9;100;99.7;0;0.9;28.8;-1.0;
16/06/2019 02:06:07;116;0;173.20;17;-5.57;4.18;1.3;14.30;69223;5122.843;-12841.852;4;500;508.9;100;99.7;0;0.9;28.8;-1.0;
16/06/2019 02:06:27;116;0;162.69;17;-7.34;0.63;1.3;14.40;69234;5122.843;-12841.846;4;500;508.9;100;99.7;0;0.9;28.8;-1.0;
16/06/2019 02:06:47;116;0;155.23;17;-6.80;2.14;1.3;14.40;69239;5122.842;-12841.839;4;500;508.9;100;99.7;0;0.9;28.8;-1.0;
16/06/2019 02:07:07;116;0;164.79;17;-6.26;1.96;1.3;14.50;69251;5122.841;-12841.833;4;500;508.9;100;99.9;0;0.9;28.8;-1.0;
16/06/2019 02:07:27;116;0;175.95;17;-8.41;2.14;1.3;14.50;69249;5122.842;-12841.829;354;500;508.9;100;99.7;0;0.9;28.8;-1.0;
16/06/2019 02:07:47;116;0;170.02;17;-4.24;2.68;1.3;14.60;69257;5122.842;-12841.823;354;500;510.9;100;99.7;0;0.9;28.8;-1.0;
16/06/2019 02:08:07;110;0;165.35;17;-5.42;6.97;1.3;14.70;69262;5122.842;-12841.823;354;-300;409.9;100;99.7;0;0.9;28.8;-1.0;
16/06/2019 02:08:17;110;0;148.51;17;-7.14;0.66;1.4;14.70;69502;5122.842;-12841.823;354;-300;265.3;100;99.7;0;0.9;28.6;-1.0;
16/06/2019 02:08:27;110;0;152.67;17;-8.04;2.57;1.3;14.70;69689;5122.842;-12841.823;354;-300;128.7;100;99.7;0;0.9;28.7;-1.0;
16/06/2019 02:08:37;110;0;157.22;17;-7.67;0.37;1.3;14.70;69903;5122.842;-12841.823;354;-300;-11.9;100;99.7;0;0.9;28.7;-1.0;
16/06/2019 02:08:47;110;0;156.07;17;-10.99;2.39;1.4;14.70;70138;5122.842;-12841.823;354;-300;-154.5;99;98.8;0;0.9;28.7;-1.0;
16/06/2019 02:08:57;110;0;156.33;17;-30.81;3.99;1.9;14.70;70388;5122.842;-12841.823;354;-300;-303.0;86;85.8;0;0.9;28.8;-1.0;
16/06/2019 02:09:07;110;0;171.98;17;-46.62;2.62;3.9;14.70;70606;5122.842;-12841.823;354;-300;-303.0;73;72.9;0;0.9;28.8;-1.0;
16/06/2019 02:09:17;100;0;174.37;17;-40.61;4.81;6.9;14.70;70594;5122.842;-12841.823;354;-300;-303.0;73;72.7;0;0.9;28.7;-1.0;
16/06/2019 02:09:37;100;0;178.45;17;-28.28;4.10;12.6;14.70;70572;5122.842;-12841.823;354;-300;-299.0;73;72.7;-45;-45.1;28.8;0.0;
16/06/2019 02:09:57;100;0;175.93;17;-27.35;-17.29;17.6;14.70;70524;5122.842;-12841.823;354;-300;-299.0;73;72.7;-45;-45.6;28.8;0.0;
16/06/2019 02:10:17;100;0;171.59;17;-28.12;-17.49;22.1;14.70;70515;5122.842;-12841.823;354;-300;-299.0;73;72.7;-45;-45.6;28.8;0.0;
16/06/2019 02:10:37;100;0;175.99;17;-26.99;-17.32;26.5;14.60;70493;5122.842;-12841.823;354;-300;-301.0;73;72.7;-45;-45.6;28.8;0.0;
16/06/2019 02:10:57;100;0;186.05;17;-26.97;-17.37;30.5;14.60;70446;5122.842;-12841.823;354;-300;-299.0;73;72.7;-44;-43.8;28.7;0.0;
16/06/2019 02:11:17;100;0;186.50;17;-27.58;-16.53;34.6;14.50;70414;5122.842;-12841.823;354;-300;-301.0;73;72.7;-44;-43.3;28.8;0.0;
16/06/2019 02:11:37;100;0;201.27;17;-26.02;-16.70;38.9;14.50;70370;5122.842;-12841.823;354;-300;-301.0;73;72.7;-36;-35.6;28.8;0.0;
16/06/2019 02:11:57;100;0;204.31;17;-25.87;-12.52;43.1;14.40;70347;5122.842;-12841.823;354;-300;-301.0;73;72.7;-37;-37.0;28.8;0.0;
16/06/2019 02:12:17;100;0;206.26;17;-25.70;-13.70;47.2;14.30;70314;5122.842;-12841.823;354;-300;-299.0;73;72.7;-38;-37.9;28.8;0.0;
16/06/2019 02:12:37;100;0;212.33;17;-25.10;-14.03;51.3;14.30;70271;5122.842;-12841.823;354;-300;-299.0;73;72.7;-36;-35.6;28.8;0.0;
16/06/2019 02:12:57;100;0;219.71;17;-25.28;-12.79;55.1;14.20;70230;5122.842;-12841.823;354;-300;-299.0;73;72.7;-33;-32.9;28.8;0.0;
16/06/2019 02:13:17;100;0;225.95;17;-25.47;-11.41;58.7;14.20;70219;5122.842;-12841.823;354;-300;-299.0;73;72.7;-32;-31.6;28.8;0.0;
16/06/2019 02:13:37;100;0;227.32;17;-25.46;-10.71;62.7;14.10;70195;5122.842;-12841.823;354;-300;-299.0;73;72.7;-33;-32.9;28.8;0.0;
16/06/2019 02:13:57;100;0;230.93;17;-25.38;-11.83;66.6;14.00;70168;5122.842;-12841.823;354;-300;-299.0;73;72.7;-33;-33.4;28.8;0.0;
16/06/2019 02:14:17;100;0;242.25;17;-23.87;-11.88;70.5;13.90;70145;5122.842;-12841.823;354;-300;-299.0;73;72.7;-27;-27.1;28.8;0.0;
16/06/2019 02:14:37;100;0;240.78;17;-24.81;-8.62;74.1;13.90;70117;5122.842;-12841.823;354;-300;-299.0;73;72.7;-32;-32.0;28.8;0.0;
16/06/2019 02:14:57;100;0;243.57;17;-24.41;-11.52;77.6;13.80;70097;5122.842;-12841.823;354;-300;-299.0;73;72.7;-31;-30.7;28.8;0.0;
16/06/2019 02:15:17;100;0;253.00;17;-25.05;-10.35;81.1;13.70;70075;5122.842;-12841.823;354;-300;-299.0;73;72.7;-27;-27.1;28.8;0.0;
16/06/2019 02:15:37;100;0;252.14;17;-23.76;-8.59;84.7;13.60;70050;5122.842;-12841.823;354;-300;-299.0;73;72.7;-29;-28.9;28.8;0.0;
16/06/2019 02:15:57;100;0;263.80;17;-22.93;-10.14;88.3;13.50;70023;5122.842;-12841.823;354;-300;-299.0;73;72.7;-24;-23.9;28.8;0.0;
16/06/2019 02:16:17;100;0;270.09;17;-23.18;-7.15;91.6;13.50;70011;5122.842;-12841.823;354;-300;-299.0;73;72.7;-22;-22.1;28.8;0.0;
16/06/2019 02:16:37;100;0;272.69;17;-21.40;-6.21;94.9;13.40;69975;5122.842;-12841.823;354;-300;-299.0;73;72.7;-24;-23.9;28.8;0.0;
16/06/2019 02:16:57;100;0;274.85;17;-21.43;-7.82;97.9;13.30;69956;5122.842;-12841.823;354;-300;-299.0;73;72.7;-24;-24.4;28.8;0.0;
16/06/2019 02:17:17;100;0;271.95;17;-21.50;-7.91;100.9;13.20;69928;5122.842;-12841.823;354;-300;-297.0;73;72.7;-27;-27.5;28.8;0.0;
16/06/2019 02:17:37;100;0;271.35;17;-20.98;-9.43;103.7;13.20;69921;5122.842;-12841.823;354;-300;-299.0;73;72.7;-27;-27.5;28.8;0.0;
16/06/2019 02:17:57;100;0;275.62;17;-20.36;-9.48;106.5;13.10;69905;5122.842;-12841.823;354;-300;-299.0;73;72.7;-25;-24.8;28.8;0.0;
16/06/2019 02:18:17;100;0;269.57;17;-20.81;-7.64;109.0;13.00;69887;5122.842;-12841.823;354;-300;-297.0;73;72.7;-29;-28.9;28.8;0.0;
16/06/2019 02:18:37;100;0;264.59;17;-21.28;-10.29;111.6;12.90;69873;5122.842;-12841.823;354;-300;-299.0;73;72.7;-32;-32.0;28.8;0.0;
16/06/2019 02:18:57;100;0;262.58;17;-21.39;-11.68;114.1;12.90;69865;5122.842;-12841.823;354;-300;-297.0;73;72.7;-31;-30.7;28.8;0.0;
16/06/2019 02:19:17;100;0;267.16;17;-19.78;-10.64;116.6;12.80;69841;5122.842;-12841.823;354;-300;-297.0;73;72.7;-27;-27.1;28.8;0.0;
16/06/2019 02:19:37;100;0;273.66;17;-19.94;-8.91;118.9;12.70;69836;5122.842;-12841.823;354;-300;-299.0;73;72.6;-24;-23.5;28.9;0.0;
16/06/2019 02:19:57;100;0;278.52;17;-20.02;-7.35;121.1;12.70;69816;5122.842;-12841.823;354;-300;-299.0;73;72.7;-23;-23.0;28.8;0.0;
16/06/2019 02:20:17;100;0;285.03;17;-20.19;-7.66;123.3;12.60;69800;5122.842;-12841.823;354;-300;-297.0;73;72.7;-20;-19.9;28.8;0.0;
16/06/2019 02:20:37;100;0;287.20;17;-19.88;-5.38;125.4;12.50;69801;5122.842;-12841.823;354;-300;-297.0;73;72.7;-21;-21.2;28.8;0.0;
16/06/2019 02:20:57;100;0;285.82;17;-19.81;-6.89;127.6;12.50;69788;5122.842;-12841.823;354;-300;-299.0;73;72.7;-24;-24.4;28.8;0.0;
16/06/2019 02:21:17;100;0;286.70;17;-19.28;-8.21;129.9;12.40;69781;5122.842;-12841.823;354;-300;-297.0;73;72.7;-24;-24.8;28.7;0.0;
16/06/2019 02:21:37;100;0;291.91;17;-19.18;-8.09;132.2;12.30;69769;5122.842;-12841.823;354;-300;-297.0;73;72.7;-21;-21.2;28.8;0.0;
16/06/2019 02:21:57;100;0;293.03;17;-19.08;-5.93;134.2;12.30;69756;5122.842;-12841.823;354;-300;-297.0;73;72.7;-21;-20.3;28.8;0.0;
16/06/2019 02:22:17;100;0;293.96;17;-19.15;-5.95;136.3;12.20;69757;5122.842;-12841.823;354;-300;-297.0;73;72.7;-22;-22.1;28.8;0.0;
16/06/2019 02:22:37;100;0;295.22;17;-18.69;-7.08;138.5;12.10;69745;5122.842;-12841.823;354;-300;-299.0;73;72.7;-21;-21.2;28.8;0.0;
16/06/2019 02:22:57;100;0;295.73;17;-19.05;-6.02;140.5;12.10;69738;5122.842;-12841.823;354;-300;-297.0;73;72.7;-22;-22.1;28.8;0.0;
16/06/2019 02:23:17;100;0;296.81;17;-19.20;-7.09;142.7;12.00;69722;5122.842;-12841.823;354;-300;-297.0;73;72.7;-22;-22.6;28.8;0.0;
16/06/2019 02:23:37;100;0;297.56;17;-19.22;-7.13;144.6;12.00;69723;5122.842;-12841.823;354;-300;-299.0;73;72.7;-22;-22.6;28.8;0.0;
16/06/2019 02:23:57;100;0;297.74;17;-19.37;-7.09;146.6;11.90;69715;5122.842;-12841.823;354;-300;-297.0;73;72.7;-22;-22.6;28.8;0.0;
16/06/2019 02:24:17;100;0;298.02;17;-19.30;-7.09;148.6;11.90;69708;5122.842;-12841.823;354;-300;-297.0;73;72.7;-22;-22.6;28.8;0.0;
16/06/2019 02:24:37;100;0;302.96;17;-19.30;-7.15;150.6;11.80;69705;5122.842;-12841.823;354;-300;-297.0;73;72.6;-20;-19.9;28.7;0.0;
16/06/2019 02:24:57;100;0;304.65;17;-19.00;-5.38;152.6;11.70;69700;5122.842;-12841.823;354;-300;-299.0;73;72.7;-19;-19.0;28.8;0.0;
16/06/2019 02:25:17;100;0;303.34;17;-18.74;-5.36;154.6;11.70;69688;5122.842;-12841.823;354;-300;-297.0;73;72.7;-21;-21.2;28.7;0.0;
16/06/2019 02:25:38;100;0;304.79;17;-18.89;-6.79;156.7;11.60;69684;5122.842;-12841.823;354;-300;-297.0;73;72.6;-20;-19.4;28.8;0.0;
16/06/2019 02:25:58;100;0;304.00;17;-19.01;-5.30;158.7;11.50;69671;5122.842;-12841.823;354;-300;-297.0;73;72.7;-21;-21.2;28.8;0.0;
16/06/2019 02:26:18;100;0;304.49;17;-18.79;-6.70;160.8;11.50;69666;5122.842;-12841.823;354;-300;-297.0;73;72.7;-21;-21.7;28.8;0.0;
16/06/2019 02:26:38;100;0;304.47;17;-19.01;-6.69;162.7;11.40;69654;5122.842;-12841.823;354;-300;-297.0;73;72.7;-21;-21.7;28.8;0.0;
16/06/2019 02:26:58;100;0;305.30;17;-19.03;-6.70;164.7;11.40;69654;5122.842;-12841.823;354;-300;-297.0;73;72.7;-20;-19.9;28.8;0.0;
16/06/2019 02:27:18;100;0;306.94;17;-18.89;-5.52;166.8;11.30;69649;5122.842;-12841.823;354;-300;-297.0;73;72.7;-20;-19.0;28.8;0.0;
16/06/2019 02:27:38;100;0;309.64;17;-18.79;-5.54;168.9;11.30;69635;5122.842;-12841.823;354;-300;-297.0;73;72.7;-18;-18.1;28.8;0.0;
16/06/2019 02:27:58;100;0;309.48;17;-18.85;-4.62;170.8;11.20;69630;5122.842;-12841.823;354;-300;-297.0;73;72.7;-19;-19.0;28.8;0.0;
16/06/2019 02:28:18;100;0;308.15;17;-18.74;-5.73;172.8;11.20;69621;5122.842;-12841.823;354;-300;-297.0;73;72.7;-20;-19.9;28.8;0.0;
16/06/2019 02:28:38;100;0;307.82;17;-18.75;-6.03;174.9;11.10;69612;5122.842;-12841.823;354;-300;-297.0;73;72.7;-21;-21.2;28.8;0.0;
16/06/2019 02:28:58;100;0;311.84;17;-18.57;-6.82;177.0;11.10;69615;5122.842;-12841.823;354;-300;-297.0;73;72.7;-18;-18.1;28.8;42.9;
16/06/2019 02:29:18;100;0;314.05;17;-18.25;-4.47;179.1;11.00;69600;5122.842;-12841.823;354;-300;-297.0;73;72.7;-17;-17.1;28.8;40.6;
16/06/2019 02:29:38;100;0;313.62;17;-18.32;-4.49;181.2;11.00;69587;5122.842;-12841.823;354;-300;-299.0;73;72.7;-19;-19.0;28.8;38.5;
16/06/2019 02:29:58;100;0;315.02;17;-18.33;-5.82;183.3;10.90;69575;5122.842;-12841.823;354;-300;-297.0;73;72.7;-18;-18.1;28.8;36.4;
16/06/2019 02:30:18;100;0;316.16;17;-18.36;-4.75;185.2;10.90;69574;5122.842;-12841.823;354;-300;-297.0;73;72.7;-18;-17.6;28.8;34.3;
16/06/2019 02:30:38;100;0;316.37;17;-18.52;-4.83;187.4;10.80;69562;5122.842;-12841.823;354;-300;-297.0;73;72.7;-18;-17.6;28.8;32.2;
16/06/2019 02:30:58;100;0;315.40;17;-18.18;-4.72;189.4;10.80;69550;5122.842;-12841.823;354;-300;-297.0;73;72.6;-19;-19.4;28.8;30.4;
16/06/2019 02:31:18;100;0;317.78;17;-18.50;-5.87;191.4;10.70;69551;5122.842;-12841.823;354;-300;-297.0;73;72.6;-18;-18.1;28.8;28.1;
16/06/2019 02:31:38;100;0;317.27;17;-18.24;-4.68;193.4;10.70;69556;5122.842;-12841.823;354;-300;-297.0;73;72.7;-18;-17.6;28.8;26.0;
16/06/2019 02:31:58;100;0;317.32;17;-18.18;-4.66;195.4;10.60;69538;5122.842;-12841.823;354;-300;-297.0;73;72.7;-18;-17.6;28.8;23.8;
16/06/2019 02:32:18;100;0;316.47;17;-18.08;-4.71;197.4;10.60;69532;5122.842;-12841.823;354;-300;-297.0;73;72.7;-19;-19.4;28.8;21.8;
16/06/2019 02:32:38;100;0;317.07;17;-18.41;-5.66;199.4;10.60;69526;5122.842;-12841.823;354;-300;-297.0;73;72.7;-18;-18.1;28.8;19.8;
16/06/2019 02:32:58;118;0;316.41;17;-18.04;-4.52;201.5;10.50;69529;5122.842;-12841.823;354;150;-281.2;57;56.8;0;0.5;28.8;17.7;
16/06/2019 02:33:08;118;0;11.13;17;2.70;3.77;202.2;10.50;69445;5122.842;-12841.823;354;150;-124.8;57;57.1;0;0.5;28.2;17.7;
16/06/2019 02:33:18;118;0;7.92;17;20.16;3.35;202.0;10.50;69243;5122.842;-12841.823;354;150;31.7;57;57.1;0;0.5;28.2;-1.0;
16/06/2019 02:33:28;118;0;4.90;17;24.00;3.67;201.2;10.50;68977;5122.842;-12841.823;354;150;156.4;57;57.1;0;0.5;28.2;-1.0;
16/06/2019 02:33:38;118;0;295.08;17;24.95;3.60;199.9;10.50;68788;5122.842;-12841.823;354;150;156.4;57;57.1;0;0.5;28.8;-1.0;
16/06/2019 02:33:48;118;0;294.95;17;27.16;3.61;198.4;10.40;68798;5122.842;-12841.823;354;150;156.4;57;57.1;0;0.5;28.8;-1.0;
16/06/2019 02:33:58;117;0;294.92;17;27.82;3.60;196.5;10.40;68800;5122.842;-12841.823;354;150;156.4;57;57.1;0;0.5;28.8;-1.0;
16/06/2019 02:34:18;117;0;292.79;17;27.72;3.67;192.4;10.40;68794;5122.842;-12841.823;354;150;158.4;57;57.1;33;32.9;28.8;-1.0;
16/06/2019 02:34:38;117;0;300.96;17;27.33;19.75;187.5;10.40;68787;5122.842;-12841.823;354;150;156.4;57;57.1;24;23.9;28.8;-1.0;
16/06/2019 02:34:58;117;0;309.64;17;27.72;14.14;183.2;10.30;68780;5122.842;-12841.823;354;150;156.4;57;57.1;17;16.7;28.8;-1.0;
16/06/2019 02:35:18;117;0;313.99;17;27.72;10.63;178.8;10.30;68790;5122.842;-12841.823;354;150;158.4;57;57.1;16;15.8;28.8;-1.0;
16/06/2019 02:35:38;117;0;313.98;17;28.22;10.28;174.4;10.20;68793;5122.842;-12841.823;354;150;156.4;57;57.1;18;18.1;28.8;-1.0;
16/06/2019 02:35:58;117;0;322.81;17;27.66;12.16;169.9;10.20;68782;5122.842;-12841.823;354;150;156.4;57;57.1;13;13.1;28.8;-1.0;
16/06/2019 02:36:18;117;0;325.75;17;27.96;9.04;165.4;10.20;68788;5122.842;-12841.823;354;150;156.4;57;57.1;14;14.0;28.8;-1.0;
16/06/2019 02:36:38;117;0;328.33;17;27.70;10.21;160.9;10.10;68796;5122.842;-12841.823;354;150;158.4;57;57.1;13;13.1;28.8;-1.0;
16/06/2019 02:36:58;117;0;333.87;17;27.71;8.88;156.6;10.10;68796;5122.842;-12841.823;354;150;158.4;57;57.1;12;12.2;28.8;-1.0;
16/06/2019 02:37:18;117;0;341.10;17;27.38;8.71;152.2;10.10;68804;5122.842;-12841.823;354;150;156.4;57;57.1;12;12.2;28.8;-1.0;
16/06/2019 02:37:38;117;0;338.89;17;27.57;9.05;147.9;10.00;68804;5122.842;-12841.823;354;150;158.4;57;57.1;12;12.2;28.8;-1.0;
16/06/2019 02:37:58;117;0;348.17;17;27.26;8.81;143.6;10.00;68818;5122.842;-12841.823;354;150;156.4;57;57.1;7;7.2;28.8;-1.0;
16/06/2019 02:38:18;117;0;352.29;17;27.26;6.10;139.4;10.00;68828;5122.842;-12841.823;354;150;158.4;57;57.1;7;6.8;28.7;-1.0;
16/06/2019 02:38:38;117;0;348.16;17;27.39;6.20;135.1;10.00;68817;5122.842;-12841.823;354;150;158.4;57;57.1;10;9.9;28.8;-1.0;
16/06/2019 02:38:58;117;0;345.45;17;27.26;8.06;130.9;9.90;68817;5122.842;-12841.823;354;150;158.4;57;57.1;12;12.2;28.8;-1.0;
16/06/2019 02:39:18;117;0;341.31;17;26.91;9.24;126.8;9.90;68822;5122.842;-12841.823;354;150;156.4;57;57.1;14;14.0;28.8;-1.0;
16/06/2019 02:39:38;117;0;344.57;17;26.69;9.95;122.8;9.90;68831;5122.842;-12841.823;354;150;158.4;57;57.1;11;10.8;28.8;-1.0;
16/06/2019 02:39:58;117;0;349.61;17;26.60;7.98;118.5;9.90;68827;5122.842;-12841.823;354;150;158.4;57;57.1;7;6.8;28.8;-1.0;
16/06/2019 02:40:18;117;0;353.17;17;26.56;6.22;114.3;9.90;68846;5122.842;-12841.823;354;150;158.4;57;57.1;5;5.0;28.8;-1.0;
16/06/2019 02:40:38;117;0;346.78;17;25.63;5.02;110.2;9.90;68838;5122.842;-12841.823;354;150;158.4;57;57.1;10;10.4;28.8;-1.0;
16/06/2019 02:40:58;117;0;351.29;17;24.80;8.18;106.6;9.90;68843;5122.842;-12841.823;354;150;158.4;57;57.1;6;5.9;28.8;-1.0;
16/06/2019 02:41:18;117;0;352.05;17;25.21;5.34;103.2;9.80;68846;5122.842;-12841.823;354;150;158.4;57;57.1;5;5.0;28.8;-1.0;
16/06/2019 02:41:38;117;0;349.65;17;24.42;5.39;99.6;9.80;68860;5122.842;-12841.823;354;150;158.4;57;57.1;7;7.2;28.8;-1.0;
16/06/2019 02:41:58;117;0;348.48;17;24.02;6.76;96.1;9.80;68866;5122.842;-12841.823;354;150;158.4;57;57.2;7;7.7;28.8;-1.0;
16/06/2019 02:42:18;117;0;345.41;17;23.90;6.86;92.9;9.80;68879;5122.842;-12841.823;354;150;160.4;57;57.1;8;8.1;28.8;-1.0;
16/06/2019 02:42:38;117;0;336.44;17;24.13;7.66;89.6;9.80;68878;5122.842;-12841.823;354;150;158.4;57;57.1;8;9.0;28.8;-1.0;
16/06/2019 02:42:58;117;0;330.00;17;22.44;7.41;86.4;9.80;68884;5122.842;-12841.823;354;150;158.4;57;57.1;14;14.4;28.8;-1.0;
16/06/2019 02:43:18;117;0;328.99;17;21.76;10.34;83.5;9.80;68905;5122.842;-12841.823;354;150;158.4;57;57.1;13;13.1;28.8;-1.0;
16/06/2019 02:43:38;117;0;327.55;17;20.56;8.89;80.9;9.80;68916;5122.842;-12841.823;354;150;158.4;57;57.1;13;12.6;28.8;-1.0;
16/06/2019 02:43:58;117;0;327.17;17;20.26;9.11;78.4;9.80;68925;5122.842;-12841.823;354;150;160.4;57;57.1;12;12.2;28.8;-1.0;
16/06/2019 02:44:18;117;0;331.13;17;19.86;8.36;76.1;9.80;68946;5122.842;-12841.823;354;150;158.4;57;57.2;10;9.5;28.8;-1.0;
16/06/2019 02:44:38;117;0;336.32;17;19.67;7.48;74.0;9.80;68951;5122.842;-12841.823;354;150;158.4;57;57.1;10;8.6;28.8;-1.0;
16/06/2019 02:44:58;117;0;342.86;17;19.43;7.24;71.7;9.80;68964;5122.842;-12841.823;354;150;158.4;57;57.2;5;5.0;28.8;-1.0;
16/06/2019 02:45:18;117;0;350.54;17;19.42;5.04;69.5;9.80;68980;5122.842;-12841.823;354;150;158.4;57;57.1;2;1.4;28.8;-1.0;
16/06/2019 02:45:38;117;0;352.41;17;19.61;3.31;67.3;9.80;68980;5122.842;-12841.823;354;150;158.4;57;57.1;2;0.9;28.8;-1.0;
16/06/2019 02:45:58;117;0;355.30;17;19.53;3.38;65.1;9.90;68991;5122.842;-12841.823;354;150;158.4;57;57.1;2;0.9;28.8;-1.0;
16/06/2019 02:46:18;117;0;2.35;17;19.33;3.15;62.8;9.90;69005;5122.842;-12841.823;354;150;158.4;57;57.1;-1;-0.9;28.7;-1.0;
16/06/2019 02:46:38;117;0;357.71;17;19.13;2.21;60.5;9.90;69019;5122.842;-12841.823;354;150;158.4;57;57.1;3;3.2;28.8;-1.0;
16/06/2019 02:46:58;117;0;353.94;17;18.84;4.93;58.2;9.90;69046;5122.842;-12841.823;354;150;158.4;57;57.1;4;4.1;28.8;-1.0;
16/06/2019 02:47:18;117;0;352.47;17;18.65;5.21;55.9;9.90;69051;5122.842;-12841.823;354;150;158.4;57;57.1;4;4.1;28.8;-1.0;
16/06/2019 02:47:38;117;0;357.40;17;18.27;5.21;53.8;9.90;69075;5122.842;-12841.823;354;150;158.4;57;57.1;0;0.0;28.8;-1.0;
16/06/2019 02:47:58;117;0;1.50;17;18.37;2.64;51.7;9.90;69091;5122.842;-12841.823;354;150;158.4;57;57.1;-2;-1.8;28.8;-1.0;
16/06/2019 02:48:18;117;0;3.11;17;18.23;1.75;49.7;10.00;69104;5122.842;-12841.823;354;150;156.4;57;57.2;-2;-2.7;28.8;-1.0;
16/06/2019 02:48:38;117;0;4.86;17;18.53;1.80;47.6;10.00;69113;5122.842;-12841.823;354;150;160.4;57;57.1;-3;-3.2;28.8;-1.0;
16/06/2019 02:48:58;117;0;6.53;17;18.21;1.22;45.3;10.00;69129;5122.842;-12841.823;354;150;156.4;57;57.1;-4;-4.1;28.8;-1.0;
16/06/2019 02:49:18;117;0;3.93;17;17.91;1.14;43.3;10.00;69144;5122.842;-12841.823;354;150;158.4;57;57.1;-2;-1.4;28.8;-1.0;
16/06/2019 02:49:38;117;0;355.90;17;18.00;2.73;41.2;10.00;69155;5122.842;-12841.823;354;150;156.4;57;57.1;1;0.9;28.8;-1.0;
16/06/2019 02:49:58;117;0;352.53;17;18.19;3.96;39.2;10.10;69184;5122.842;-12841.823;354;150;158.4;57;57.1;0;0.0;28.7;-1.0;
16/06/2019 02:50:18;117;0;353.86;17;17.81;2.78;37.0;10.10;69187;5122.842;-12841.823;354;150;160.4;57;57.1;-1;-0.9;28.8;-1.0;
16/06/2019 02:50:38;117;0;353.41;17;17.61;2.80;34.8;10.10;69213;5122.842;-12841.823;354;150;158.4;57;57.1;-2;-1.8;28.8;-1.0;
16/06/2019 02:50:58;117;0;356.16;17;17.51;2.04;32.6;10.10;69226;5122.842;-12841.823;354;150;158.4;57;57.1;-5;-5.0;28.8;-1.0;
16/06/2019 02:51:18;117;0;351.84;17;17.36;0.56;30.5;10.20;69228;5122.842;-12841.823;354;150;160.4;57;57.1;-2;-1.4;28.8;-1.0;
16/06/2019 02:51:38;117;0;344.57;17;17.28;2.79;28.5;10.20;69248;5122.842;-12841.823;354;150;158.4;57;57.2;0;0.5;28.8;-1.0;
16/06/2019 02:51:58;117;0;346.46;17;16.78;3.68;26.5;10.20;69270;5122.842;-12841.823;354;150;158.4;57;57.1;-2;-1.8;28.8;-1.0;
16/06/2019 02:52:18;117;0;350.07;17;16.63;2.17;24.7;10.30;69282;5122.842;-12841.823;354;150;160.4;57;57.1;-6;-5.9;28.8;-1.0;
16/06/2019 02:52:38;117;0;354.34;17;16.61;0.34;22.8;10.30;69300;5122.842;-12841.823;354;150;158.4;57;57.2;-8;-8.1;28.8;-1.0;
16/06/2019 02:52:58;117;0;348.77;17;15.97;-0.88;21.0;10.30;69326;5122.842;-12841.823;354;150;158.4;57;57.1;-4;-4.1;28.8;-1.0;
16/06/2019 02:53:18;117;0;347.26;17;15.96;1.90;19.3;10.40;69357;5122.842;-12841.823;354;150;158.4;57;57.1;-4;-3.2;28.8;-1.0;
16/06/2019 02:53:38;117;0;342.68;17;16.13;1.92;17.7;10.40;69388;5122.842;-12841.823;354;150;158.4;57;57.1;-2;-1.4;28.8;-1.0;
16/06/2019 02:53:58;117;0;341.28;17;15.90;3.05;16.0;10.50;69395;5122.842;-12841.823;354;150;158.4;57;57.1;-3;-3.2;28.8;-1.0;
16/06/2019 02:54:18;117;0;338.23;17;16.21;1.63;14.4;10.50;69419;5122.842;-12841.823;354;150;158.4;57;57.1;-2;-1.8;28.8;-1.0;
16/06/2019 02:54:38;117;0;336.44;17;16.09;3.01;12.8;10.50;69438;5122.842;-12841.823;354;150;158.4;57;57.1;-2;-1.4;28.8;-1.0;
16/06/2019 02:54:58;117;0;334.98;17;16.01;2.84;11.2;10.60;69444;5122.842;-12841.823;354;150;158.4;57;57.1;-2;-1.4;28.7;-1.0;
