Timestamp;NavState;SecurityLevel;Heading;Declination;Pitch;Roll;Depth;Temperature;Pa;Lat;Lon;DesiredH;BallastCmd;BallastPos;LinCmd;LinPos;AngCmd;AngPos;Voltage;Altitude;
14/06/2019 19:35:01;117;0;201.33;17;12.57;7.17;10.0;10.10;69414;5132.553;-12823.882;214;150;156.4;57;57.1;-1;-0.9;29.1;-1.0;
14/06/2019 19:35:11;115;0;205.17;17;12.58;2.74;9.5;10.10;69420;5132.553;-12823.882;214;500;168.3;100;99.9;0;0.9;29.1;-1.0;
14/06/2019 19:35:21;115;0;170.46;17;-32.21;5.34;9.1;10.10;69333;5132.553;-12823.882;214;500;320.8;100;100.1;0;0.9;28.8;-1.0;
14/06/2019 19:35:31;115;0;142.58;17;-67.03;3.17;9.6;10.10;69138;5132.553;-12823.882;214;500;469.3;100;100.1;0;0.9;28.7;-1.0;
14/06/2019 19:35:41;115;0;111.23;17;-55.30;5.15;8.6;10.20;68903;5132.553;-12823.882;214;500;505.0;100;100.0;0;0.9;28.7;-1.0;
14/06/2019 19:35:51;115;0;78.65;17;-43.99;7.07;5.8;10.20;68877;5132.553;-12823.882;214;500;505.0;100;100.0;0;0.9;29.2;-1.0;
14/06/2019 19:36:01;116;0;316.34;17;-74.86;53.84;1.7;10.20;68872;5132.553;-12823.882;214;500;506.9;100;100.0;0;0.9;29.0;-1.0;
14/06/2019 19:36:21;116;0;305.33;17;-16.52;4.69;1.2;10.30;68893;5131.655;-12824.167;214;500;506.9;100;99.9;0;0.9;29.0;-1.0;
14/06/2019 19:36:41;116;0;293.02;17;-14.29;4.85;1.2;10.40;68911;5131.649;-12824.164;214;500;508.9;100;99.9;0;0.9;29.0;-1.0;
14/06/2019 19:37:18;116;0;299.27;17;-4.75;9.11;1.2;10.60;68944;5131.648;-12824.164;214;500;506.9;100;99.9;0;0.9;29.1;-1.0;
14/06/2019 19:37:38;116;0;285.91;17;-6.65;-0.47;1.2;10.70;68954;5131.647;-12824.164;219;500;508.9;100;99.9;0;0.9;29.1;-1.0;
14/06/2019 19:37:58;116;0;311.44;17;-9.97;7.58;1.2;10.80;68964;5131.647;-12824.164;219;500;508.9;100;99.9;0;0.9;29.1;-1.0;
14/06/2019 19:38:18;116;0;316.34;17;-6.58;3.63;1.2;10.90;68965;5131.649;-12824.229;219;500;508.9;100;99.9;0;0.9;29.1;-1.0;
14/06/2019 19:39:33;116;0;323.24;17;-7.54;7.79;1.2;11.40;69004;5131.651;-12824.239;219;500;508.9;100;99.9;0;0.9;29.1;-1.0;
14/06/2019 19:39:53;116;0;307.33;17;-16.91;10.36;1.2;11.60;69010;5131.651;-12824.239;219;500;508.9;100;99.9;0;0.9;29.1;-1.0;
14/06/2019 19:40:36;116;0;317.92;17;-7.85;2.02;1.2;11.90;69028;5131.651;-12824.239;219;500;508.9;100;99.9;0;0.9;29.0;-1.0;
14/06/2019 19:40:56;116;0;302.31;17;-11.13;3.46;1.2;12.10;69030;5131.714;-12824.602;219;500;508.9;100;99.9;0;0.9;29.1;-1.0;
14/06/2019 19:41:17;116;0;302.51;17;-10.31;4.87;1.1;12.30;69037;5131.607;-12824.312;219;500;506.9;100;99.9;0;0.9;29.1;-1.0;
14/06/2019 19:46:00;116;0;278.52;17;-6.71;-3.55;1.1;13.40;69107;5131.607;-12824.311;219;500;508.9;100;99.9;0;0.9;29.0;-1.0;
14/06/2019 19:46:20;116;0;273.34;17;-14.03;-6.09;1.1;13.50;69117;5131.598;-12824.344;219;500;508.9;100;99.9;0;0.9;29.1;-1.0;
14/06/2019 19:46:40;116;0;296.97;17;-4.28;7.69;1.2;13.60;69117;5131.596;-12824.345;219;500;508.9;100;99.9;0;0.9;29.1;-1.0;
14/06/2019 19:47:00;116;0;297.07;17;-9.01;6.57;1.1;13.60;69113;5131.596;-12824.345;219;500;508.9;100;100.0;0;0.9;29.1;-1.0;
14/06/2019 19:47:20;116;0;314.33;17;-28.26;6.58;1.5;13.70;69124;5131.596;-12824.345;219;500;508.9;100;100.0;0;0.9;29.1;-1.0;
14/06/2019 19:47:40;116;0;303.24;17;-28.79;2.64;1.2;13.80;69134;5131.596;-12824.345;219;500;508.9;100;100.0;0;0.9;29.1;-1.0;
14/06/2019 19:48:00;116;0;316.56;17;-6.95;-2.88;1.1;13.80;69127;5131.595;-12824.345;219;500;508.9;100;99.9;0;0.9;29.1;-1.0;
14/06/2019 19:48:20;116;0;311.74;17;-29.80;5.10;1.4;13.90;69125;5131.595;-12824.345;219;500;508.9;100;99.9;0;0.9;29.0;-1.0;
14/06/2019 19:48:40;116;0;310.43;17;-22.49;3.52;1.3;13.90;69137;5131.594;-12824.346;219;500;508.9;100;99.9;0;0.9;29.1;-1.0;
14/06/2019 19:49:10;116;0;288.67;17;-8.02;-0.93;1.1;14.00;69140;5131.594;-12824.347;219;500;508.9;100;99.9;0;0.9;29.1;-1.0;
14/06/2019 19:49:30;116;0;308.92;17;-14.09;4.79;1.1;14.10;69137;5131.594;-12824.347;219;500;508.9;100;99.9;0;0.9;29.1;-1.0;
14/06/2019 19:50:33;116;0;316.53;17;-11.66;4.17;1.2;14.40;69152;5131.559;-12824.258;219;500;508.9;100;100.0;0;0.9;29.0;-1.0;
14/06/2019 19:50:53;116;0;295.54;17;-4.95;1.63;1.1;14.50;69160;5131.550;-12824.250;219;500;508.9;100;99.9;0;0.9;29.0;-1.0;
14/06/2019 19:51:13;116;0;300.18;17;-26.42;-4.29;1.3;14.50;69162;5131.533;-12824.183;219;500;508.9;100;100.0;0;0.9;29.0;-1.0;
14/06/2019 19:52:25;116;0;295.68;17;-16.93;1.80;1.2;14.80;69174;5131.532;-12824.184;219;500;508.9;100;100.0;0;0.9;29.1;-1.0;
14/06/2019 19:52:45;116;0;302.41;17;-8.41;3.67;1.2;14.90;69170;5131.532;-12824.184;219;500;508.9;100;99.9;0;0.9;29.1;-1.0;
14/06/2019 19:53:05;116;0;310.20;17;-25.48;2.47;1.3;15.00;69177;5131.530;-12824.185;219;500;508.9;100;99.9;0;0.9;29.1;-1.0;
14/06/2019 19:53:25;116;0;288.90;17;-9.92;0.03;1.3;15.00;69181;5131.527;-12824.183;219;500;508.9;100;99.9;0;0.9;29.1;-1.0;
14/06/2019 19:53:45;110;0;301.13;17;-28.84;2.63;1.4;15.00;69182;5131.527;-12824.183;219;-300;402.0;100;100.0;0;0.9;29.1;-1.0;
14/06/2019 19:53:55;110;0;311.22;17;-20.32;2.47;1.3;15.10;69438;5131.527;-12824.183;219;-300;257.4;100;99.9;0;0.9;29.0;-1.0;
14/06/2019 19:54:05;110;0;297.64;17;-19.71;3.35;1.2;15.10;69620;5131.527;-12824.183;219;-300;110.9;100;100.0;0;0.9;29.0;-1.0;
14/06/2019 19:54:15;110;0;281.87;17;-32.52;3.64;1.4;15.00;69855;5131.527;-12824.183;219;-300;-55.4;100;100.0;0;0.9;29.0;-1.0;
14/06/2019 19:54:25;110;0;312.26;17;-55.01;-2.11;2.6;15.00;70138;5131.527;-12824.183;219;-300;-263.4;95;94.8;0;0.9;29.0;-1.0;
14/06/2019 19:54:35;110;0;307.30;17;-60.51;4.99;4.9;15.00;70480;5131.527;-12824.183;219;-300;-301.0;76;75.9;0;0.9;29.0;-1.0;
14/06/2019 19:54:45;110;0;297.58;17;-48.30;4.26;8.3;15.00;70500;5131.527;-12824.183;219;-300;-301.0;73;73.0;0;0.9;29.0;-1.0;
14/06/2019 19:54:55;100;0;290.21;17;-40.62;5.48;12.0;15.00;70498;5131.527;-12824.183;219;-300;-301.0;73;72.9;0;0.9;29.0;-1.0;
14/06/2019 19:55:15;100;0;268.61;17;-27.53;4.36;18.4;15.00;70473;5131.527;-12824.183;219;-300;-297.0;73;72.9;40;40.2;29.0;0.0;
14/06/2019 19:55:35;100;0;249.37;17;-23.37;23.18;23.0;14.90;70458;5131.527;-12824.183;219;-300;-295.0;73;72.9;19;19.0;29.1;0.0;
14/06/2019 19:55:55;100;0;229.73;17;-23.99;11.91;26.8;14.90;70424;5131.527;-12824.183;219;-300;-295.0;73;72.9;6;5.9;29.1;0.0;
14/06/2019 19:56:15;100;0;226.09;17;-25.63;5.60;30.7;14.80;70386;5131.527;-12824.183;219;-300;-295.0;73;72.9;7;7.2;29.1;0.0;
14/06/2019 19:56:35;100;0;226.54;17;-25.91;7.44;34.5;14.70;70349;5131.527;-12824.183;219;-300;-293.1;73;72.9;9;9.0;29.0;0.0;
14/06/2019 19:56:55;100;0;213.64;17;-24.49;7.89;38.2;14.60;70278;5131.527;-12824.183;219;-300;-295.0;73;72.9;3;2.7;29.0;0.0;
14/06/2019 19:57:15;100;0;203.07;17;-24.18;4.24;41.9;14.60;70230;5131.527;-12824.183;219;-300;-295.0;73;72.7;0;0.0;29.1;0.0;
14/06/2019 19:57:35;100;0;199.19;17;-23.78;3.03;45.6;14.40;70183;5131.527;-12824.183;219;-300;-293.1;73;72.9;0;-0.5;29.1;0.0;
14/06/2019 19:57:55;100;0;193.47;17;-23.69;3.00;49.2;14.30;70148;5131.527;-12824.183;219;-300;-295.0;73;72.7;0;-0.5;29.1;0.0;
14/06/2019 19:58:15;100;0;184.94;17;-23.81;3.03;52.7;14.20;70118;5131.527;-12824.183;219;-300;-295.0;73;72.7;-3;-3.2;29.1;0.0;
14/06/2019 19:58:35;100;0;173.94;17;-24.60;1.69;55.9;14.20;70096;5131.527;-12824.183;219;-300;-293.1;73;72.7;-7;-7.2;29.1;0.0;
14/06/2019 19:58:55;100;0;170.51;17;-24.26;-0.19;59.3;14.00;70059;5131.527;-12824.183;219;-300;-295.0;73;72.7;-5;-5.0;29.1;0.0;
14/06/2019 19:59:15;100;0;170.01;17;-24.46;1.42;62.5;14.00;70037;5131.527;-12824.183;219;-300;-295.0;73;72.7;-4;-4.1;29.1;0.0;
14/06/2019 19:59:35;100;0;159.20;17;-23.75;1.93;66.0;13.90;70020;5131.527;-12824.183;219;-300;-295.0;73;72.7;-10;-10.4;29.0;0.0;
14/06/2019 19:59:55;100;0;153.90;17;-23.40;-1.54;69.4;13.80;70017;5131.527;-12824.183;219;-300;-295.0;73;72.7;-12;-12.2;29.0;0.0;
14/06/2019 20:00:15;100;0;152.72;17;-23.39;-2.48;72.7;13.70;70001;5131.527;-12824.183;219;-300;-293.1;73;72.7;-12;-12.6;29.0;0.0;
14/06/2019 20:00:35;100;0;152.98;17;-23.35;-2.48;75.8;13.60;69994;5131.527;-12824.183;219;-300;-295.0;73;72.9;-13;-13.1;29.1;0.0;
14/06/2019 20:00:55;100;0;145.97;17;-23.19;-2.91;79.0;13.50;69967;5131.527;-12824.183;219;-300;-293.1;73;72.7;-19;-19.4;29.1;0.0;
14/06/2019 20:01:15;100;0;147.03;17;-23.54;-5.57;82.1;13.50;69957;5131.527;-12824.183;219;-300;-293.1;73;72.7;-18;-18.1;29.1;0.0;
14/06/2019 20:01:35;100;0;155.72;17;-22.71;-4.43;85.2;13.40;69939;5131.527;-12824.183;219;-300;-293.1;73;72.7;-15;-14.9;29.1;0.0;
14/06/2019 20:01:55;100;0;155.73;17;-22.16;-2.81;88.3;13.30;69936;5131.527;-12824.183;219;-300;-295.0;73;72.7;-18;-18.1;29.1;0.0;
14/06/2019 20:02:15;100;0;153.13;17;-21.71;-5.07;91.4;13.20;69915;5131.527;-12824.183;219;-300;-293.1;73;72.7;-21;-21.2;29.1;0.0;
14/06/2019 20:02:35;100;0;151.76;17;-21.59;-6.55;94.2;13.20;69896;5131.527;-12824.183;219;-300;-293.1;73;72.7;-25;-24.8;29.1;0.0;
14/06/2019 20:02:55;100;0;153.06;17;-21.47;-8.32;96.9;13.10;69888;5131.527;-12824.183;219;-300;-293.1;73;72.7;-24;-23.9;29.1;0.0;
14/06/2019 20:03:15;100;0;155.74;17;-21.74;-7.44;99.5;13.00;69876;5131.527;-12824.183;219;-300;-293.1;73;72.9;-23;-23.0;29.1;0.0;
14/06/2019 20:03:35;100;0;158.54;17;-20.89;-6.83;102.1;12.90;69853;5131.527;-12824.183;219;-300;-293.1;73;72.7;-22;-22.1;29.1;0.0;
14/06/2019 20:03:55;100;0;161.85;17;-21.16;-6.85;104.6;12.90;69854;5131.527;-12824.183;219;-300;-293.1;73;72.7;-21;-20.8;29.1;0.0;
14/06/2019 20:04:15;100;0;164.10;17;-20.79;-5.81;107.1;12.80;69835;5131.527;-12824.183;219;-300;-293.1;73;72.7;-20;-19.9;29.0;0.0;
14/06/2019 20:04:35;100;0;165.75;17;-20.80;-5.23;109.6;12.70;69826;5131.527;-12824.183;219;-300;-293.1;73;72.7;-20;-19.0;29.1;0.0;
14/06/2019 20:04:55;100;0;164.64;17;-20.36;-5.19;112.1;12.70;69816;5131.527;-12824.183;219;-300;-293.1;73;72.7;-22;-22.1;29.1;0.0;
14/06/2019 20:05:15;100;0;167.62;17;-20.35;-7.05;114.5;12.60;69807;5131.527;-12824.183;219;-300;-293.1;73;72.7;-20;-19.4;29.1;0.0;
14/06/2019 20:05:35;100;0;168.41;17;-20.77;-5.18;116.8;12.50;69795;5131.527;-12824.183;219;-300;-291.1;73;72.7;-20;-18.5;29.1;0.0;
14/06/2019 20:05:55;100;0;168.94;17;-20.58;-5.18;119.1;12.50;69793;5131.527;-12824.183;219;-300;-293.1;73;72.7;-21;-21.2;29.1;0.0;
14/06/2019 20:06:15;100;0;175.66;17;-20.72;-6.74;121.4;12.40;69784;5131.527;-12824.183;219;-300;-291.1;73;72.7;-17;-17.1;29.1;0.0;
14/06/2019 20:06:35;100;0;182.23;17;-19.99;-3.99;123.7;12.30;69772;5131.527;-12824.183;219;-300;-291.1;73;72.7;-14;-14.0;29.1;0.0;
14/06/2019 20:06:55;100;0;184.64;17;-19.86;-2.61;126.2;12.30;69759;5131.527;-12824.183;219;-300;-291.1;73;72.7;-15;-14.9;29.0;0.0;
14/06/2019 20:07:15;100;0;181.12;17;-18.97;-3.76;128.7;12.20;69758;5131.527;-12824.183;219;-300;-293.1;73;72.7;-18;-18.1;29.0;0.0;
14/06/2019 20:07:35;100;0;174.79;17;-19.07;-5.21;131.0;12.10;69734;5131.527;-12824.183;219;-300;-293.1;73;72.7;-22;-22.1;29.0;0.0;
14/06/2019 20:07:55;100;0;167.95;17;-19.59;-7.14;133.4;12.10;69711;5131.527;-12824.183;219;-300;-291.1;73;72.7;-25;-24.8;29.1;0.0;
14/06/2019 20:08:15;100;0;168.22;17;-19.26;-8.48;135.5;12.00;69711;5131.527;-12824.183;219;-300;-291.1;73;72.7;-23;-23.0;29.1;0.0;
14/06/2019 20:08:35;100;0;166.44;17;-19.17;-6.98;137.6;11.90;69696;5131.527;-12824.183;219;-300;-291.1;73;72.7;-23;-22.6;29.1;44.1;
14/06/2019 20:08:55;100;0;164.33;17;-19.34;-7.03;139.7;11.90;69690;5131.527;-12824.183;219;-300;-293.1;73;72.7;-23;-22.1;29.1;42.1;
14/06/2019 20:09:15;100;0;163.97;17;-19.56;-7.01;141.6;11.80;69678;5131.527;-12824.183;219;-300;-291.1;73;72.7;-23;-22.1;29.1;39.9;
14/06/2019 20:09:35;100;0;164.71;17;-19.48;-7.06;143.6;11.80;69668;5131.527;-12824.183;219;-300;-291.1;73;72.7;-22;-22.1;29.1;37.9;
14/06/2019 20:09:55;100;0;169.89;17;-19.16;-6.93;145.6;11.70;69655;5131.527;-12824.183;219;-300;-293.1;73;72.7;-19;-19.0;29.1;35.9;
14/06/2019 20:10:15;100;0;174.80;17;-19.02;-5.02;147.6;11.60;69653;5131.527;-12824.183;219;-300;-293.1;73;72.7;-17;-16.7;29.1;33.8;
14/06/2019 20:10:36;100;0;172.68;17;-19.08;-4.09;149.6;11.60;69642;5131.527;-12824.183;219;-300;-291.1;73;72.7;-20;-19.9;29.1;31.7;
14/06/2019 20:10:56;100;0;174.19;17;-19.04;-6.02;151.6;11.50;69636;5131.527;-12824.183;219;-300;-291.1;73;72.7;-19;-19.0;29.1;29.7;
14/06/2019 20:11:16;100;0;174.63;17;-18.99;-5.12;153.6;11.40;69621;5131.527;-12824.183;219;-300;-293.1;73;72.7;-19;-18.5;29.1;27.7;
14/06/2019 20:11:36;100;0;174.34;17;-18.96;-5.14;155.5;11.40;69611;5131.527;-12824.183;219;-300;-291.1;73;72.7;-20;-19.9;29.1;25.6;
14/06/2019 20:11:56;100;0;173.84;17;-18.88;-6.01;157.6;11.30;69610;5131.527;-12824.183;219;-300;-289.1;73;72.7;-20;-20.3;29.1;23.6;
14/06/2019 20:12:16;100;0;172.06;17;-19.03;-6.00;159.5;11.30;69597;5131.527;-12824.183;219;-300;-291.1;73;72.7;-21;-21.2;29.0;21.6;
14/06/2019 20:12:36;100;0;172.56;17;-19.19;-6.79;161.5;11.20;69596;5131.527;-12824.183;219;-300;-293.1;73;72.7;-21;-21.7;29.1;19.6;
14/06/2019 20:12:56;118;0;175.38;17;-18.68;-6.80;163.5;11.20;69588;5131.527;-12824.183;219;150;-275.2;57;56.8;0;0.5;29.1;17.5;
14/06/2019 20:13:06;118;0;140.12;17;2.24;3.91;164.3;11.10;69496;5131.527;-12824.183;219;150;-118.8;57;57.1;0;0.5;28.6;17.5;
14/06/2019 20:13:16;118;0;140.06;17;19.35;3.40;164.1;11.10;69278;5131.527;-12824.183;219;150;35.6;57;57.1;0;0.5;28.5;-1.0;
14/06/2019 20:13:26;118;0;140.61;17;23.54;3.59;163.2;11.10;69040;5131.527;-12824.183;219;150;154.5;57;57.1;0;0.5;28.5;-1.0;
14/06/2019 20:13:36;118;0;175.01;17;24.40;3.45;161.9;11.10;68856;5131.527;-12824.183;219;150;156.4;57;57.1;0;0.5;29.1;-1.0;
14/06/2019 20:13:46;118;0;175.13;17;27.01;3.70;160.4;11.10;68868;5131.527;-12824.183;219;150;154.5;57;57.1;0;0.5;29.1;-1.0;
14/06/2019 20:13:56;117;0;176.21;17;27.79;3.71;158.4;11.00;68859;5131.527;-12824.183;219;150;156.4;57;57.1;0;0.5;29.0;-1.0;
14/06/2019 20:14:16;117;0;176.46;17;27.64;3.64;154.3;11.00;68854;5131.527;-12824.183;219;150;156.4;57;57.1;18;18.1;29.1;-1.0;
14/06/2019 20:14:36;117;0;182.01;17;27.51;12.69;149.5;10.90;68857;5131.527;-12824.183;219;150;156.4;57;57.1;16;15.8;29.1;-1.0;
14/06/2019 20:14:56;117;0;181.62;17;27.94;10.59;145.1;10.90;68847;5131.527;-12824.183;219;150;156.4;57;57.1;18;18.1;29.1;-1.0;
14/06/2019 20:15:16;117;0;184.87;17;27.53;12.38;140.6;10.80;68847;5131.527;-12824.183;219;150;156.4;57;57.1;16;15.8;29.0;-1.0;
14/06/2019 20:15:36;117;0;190.98;17;27.26;10.57;136.0;10.80;68856;5131.527;-12824.183;219;150;156.4;57;57.1;14;14.0;29.1;-1.0;
14/06/2019 20:15:56;117;0;197.63;17;26.40;9.81;131.8;10.70;68856;5131.527;-12824.183;219;150;156.4;57;57.1;11;10.8;29.1;-1.0;
14/06/2019 20:16:16;117;0;202.68;17;26.05;8.25;127.9;10.70;68860;5131.527;-12824.183;219;150;156.4;57;57.1;11;10.4;29.1;-1.0;
14/06/2019 20:16:36;117;0;204.73;17;25.51;8.12;124.2;10.60;68869;5131.527;-12824.183;219;150;156.4;57;57.1;11;10.4;29.1;-1.0;
14/06/2019 20:16:56;117;0;199.06;17;26.33;8.23;120.6;10.60;68873;5131.527;-12824.183;219;150;156.4;57;57.1;11;10.4;29.1;-1.0;
14/06/2019 20:17:16;117;0;193.64;17;26.48;8.38;116.8;10.60;68885;5131.527;-12824.183;219;150;156.4;57;57.1;18;18.1;29.0;-1.0;
14/06/2019 20:17:36;117;0;201.09;17;25.73;12.49;112.7;10.50;68899;5131.527;-12824.183;219;150;156.4;57;57.1;18;18.5;29.1;-1.0;
14/06/2019 20:17:56;117;0;204.53;17;25.24;12.45;108.5;10.50;68892;5131.527;-12824.183;219;150;156.4;57;57.1;18;18.5;29.1;-1.0;
14/06/2019 20:18:16;117;0;206.79;17;25.38;12.56;104.7;10.50;68905;5131.527;-12824.183;219;150;156.4;57;57.1;12;11.7;29.1;-1.0;
14/06/2019 20:18:36;117;0;206.99;17;25.45;8.75;100.9;10.50;68913;5131.527;-12824.183;219;150;156.4;57;57.1;13;13.1;29.0;-1.0;
14/06/2019 20:18:56;117;0;207.19;17;24.83;9.90;97.3;10.40;68914;5131.527;-12824.183;219;150;156.4;57;57.1;12;11.7;29.1;-1.0;
14/06/2019 20:19:16;117;0;209.06;17;24.51;8.67;93.7;10.40;68920;5131.527;-12824.183;219;150;156.4;57;57.1;11;10.8;29.1;-1.0;
14/06/2019 20:19:36;117;0;210.92;17;23.46;7.84;90.4;10.40;68921;5131.527;-12824.183;219;150;156.4;57;57.1;11;9.9;29.1;-1.0;
14/06/2019 20:19:56;117;0;204.60;17;23.42;8.14;87.5;10.40;68927;5131.527;-12824.183;219;150;156.4;57;57.1;15;14.9;29.0;-1.0;
14/06/2019 20:20:16;117;0;205.31;17;22.74;10.59;84.8;10.30;68932;5131.527;-12824.183;219;150;156.4;57;57.1;13;13.1;29.1;-1.0;
14/06/2019 20:20:36;117;0;201.10;17;22.65;9.50;82.0;10.30;68941;5131.527;-12824.183;219;150;156.4;57;57.1;13;12.6;29.1;-1.0;
14/06/2019 20:20:56;117;0;202.37;17;21.55;9.47;79.2;10.30;68958;5131.527;-12824.183;219;150;156.4;57;57.1;13;12.6;29.1;-1.0;
14/06/2019 20:21:16;117;0;209.73;17;20.73;9.33;76.6;10.30;68954;5131.527;-12824.183;219;150;156.4;57;57.1;9;8.6;29.1;-1.0;
14/06/2019 20:21:36;117;0;208.43;17;21.30;7.27;74.0;10.30;68971;5131.527;-12824.183;219;150;156.4;57;57.1;11;11.3;29.1;-1.0;
14/06/2019 20:21:56;117;0;209.53;17;21.29;8.89;71.2;10.30;68980;5131.527;-12824.183;219;150;156.4;57;57.1;10;9.9;29.1;-1.0;
14/06/2019 20:22:16;117;0;211.15;17;20.57;7.73;68.7;10.30;68991;5131.527;-12824.183;219;150;156.4;57;57.1;9;9.0;29.1;-1.0;
14/06/2019 20:22:36;117;0;213.35;17;20.19;7.14;66.1;10.30;68988;5131.527;-12824.183;219;150;156.4;57;57.1;8;8.1;29.1;-1.0;
14/06/2019 20:22:56;117;0;215.26;17;20.33;7.19;63.6;10.30;68992;5131.527;-12824.183;219;150;156.4;57;57.1;7;6.8;29.1;-1.0;
14/06/2019 20:23:16;117;0;216.56;17;19.85;6.41;61.2;10.30;68990;5131.527;-12824.183;219;150;156.4;57;57.1;7;6.8;29.1;-1.0;
14/06/2019 20:23:36;117;0;218.68;17;19.47;6.55;58.9;10.30;68998;5131.527;-12824.183;219;150;156.4;57;57.1;5;4.5;29.1;-1.0;
14/06/2019 20:23:56;117;0;217.24;17;20.10;5.25;56.5;10.30;69010;5131.527;-12824.183;219;150;156.4;57;57.2;6;5.9;29.1;-1.0;
14/06/2019 20:24:16;117;0;216.59;17;19.84;6.51;54.1;10.30;69004;5131.527;-12824.183;219;150;156.4;57;57.1;6;6.3;29.1;-1.0;
14/06/2019 20:24:36;117;0;220.75;17;19.19;6.46;51.7;10.20;69008;5131.527;-12824.183;219;150;156.4;57;57.1;3;2.7;29.1;-1.0;
14/06/2019 20:24:56;117;0;223.41;17;19.46;4.47;49.3;10.20;69001;5131.527;-12824.183;219;150;156.4;57;57.1;1;0.5;29.1;-1.0;
14/06/2019 20:25:16;117;0;226.85;17;19.33;3.18;47.0;10.20;69009;5131.527;-12824.183;219;150;156.4;57;57.1;0;0.0;29.1;-1.0;
14/06/2019 20:25:36;117;0;225.82;17;19.09;3.23;44.7;10.20;69015;5131.527;-12824.183;219;150;156.4;57;57.1;1;1.4;29.0;-1.0;
14/06/2019 20:25:56;117;0;222.93;17;19.16;4.01;42.5;10.20;69028;5131.527;-12824.183;219;150;156.4;57;57.1;2;1.8;29.0;-1.0;
14/06/2019 20:26:16;117;0;222.32;17;18.58;4.01;40.4;10.20;69042;5131.527;-12824.183;219;150;156.4;57;57.2;1;0.5;29.1;-1.0;
14/06/2019 20:26:36;117;0;221.48;17;18.50;3.25;38.3;10.20;69056;5131.527;-12824.183;219;150;158.4;57;57.1;1;0.5;29.0;-1.0;
14/06/2019 20:26:56;117;0;223.39;17;18.21;3.26;36.4;10.20;69069;5131.527;-12824.183;219;150;156.4;57;57.1;0;0.0;29.1;-1.0;
14/06/2019 20:27:16;117;0;221.34;17;18.45;3.24;34.5;10.20;69062;5131.527;-12824.183;219;150;156.4;57;57.1;0;0.5;29.1;-1.0;
14/06/2019 20:27:36;117;0;225.77;17;17.61;3.40;32.7;10.30;69100;5131.527;-12824.183;219;150;156.4;57;57.1;-2;-1.8;29.0;-1.0;
14/06/2019 20:27:56;117;0;215.75;17;16.98;2.08;30.9;10.30;69133;5131.527;-12824.183;219;150;156.4;57;57.1;3;3.2;29.1;-1.0;
14/06/2019 20:28:16;117;0;210.84;17;17.08;4.96;29.1;10.30;69168;5131.527;-12824.183;219;150;156.4;57;57.1;4;4.1;29.1;-1.0;
14/06/2019 20:28:36;117;0;210.34;17;16.64;5.74;27.4;10.30;69186;5131.527;-12824.183;219;150;156.4;57;57.1;2;1.8;29.1;-1.0;
14/06/2019 20:28:56;117;0;214.64;17;16.53;4.12;25.7;10.30;69213;5131.527;-12824.183;219;150;156.4;57;57.1;-1;-1.4;29.1;-1.0;
14/06/2019 20:29:16;117;0;211.76;17;16.10;2.32;24.0;10.40;69251;5131.527;-12824.183;219;150;156.4;57;57.1;0;0.5;29.1;-1.0;
14/06/2019 20:29:36;117;0;212.68;17;15.97;3.89;22.3;10.40;69278;5131.527;-12824.183;219;150;156.4;57;57.1;-1;-1.4;29.1;-1.0;
14/06/2019 20:29:56;117;0;214.13;17;15.98;2.35;20.7;10.40;69302;5131.527;-12824.183;219;150;156.4;57;57.1;-2;-1.8;29.1;-1.0;
14/06/2019 20:30:16;117;0;214.82;17;16.28;2.36;19.0;10.50;69325;5131.527;-12824.183;219;150;156.4;57;57.1;-2;-1.8;29.1;-1.0;
14/06/2019 20:30:36;117;0;215.70;17;16.22;2.34;17.2;10.50;69351;5131.527;-12824.183;219;150;156.4;57;57.1;-3;-3.2;29.1;-1.0;
14/06/2019 20:30:56;117;0;204.93;17;16.25;1.37;15.5;10.50;69361;5131.527;-12824.183;219;150;156.4;57;57.1;2;1.8;29.1;-1.0;
