Timestamp;NavState;SecurityLevel;Heading;Declination;Pitch;Roll;Depth;Temperature;Pa;Lat;Lon;DesiredH;BallastCmd;BallastPos;LinCmd;LinPos;AngCmd;AngPos;Voltage;Altitude;
14/06/2019 00:40:01;117;0;207.10;17;22.29;-4.04;9.8;11.20;69718;5138.063;-12820.034;209;50;57.4;54;54.1;-14;-14.4;29.3;-1.0;
14/06/2019 00:40:11;115;0;201.11;17;20.97;-4.33;9.4;11.20;69710;5138.063;-12820.034;209;500;67.3;100;100.1;0;0.9;29.3;-1.0;
14/06/2019 00:40:21;115;0;171.72;17;-27.42;4.73;9.0;11.20;69631;5138.063;-12820.034;209;500;217.8;100;99.9;0;0.9;29.0;-1.0;
14/06/2019 00:40:31;115;0;169.72;17;-69.85;5.12;9.5;11.20;69416;5138.063;-12820.034;209;500;378.2;100;99.9;0;0.9;29.0;-1.0;
14/06/2019 00:40:41;115;0;177.94;17;-63.29;6.23;8.7;11.20;69154;5138.063;-12820.034;209;500;505.0;100;99.9;0;0.9;29.0;-1.0;
14/06/2019 00:40:51;115;0;297.28;17;-52.95;-3.83;5.4;11.20;68941;5138.063;-12820.034;209;500;506.9;100;100.0;0;0.9;29.3;-1.0;
14/06/2019 00:41:01;115;0;346.36;17;-34.22;3.81;2.6;11.20;68986;5138.063;-12820.034;209;500;508.9;100;99.9;0;1.4;29.3;-1.0;
14/06/2019 00:41:11;116;0;346.60;17;-30.26;3.35;1.3;11.30;69008;5138.063;-12820.034;209;500;508.9;100;99.7;0;0.9;29.2;-1.0;
14/06/2019 00:41:31;116;0;342.62;17;-6.00;-3.70;1.2;11.30;69040;5138.063;-12820.034;209;500;508.9;100;99.7;0;0.9;29.3;-1.0;
14/06/2019 00:41:51;116;0;334.66;17;-11.60;1.92;1.2;11.40;69064;5137.960;-12820.191;209;500;508.9;100;99.7;0;0.9;29.3;-1.0;
14/06/2019 00:42:11;116;0;314.17;17;-44.80;4.91;1.4;11.50;69083;5137.961;-12820.193;208;500;508.9;100;99.9;0;1.4;29.3;-1.0;
14/06/2019 00:42:31;116;0;293.73;17;-8.99;1.77;1.1;11.60;69101;5137.961;-12820.201;208;500;508.9;100;99.7;0;0.9;29.3;-1.0;
14/06/2019 00:43:47;116;0;293.64;17;-7.58;-2.94;1.1;12.10;69148;5137.962;-12820.199;208;500;508.9;100;99.7;0;1.4;29.3;-1.0;
14/06/2019 00:44:07;116;0;308.89;17;-8.05;-4.39;1.1;12.20;69152;5137.958;-12820.206;208;500;508.9;100;99.7;0;0.9;29.3;-1.0;
14/06/2019 00:44:27;116;0;316.40;17;-20.97;4.99;1.1;12.40;69165;5137.960;-12820.206;208;500;508.9;100;99.7;0;0.9;29.3;-1.0;
14/06/2019 00:44:47;116;0;303.70;17;-22.34;2.85;1.1;12.50;69172;5137.962;-12820.238;208;500;508.9;100;99.7;0;0.9;29.3;-1.0;
14/06/2019 00:50:23;116;0;314.69;17;-29.06;4.37;1.3;13.70;69240;5137.962;-12820.239;208;500;508.9;100;99.9;0;1.4;29.2;-1.0;
14/06/2019 00:50:43;116;0;285.89;17;-7.43;3.66;1.1;13.70;69239;5137.962;-12820.238;208;500;510.9;100;99.7;0;1.4;29.2;-1.0;
14/06/2019 00:51:03;116;0;307.83;17;-5.85;0.32;1.1;13.70;69247;5137.961;-12820.239;208;500;508.9;100;99.6;0;1.4;29.3;-1.0;
14/06/2019 00:51:23;116;0;319.71;17;-23.08;4.45;1.3;13.80;69241;5137.961;-12820.243;208;500;508.9;100;99.7;0;1.4;29.3;-1.0;
14/06/2019 00:51:43;116;0;321.56;17;-5.97;1.60;1.1;13.80;69248;5137.961;-12820.243;208;500;510.9;100;99.7;0;1.4;29.3;-1.0;
14/06/2019 00:52:03;116;0;333.91;17;-21.14;6.16;1.2;13.90;69244;5137.961;-12820.245;208;500;510.9;100;99.7;0;1.4;29.3;-1.0;
14/06/2019 00:52:23;116;0;323.75;17;-6.05;4.65;1.1;13.90;69258;5137.963;-12820.247;208;500;505.0;100;99.7;0;1.4;29.3;-1.0;
14/06/2019 00:52:43;116;0;328.77;17;-17.37;1.35;1.2;13.90;69253;5137.964;-12820.248;208;500;508.9;100;99.7;0;0.9;29.3;-1.0;
14/06/2019 00:53:03;116;0;314.23;17;-4.71;6.69;1.0;14.00;69261;5137.965;-12820.248;208;500;508.9;100;99.7;0;1.4;29.3;-1.0;
14/06/2019 00:53:23;116;0;316.98;17;-7.95;6.01;1.1;14.00;69270;5137.964;-12820.254;208;500;510.9;100;99.7;0;1.4;29.3;-1.0;
14/06/2019 00:54:01;116;0;301.88;17;-8.04;0.56;1.1;14.10;69256;5137.963;-12820.254;208;500;508.9;100;99.7;0;1.4;29.3;-1.0;
14/06/2019 00:54:21;116;0;298.38;17;-6.64;3.64;1.1;14.10;69257;5137.965;-12820.254;208;500;510.9;100;99.7;0;1.4;29.3;-1.0;
14/06/2019 00:54:41;116;0;326.42;17;-12.83;2.52;1.1;14.10;69270;5137.966;-12820.258;208;500;510.9;100;99.7;0;0.9;29.3;-1.0;
14/06/2019 00:55:01;116;0;329.55;17;-5.72;3.51;1.1;14.20;69271;5137.966;-12820.260;208;500;508.9;100;99.6;0;1.4;29.3;-1.0;
14/06/2019 00:55:21;110;0;308.71;17;-8.56;7.05;1.1;14.20;69270;5137.966;-12820.260;208;-250;411.9;100;99.7;0;1.4;29.2;-1.0;
14/06/2019 00:55:31;110;0;331.18;17;-4.95;2.85;1.1;14.30;69508;5137.966;-12820.260;208;-250;269.3;100;99.7;0;1.4;29.2;-1.0;
14/06/2019 00:55:41;110;0;306.52;17;-12.21;3.10;1.1;14.30;69690;5137.966;-12820.260;208;-250;132.7;100;99.7;0;1.4;29.2;-1.0;
14/06/2019 00:55:51;110;0;330.12;17;-11.83;4.89;1.2;14.30;69916;5137.966;-12820.260;208;-250;-11.9;100;99.7;0;1.4;29.2;-1.0;
14/06/2019 00:56:01;110;0;321.59;17;-29.62;6.20;1.5;14.30;70147;5137.966;-12820.260;208;-250;-182.2;99;99.0;0;1.4;29.2;-1.0;
14/06/2019 00:56:11;110;0;322.95;17;-63.28;1.79;3.1;14.30;70418;5137.966;-12820.260;208;-250;-249.5;79;79.0;0;1.4;29.2;-1.0;
14/06/2019 00:56:21;110;0;323.26;17;-48.67;4.56;5.9;14.30;70515;5137.966;-12820.260;208;-250;-249.5;72;72.0;0;1.4;29.3;-1.0;
14/06/2019 00:56:31;100;0;327.16;17;-33.95;4.18;8.9;14.30;70503;5137.966;-12820.260;208;-250;-247.5;71;70.9;0;1.4;29.2;-1.0;
14/06/2019 00:56:51;100;0;324.94;17;-24.32;4.25;13.1;14.30;70480;5137.966;-12820.260;208;-250;-245.5;71;70.9;45;45.1;29.2;0.0;
14/06/2019 00:57:11;100;0;301.79;17;-19.02;25.60;16.5;14.20;70458;5137.966;-12820.260;208;-250;-245.5;71;70.8;45;45.6;29.2;0.0;
14/06/2019 00:57:31;100;0;286.49;17;-20.00;25.26;19.4;14.20;70449;5137.966;-12820.260;208;-250;-245.5;71;70.8;33;32.9;29.3;0.0;
14/06/2019 00:57:51;100;0;270.94;17;-20.62;18.74;22.3;14.10;70435;5137.966;-12820.260;208;-250;-243.6;71;70.9;25;24.4;29.3;0.0;
14/06/2019 00:58:11;100;0;255.54;17;-21.22;14.60;25.2;14.10;70398;5137.966;-12820.260;208;-250;-243.6;71;70.8;19;19.0;29.3;0.0;
14/06/2019 00:58:31;100;0;222.99;17;-20.40;12.09;28.0;14.00;70349;5137.966;-12820.260;208;-250;-243.6;71;70.8;4;4.1;29.2;0.0;
14/06/2019 00:58:51;100;0;210.11;17;-20.85;5.01;30.7;14.00;70312;5137.966;-12820.260;208;-250;-241.6;71;70.8;6;5.9;29.2;0.0;
14/06/2019 00:59:11;100;0;203.50;17;-20.38;6.53;33.3;13.90;70290;5137.966;-12820.260;208;-250;-241.6;71;70.8;8;8.1;29.2;0.0;
14/06/2019 00:59:31;100;0;191.44;17;-20.29;7.54;36.0;13.80;70252;5137.966;-12820.260;208;-250;-243.6;71;70.8;8;9.0;29.3;0.0;
14/06/2019 00:59:51;100;0;182.26;17;-20.36;7.58;38.5;13.80;70220;5137.966;-12820.260;208;-250;-241.6;71;70.8;5;4.5;29.3;0.0;
14/06/2019 01:00:11;100;0;180.60;17;-20.45;5.09;41.1;13.70;70196;5137.966;-12820.260;208;-250;-241.6;71;70.8;7;7.7;29.2;0.0;
14/06/2019 01:00:31;100;0;167.18;17;-19.85;7.32;43.7;13.60;70169;5137.966;-12820.260;208;-250;-243.6;71;70.8;1;0.5;29.2;0.0;
14/06/2019 01:00:51;100;0;157.22;17;-20.21;3.29;46.2;13.60;70147;5137.966;-12820.260;208;-250;-241.6;71;70.8;0;0.0;29.2;0.0;
14/06/2019 01:01:11;100;0;146.75;17;-20.07;3.35;48.6;13.50;70124;5137.966;-12820.260;208;-250;-241.6;71;70.8;-4;-4.1;29.3;0.0;
14/06/2019 01:01:31;100;0;141.77;17;-20.20;1.33;51.1;13.40;70096;5137.966;-12820.260;208;-250;-243.6;71;70.8;-5;-5.0;29.3;0.0;
14/06/2019 01:01:51;100;0;133.77;17;-19.78;0.75;53.6;13.40;70072;5137.966;-12820.260;208;-250;-243.6;71;70.6;-9;-9.0;29.3;0.0;
14/06/2019 01:02:11;100;0;130.85;17;-19.83;-1.14;56.1;13.30;70055;5137.966;-12820.260;208;-250;-243.6;71;70.8;-10;-9.9;29.3;0.0;
14/06/2019 01:02:31;100;0;129.13;17;-19.08;-1.49;58.7;13.20;70041;5137.966;-12820.260;208;-250;-239.6;71;70.8;-11;-10.8;29.3;0.0;
14/06/2019 01:02:51;100;0;125.30;17;-19.28;-2.02;61.1;13.20;70036;5137.966;-12820.260;208;-250;-243.6;71;70.6;-14;-14.0;29.3;0.0;
14/06/2019 01:03:11;100;0;122.40;17;-18.96;-3.25;63.6;13.10;70016;5137.966;-12820.260;208;-250;-241.6;71;70.8;-18;-18.5;29.2;0.0;
14/06/2019 01:03:31;100;0;118.05;17;-19.48;-5.23;66.0;13.00;70006;5137.966;-12820.260;208;-250;-241.6;71;70.8;-21;-21.2;29.3;0.0;
14/06/2019 01:03:51;100;0;119.45;17;-19.06;-6.70;68.3;13.00;69994;5137.966;-12820.260;208;-250;-239.6;71;70.8;-22;-22.1;29.3;0.0;
14/06/2019 01:04:11;100;0;120.49;17;-19.32;-6.78;70.6;12.90;69998;5137.966;-12820.260;208;-250;-241.6;71;70.8;-24;-24.4;29.3;0.0;
14/06/2019 01:04:31;100;0;122.15;17;-19.08;-8.20;73.0;12.90;69977;5137.966;-12820.260;208;-250;-241.6;71;70.8;-26;-26.2;29.3;0.0;
14/06/2019 01:04:51;100;0;125.01;17;-19.17;-9.16;75.1;12.80;69975;5137.966;-12820.260;208;-250;-241.6;71;70.8;-26;-26.6;29.2;0.0;
14/06/2019 01:05:11;100;0;127.78;17;-18.99;-9.08;77.5;12.80;69963;5137.966;-12820.260;208;-250;-241.6;71;70.8;-26;-26.6;29.2;0.0;
14/06/2019 01:05:31;100;0;127.13;17;-18.40;-9.04;79.8;12.70;69953;5137.966;-12820.260;208;-250;-241.6;71;70.8;-26;-26.6;29.3;0.0;
14/06/2019 01:05:51;100;0;129.45;17;-17.74;-9.10;82.1;12.70;69945;5137.966;-12820.260;208;-250;-241.6;71;70.8;-26;-26.6;29.3;0.0;
14/06/2019 01:06:11;100;0;120.07;17;-18.10;-9.08;84.2;12.60;69929;5137.966;-12820.260;208;-250;-241.6;71;70.8;-31;-31.1;29.3;0.0;
14/06/2019 01:06:31;100;0;117.27;17;-17.64;-11.40;86.4;12.50;69910;5137.966;-12820.260;208;-250;-241.6;71;70.6;-32;-32.0;29.3;0.0;
14/06/2019 01:06:51;100;0;125.42;17;-16.73;-12.09;88.3;12.50;69908;5137.966;-12820.260;208;-250;-239.6;71;70.8;-26;-26.2;29.2;0.0;
14/06/2019 01:07:11;100;0;122.40;17;-16.85;-8.44;90.1;12.40;69897;5137.966;-12820.260;208;-250;-239.6;71;70.6;-28;-28.4;29.2;0.0;
14/06/2019 01:07:31;100;0;120.70;17;-17.17;-10.09;91.9;12.40;69886;5137.966;-12820.260;208;-250;-241.6;71;70.8;-29;-28.9;29.2;0.0;
14/06/2019 01:07:51;100;0;122.39;17;-17.04;-10.19;93.7;12.30;69876;5137.966;-12820.260;208;-250;-241.6;71;70.8;-28;-28.0;29.3;0.0;
14/06/2019 01:08:11;100;0;128.33;17;-16.95;-9.60;95.4;12.30;69872;5137.966;-12820.260;208;-250;-239.6;71;70.6;-24;-23.5;29.2;0.0;
14/06/2019 01:08:31;100;0;128.51;17;-16.15;-7.36;97.3;12.20;69855;5137.966;-12820.260;208;-250;-241.6;71;70.8;-26;-26.2;29.3;0.0;
14/06/2019 01:08:51;100;0;127.62;17;-16.28;-9.04;99.0;12.20;69847;5137.966;-12820.260;208;-250;-241.6;71;70.8;-27;-27.1;29.3;0.0;
14/06/2019 01:09:11;100;0;131.41;17;-15.85;-9.62;100.7;12.10;69828;5137.966;-12820.260;208;-250;-239.6;71;70.8;-25;-24.8;29.3;0.0;
14/06/2019 01:09:31;100;0;133.14;17;-15.83;-8.10;102.4;12.10;69847;5137.966;-12820.260;208;-250;-241.6;71;70.8;-24;-23.9;29.2;0.0;
14/06/2019 01:09:51;100;0;136.68;17;-15.89;-7.54;104.0;12.00;69834;5137.966;-12820.260;208;-250;-239.6;71;70.8;-23;-23.0;29.2;0.0;
14/06/2019 01:10:11;100;0;134.27;17;-15.87;-7.51;105.6;12.00;69823;5137.966;-12820.260;208;-250;-241.6;71;70.6;-25;-24.8;29.3;0.0;
14/06/2019 01:10:31;100;0;135.28;17;-15.97;-8.70;107.2;11.90;69806;5137.966;-12820.260;208;-250;-241.6;71;70.8;-25;-25.3;29.3;44.5;
14/06/2019 01:10:51;100;0;137.10;17;-15.86;-8.70;108.8;11.90;69810;5137.966;-12820.260;208;-250;-241.6;71;70.8;-24;-23.5;29.2;42.9;
14/06/2019 01:11:11;100;0;139.30;17;-15.80;-7.49;110.4;11.80;69794;5137.966;-12820.260;208;-250;-239.6;71;70.8;-23;-23.0;29.3;41.4;
14/06/2019 01:11:31;100;0;140.51;17;-15.82;-7.47;111.8;11.80;69797;5137.966;-12820.260;208;-250;-241.6;71;70.8;-23;-23.0;29.2;39.9;
14/06/2019 01:11:51;100;0;142.68;17;-15.71;-7.49;113.4;11.80;69785;5137.966;-12820.260;208;-250;-239.6;71;70.8;-23;-23.0;29.3;38.4;
14/06/2019 01:12:11;100;0;142.75;17;-15.42;-7.41;115.0;11.70;69777;5137.966;-12820.260;208;-250;-241.6;71;70.8;-23;-23.0;29.2;36.8;
14/06/2019 01:12:31;100;0;142.57;17;-15.71;-7.44;116.5;11.60;69778;5137.966;-12820.260;208;-250;-239.6;71;70.8;-24;-24.4;29.3;35.2;
14/06/2019 01:12:51;100;0;144.12;17;-15.68;-8.29;117.9;11.60;69774;5137.966;-12820.260;208;-250;-241.6;71;70.8;-23;-23.0;29.3;33.7;
14/06/2019 01:13:11;100;0;146.22;17;-15.53;-7.11;119.3;11.50;69762;5137.966;-12820.260;208;-250;-241.6;71;70.8;-22;-22.1;29.3;32.0;
14/06/2019 01:13:31;100;0;147.92;17;-15.47;-7.20;120.8;11.50;69754;5137.966;-12820.260;208;-250;-239.6;71;70.8;-22;-22.1;29.3;30.6;
14/06/2019 01:13:51;100;0;147.19;17;-15.37;-7.06;122.1;11.50;69749;5137.966;-12820.260;208;-250;-241.6;71;70.6;-23;-23.0;29.2;29.2;
14/06/2019 01:14:11;100;0;153.26;17;-15.26;-7.74;123.4;11.40;69743;5137.966;-12820.260;208;-250;-241.6;71;70.8;-19;-19.0;29.3;27.8;
14/06/2019 01:14:31;100;0;154.43;17;-14.67;-5.21;124.8;11.40;69730;5137.966;-12820.260;208;-250;-241.6;71;70.6;-20;-20.3;29.2;26.4;
14/06/2019 01:14:51;100;0;155.73;17;-14.90;-6.37;126.1;11.30;69725;5137.966;-12820.260;208;-250;-239.6;71;70.6;-20;-20.8;29.3;25.0;
14/06/2019 01:15:12;100;0;159.31;17;-14.70;-6.36;127.4;11.30;69724;5137.966;-12820.260;208;-250;-239.6;71;70.6;-19;-19.0;29.2;23.6;
14/06/2019 01:15:32;100;0;157.42;17;-14.63;-5.12;128.7;11.20;69708;5137.966;-12820.260;208;-250;-239.6;71;70.6;-21;-21.2;29.2;22.3;
14/06/2019 01:15:52;100;0;155.66;17;-14.50;-6.73;130.0;11.20;69693;5137.966;-12820.260;208;-250;-239.6;71;70.8;-22;-22.1;29.3;21.0;
14/06/2019 01:16:12;100;0;156.40;17;-14.29;-7.37;131.4;11.20;69699;5137.966;-12820.260;208;-250;-239.6;71;70.8;-21;-21.2;29.3;19.6;
14/06/2019 01:16:32;118;0;160.14;17;-14.41;-6.43;132.6;11.10;69686;5137.966;-12820.260;208;50;-223.8;54;53.8;0;0.9;29.2;18.3;
14/06/2019 01:16:42;118;0;135.13;17;11.66;4.09;133.2;11.10;69591;5137.966;-12820.260;208;50;-65.3;54;54.1;0;0.9;28.8;18.3;
14/06/2019 01:16:52;118;0;135.28;17;29.91;3.51;132.5;11.10;69383;5137.966;-12820.260;208;50;55.4;54;54.1;0;0.9;28.8;-1.0;
14/06/2019 01:17:02;118;0;166.19;17;30.60;3.10;131.5;11.10;69197;5137.966;-12820.260;208;50;55.4;54;54.1;0;0.9;29.3;-1.0;
14/06/2019 01:17:12;118;0;167.96;17;31.81;3.86;130.0;11.00;69208;5137.966;-12820.260;208;50;55.4;54;54.1;0;0.9;29.2;-1.0;
14/06/2019 01:17:22;117;0;171.33;17;31.69;3.58;128.3;11.00;69207;5137.966;-12820.260;208;50;57.4;54;54.1;0;0.9;29.2;-1.0;
14/06/2019 01:17:42;117;0;168.64;17;32.36;3.63;124.6;11.00;69203;5137.966;-12820.260;208;50;55.4;54;54.1;14;14.0;29.2;-1.0;
14/06/2019 01:18:02;117;0;169.02;17;32.03;10.77;120.4;11.00;69202;5137.966;-12820.260;208;50;55.4;54;54.1;16;15.8;29.2;-1.0;
14/06/2019 01:18:22;117;0;171.49;17;31.60;11.65;116.3;10.90;69213;5137.966;-12820.260;208;50;55.4;54;54.1;16;16.2;29.2;-1.0;
14/06/2019 01:18:42;117;0;177.56;17;30.66;11.51;112.4;10.90;69216;5137.966;-12820.260;208;50;55.4;54;54.1;14;14.0;29.3;-1.0;
14/06/2019 01:19:02;117;0;177.41;17;30.97;9.73;108.7;10.90;69216;5137.966;-12820.260;208;50;55.4;54;54.1;15;14.9;29.2;-1.0;
14/06/2019 01:19:22;117;0;183.22;17;30.69;11.18;105.1;10.80;69211;5137.966;-12820.260;208;50;55.4;54;54.1;13;13.1;29.3;-1.0;
14/06/2019 01:19:42;117;0;182.76;17;30.76;9.37;101.5;10.80;69215;5137.966;-12820.260;208;50;55.4;54;54.1;15;14.9;29.3;-1.0;
14/06/2019 01:20:02;117;0;181.84;17;30.19;10.82;98.2;10.80;69224;5137.966;-12820.260;208;50;55.4;54;54.1;16;15.8;29.2;-1.0;
14/06/2019 01:20:22;117;0;185.16;17;30.26;11.10;94.9;10.70;69224;5137.966;-12820.260;208;50;57.4;54;54.1;14;13.5;29.2;-1.0;
14/06/2019 01:20:42;117;0;190.03;17;29.24;9.58;91.6;10.70;69226;5137.966;-12820.260;208;50;55.4;54;54.1;14;13.1;29.2;-1.0;
14/06/2019 01:21:02;117;0;195.28;17;29.79;9.50;88.5;10.70;69229;5137.966;-12820.260;208;50;55.4;54;54.1;11;10.4;29.2;-1.0;
14/06/2019 01:21:22;117;0;197.97;17;27.89;8.13;85.6;10.70;69246;5137.966;-12820.260;208;50;55.4;54;54.1;11;10.4;29.2;-1.0;
14/06/2019 01:21:42;117;0;206.85;17;28.18;8.22;82.9;10.70;69237;5137.966;-12820.260;208;50;55.4;54;54.1;6;5.4;29.2;-1.0;
14/06/2019 01:22:02;117;0;206.12;17;27.90;5.65;80.5;10.60;69246;5137.966;-12820.260;208;50;55.4;54;54.1;8;8.6;29.3;-1.0;
14/06/2019 01:22:22;117;0;199.78;17;27.58;7.88;78.0;10.60;69250;5137.966;-12820.260;208;50;57.4;54;54.1;12;12.2;29.3;-1.0;
14/06/2019 01:22:42;117;0;204.16;17;27.32;9.75;75.5;10.60;69250;5137.966;-12820.260;208;50;57.4;54;54.1;8;8.1;29.2;-1.0;
14/06/2019 01:23:02;117;0;208.78;17;27.25;6.99;73.0;10.60;69257;5137.966;-12820.260;208;50;55.4;54;54.1;6;5.4;29.3;-1.0;
14/06/2019 01:23:22;117;0;209.87;17;26.58;5.76;70.5;10.60;69257;5137.966;-12820.260;208;50;55.4;54;54.1;6;5.0;29.2;-1.0;
14/06/2019 01:23:42;117;0;209.14;17;26.67;5.78;68.1;10.60;69277;5137.966;-12820.260;208;50;55.4;54;54.1;6;5.0;29.3;-1.0;
14/06/2019 01:24:02;117;0;207.89;17;25.82;5.63;65.7;10.50;69268;5137.966;-12820.260;208;50;55.4;54;54.1;7;7.2;29.3;-1.0;
14/06/2019 01:24:22;117;0;209.22;17;26.50;7.12;63.5;10.50;69279;5137.966;-12820.260;208;50;55.4;54;54.1;5;5.0;29.2;-1.0;
14/06/2019 01:24:42;117;0;209.80;17;25.85;5.44;61.4;10.50;69281;5137.966;-12820.260;208;50;55.4;54;54.1;5;4.5;29.3;-1.0;
14/06/2019 01:25:02;117;0;214.00;17;26.09;5.51;59.2;10.50;69278;5137.966;-12820.260;208;50;57.4;54;54.1;2;1.4;29.3;-1.0;
14/06/2019 01:25:22;117;0;208.00;17;26.31;3.78;57.1;10.50;69295;5137.966;-12820.260;208;50;55.4;54;54.1;5;5.0;29.3;-1.0;
14/06/2019 01:25:42;117;0;205.69;17;25.59;6.07;55.2;10.50;69290;5137.966;-12820.260;208;50;57.4;54;54.1;5;5.4;29.2;-1.0;
14/06/2019 01:26:02;117;0;203.66;17;25.86;6.12;53.1;10.50;69294;5137.966;-12820.260;208;50;57.4;54;54.1;5;5.4;29.3;-1.0;
14/06/2019 01:26:22;117;0;204.55;17;25.50;6.08;51.3;10.50;69294;5137.966;-12820.260;208;50;57.4;54;54.1;3;2.7;29.3;-1.0;
14/06/2019 01:26:42;117;0;205.17;17;25.41;4.32;49.4;10.50;69302;5137.966;-12820.260;208;50;55.4;54;54.1;2;1.8;29.2;-1.0;
14/06/2019 01:27:02;117;0;208.00;17;25.34;3.74;47.6;10.50;69312;5137.966;-12820.260;208;50;55.4;54;54.1;0;-0.5;29.3;-1.0;
14/06/2019 01:27:22;117;0;215.74;17;25.71;2.88;46.0;10.50;69320;5137.966;-12820.260;208;50;55.4;54;54.1;-3;-3.2;29.2;-1.0;
14/06/2019 01:27:42;117;0;217.44;17;24.91;1.49;44.2;10.50;69314;5137.966;-12820.260;208;50;57.4;54;54.1;-3;-3.6;29.3;-1.0;
14/06/2019 01:28:02;117;0;221.13;17;25.13;1.42;42.5;10.50;69315;5137.966;-12820.260;208;50;55.4;54;54.1;-5;-5.0;29.2;-1.0;
14/06/2019 01:28:22;117;0;222.80;17;24.79;0.65;40.9;10.40;69327;5137.966;-12820.260;208;50;57.4;54;54.1;-5;-5.4;29.3;-1.0;
14/06/2019 01:28:42;117;0;220.29;17;24.99;0.58;39.3;10.50;69334;5137.966;-12820.260;208;50;57.4;54;54.1;-3;-3.2;29.3;-1.0;
14/06/2019 01:29:02;117;0;216.98;17;24.61;2.28;37.7;10.50;69344;5137.966;-12820.260;208;50;57.4;54;54.1;-2;-1.8;29.2;-1.0;
14/06/2019 01:29:22;117;0;222.58;17;24.64;2.86;36.0;10.50;69360;5137.966;-12820.260;208;50;57.4;54;54.1;-6;-5.9;29.2;-1.0;
14/06/2019 01:29:42;117;0;227.41;17;24.57;0.10;34.3;10.50;69376;5137.966;-12820.260;208;50;55.4;54;54.1;-9;-9.0;29.2;-1.0;
14/06/2019 01:30:02;117;0;229.71;17;24.59;-1.35;32.6;10.50;69382;5137.966;-12820.260;208;50;55.4;54;54.1;-10;-9.9;29.3;-1.0;
14/06/2019 01:30:22;117;0;234.00;17;24.57;-1.87;30.8;10.50;69387;5137.966;-12820.260;208;50;57.4;54;54.1;-11;-10.8;29.2;-1.0;
14/06/2019 01:30:42;117;0;230.43;17;24.57;-2.31;29.2;10.50;69400;5137.966;-12820.260;208;50;57.4;54;54.1;-9;-8.6;29.3;-1.0;
14/06/2019 01:31:02;117;0;225.50;17;24.36;-0.67;27.5;10.50;69419;5137.966;-12820.260;208;50;55.4;54;54.1;-7;-7.2;29.2;-1.0;
14/06/2019 01:31:22;117;0;240.26;17;23.72;0.16;25.8;10.50;69431;5137.966;-12820.260;208;50;57.4;54;54.1;-18;-18.1;29.3;-1.0;
14/06/2019 01:31:42;117;0;249.07;17;24.24;-5.74;24.3;10.50;69443;5137.966;-12820.260;208;50;55.4;54;54.1;-23;-23.0;29.3;-1.0;
14/06/2019 01:32:02;117;0;246.19;17;23.07;-8.38;23.0;10.50;69466;5137.966;-12820.260;208;50;57.4;54;54.2;-21;-21.2;29.2;-1.0;
14/06/2019 01:32:22;117;0;244.64;17;23.34;-6.67;21.9;10.60;69484;5137.966;-12820.260;208;50;57.4;54;54.1;-21;-20.8;29.2;-1.0;
14/06/2019 01:32:42;117;0;249.32;17;22.95;-6.78;20.8;10.60;69500;5137.966;-12820.260;208;50;55.4;54;54.1;-26;-26.6;29.2;-1.0;
14/06/2019 01:33:02;117;0;246.45;17;23.01;-9.99;19.6;10.60;69505;5137.966;-12820.260;208;50;57.4;54;54.1;-25;-24.8;29.2;-1.0;
14/06/2019 01:33:22;117;0;241.75;17;22.86;-8.64;18.5;10.60;69537;5137.966;-12820.260;208;50;57.4;54;54.1;-23;-23.0;29.3;-1.0;
14/06/2019 01:33:42;117;0;236.36;17;23.18;-7.80;17.4;10.60;69558;5137.966;-12820.260;208;50;57.4;54;54.1;-21;-20.8;29.3;-1.0;
14/06/2019 01:34:02;117;0;230.55;17;22.93;-6.51;16.3;10.70;69580;5137.966;-12820.260;208;50;57.4;54;54.1;-19;-19.0;29.2;-1.0;
14/06/2019 01:34:22;117;0;223.99;17;22.12;-5.73;15.2;10.70;69594;5137.966;-12820.260;208;50;57.4;54;54.1;-16;-15.8;29.3;-1.0;
14/06/2019 01:34:42;117;0;217.45;17;22.48;-4.08;14.1;10.70;69616;5137.966;-12820.260;208;50;57.4;54;54.1;-15;-14.9;29.2;-1.0;
14/06/2019 01:35:02;117;0;212.76;17;21.96;-4.17;13.2;10.80;69626;5137.966;-12820.260;208;50;57.4;54;54.1;-15;-14.9;29.2;-1.0;
14/06/2019 01:35:22;117;0;210.44;17;21.75;-3.85;12.2;10.80;69630;5137.966;-12820.260;208;50;55.4;54;54.1;-15;-14.9;29.2;-1.0;
14/06/2019 01:35:42;117;0;206.46;17;21.49;-4.20;11.2;10.80;69632;5137.966;-12820.260;208;50;57.4;54;54.1;-15;-14.9;29.3;-1.0;
14/06/2019 01:36:02;117;0;207.33;17;21.85;-3.85;10.5;10.80;69643;5137.966;-12820.260;208;50;57.4;54;54.1;-17;-17.1;29.2;-1.0;
