Timestamp;NavState;SecurityLevel;Heading;Declination;Pitch;Roll;Depth;Temperature;Pa;Lat;Lon;DesiredH;BallastCmd;BallastPos;LinCmd;LinPos;AngCmd;AngPos;Voltage;Altitude;
13/06/2019 22:24:20;117;0;245.93;17;20.54;-2.04;9.7;11.10;69623;5138.882;-12818.948;210;100;108.9;55;55.0;-17;-17.6;29.3;-1.0;
13/06/2019 22:24:30;115;0;238.98;17;20.37;-5.70;8.9;11.10;69630;5138.882;-12818.948;210;500;118.8;100;100.1;0;0.9;29.3;-1.0;
13/06/2019 22:24:40;115;0;201.53;17;-22.15;4.38;8.3;11.10;69532;5138.882;-12818.948;210;500;269.3;100;100.0;0;0.9;29.0;-1.0;
13/06/2019 22:24:50;115;0;222.80;17;-62.34;7.70;9.2;11.10;69331;5138.882;-12818.948;210;500;425.7;100;100.0;0;0.9;29.0;-1.0;
13/06/2019 22:25:00;115;0;256.78;17;-61.64;-1.08;8.7;11.10;69079;5138.882;-12818.948;210;500;505.0;100;100.0;0;0.9;29.0;-1.0;
13/06/2019 22:25:10;115;0;317.46;17;-38.55;-2.46;6.1;11.20;68969;5138.882;-12818.948;210;500;506.9;100;100.0;0;0.9;29.3;-1.0;
13/06/2019 22:25:20;116;0;3.76;17;-68.73;-6.49;3.3;11.20;69003;5138.882;-12818.948;210;500;506.9;100;100.0;0;0.9;29.3;-1.0;
13/06/2019 22:25:40;116;0;315.58;17;-34.94;8.54;1.4;11.20;69039;5138.882;-12818.948;210;500;506.9;100;100.0;0;0.9;29.3;-1.0;
13/06/2019 22:26:00;116;0;314.89;17;-14.07;9.28;1.2;11.30;69079;5138.560;-12819.163;210;500;508.9;100;99.9;0;0.9;29.3;-1.0;
13/06/2019 22:26:20;116;0;308.06;17;-8.23;2.12;1.1;11.40;69109;5138.560;-12819.171;210;500;508.9;100;99.9;0;0.9;29.3;-1.0;
13/06/2019 22:26:40;116;0;330.72;17;-5.54;-5.75;1.1;11.50;69116;5138.557;-12819.176;210;500;506.9;100;99.9;0;0.9;29.3;-1.0;
13/06/2019 22:27:00;116;0;320.90;17;-12.61;7.76;1.1;11.60;69141;5138.554;-12819.183;210;500;508.9;100;99.9;0;0.9;29.3;-1.0;
13/06/2019 22:27:20;116;0;302.63;17;-7.61;5.54;1.1;11.70;69155;5138.555;-12819.186;210;500;508.9;100;100.0;0;0.9;29.3;-1.0;
13/06/2019 22:27:40;116;0;302.89;17;-8.82;-0.58;1.1;11.80;69152;5138.552;-12819.192;210;500;508.9;100;99.9;0;0.9;29.3;-1.0;
13/06/2019 22:28:00;116;0;296.29;17;-9.67;10.16;1.0;11.90;69180;5138.548;-12819.197;210;500;508.9;100;99.9;0;0.9;29.3;-1.0;
13/06/2019 22:28:20;116;0;321.58;17;-9.31;8.47;1.1;12.10;69186;5138.547;-12819.200;210;500;508.9;100;99.9;0;0.9;29.3;-1.0;
13/06/2019 22:28:40;116;0;301.08;17;-27.45;7.38;1.3;12.20;69192;5138.544;-12819.215;210;500;508.9;100;99.9;0;0.9;29.3;-1.0;
13/06/2019 22:29:19;116;0;316.80;17;-8.24;6.86;1.1;12.30;69209;5138.544;-12819.216;210;500;510.9;100;99.9;0;0.9;29.2;-1.0;
13/06/2019 22:29:39;116;0;330.86;17;-6.11;5.99;1.1;12.40;69225;5138.543;-12819.219;210;500;510.9;100;99.9;0;0.9;29.2;-1.0;
13/06/2019 22:29:59;116;0;295.35;17;-27.71;4.81;1.2;12.50;69228;5138.540;-12819.226;210;500;508.9;100;99.9;0;0.9;29.2;-1.0;
13/06/2019 22:30:19;116;0;308.65;17;-15.60;1.05;1.2;12.60;69227;5138.538;-12819.230;210;500;508.9;100;99.9;0;0.9;29.3;-1.0;
13/06/2019 22:30:39;116;0;291.36;17;-8.05;-2.02;1.1;12.70;69237;5138.536;-12819.230;210;500;508.9;100;99.9;0;0.9;29.3;-1.0;
13/06/2019 22:30:59;116;0;298.17;17;-7.22;-1.50;1.1;12.80;69248;5138.536;-12819.238;210;500;508.9;100;99.9;0;0.9;29.3;-1.0;
13/06/2019 22:31:19;116;0;306.35;17;-20.06;5.76;1.2;12.90;69257;5138.536;-12819.241;210;500;508.9;100;99.9;0;0.9;29.3;-1.0;
13/06/2019 22:31:39;116;0;306.12;17;-17.05;6.21;1.1;13.00;69259;5138.534;-12819.245;209;500;508.9;100;100.0;0;0.9;29.3;-1.0;
13/06/2019 22:31:59;116;0;277.79;17;-6.77;-0.66;1.1;13.10;69260;5138.500;-12819.317;209;500;510.9;100;99.9;0;0.9;29.3;-1.0;
13/06/2019 22:36:42;116;0;321.46;17;-9.61;5.83;1.0;13.90;69318;5138.499;-12819.317;209;500;508.9;100;99.9;0;0.9;29.3;-1.0;
13/06/2019 22:37:02;116;0;310.83;17;-7.18;6.10;1.1;14.00;69327;5138.499;-12819.328;209;500;510.9;100;99.9;0;0.9;29.3;-1.0;
13/06/2019 22:37:23;116;0;307.17;17;-19.19;6.54;1.2;14.00;69318;5138.499;-12819.331;209;500;508.9;100;100.0;0;0.9;29.3;-1.0;
13/06/2019 22:37:43;116;0;334.66;17;-4.81;5.52;1.1;14.10;69332;5138.496;-12819.334;209;500;508.9;100;99.9;0;0.9;29.3;-1.0;
13/06/2019 22:38:03;116;0;326.58;17;-20.45;1.26;1.3;14.10;69322;5138.468;-12819.405;209;500;508.9;100;99.9;0;0.9;29.3;-1.0;
13/06/2019 22:43:39;116;0;301.62;17;-6.66;1.64;1.1;14.70;69364;5138.468;-12819.405;209;500;508.9;100;99.9;0;0.9;29.3;-1.0;
13/06/2019 22:43:59;116;0;306.40;17;-10.81;3.90;1.1;14.70;69357;5138.465;-12819.412;209;500;508.9;100;99.9;0;0.9;29.3;-1.0;
13/06/2019 22:44:19;116;0;328.95;17;-15.79;6.63;1.2;14.70;69364;5138.464;-12819.414;209;500;508.9;100;99.9;0;0.9;29.3;-1.0;
13/06/2019 22:44:39;116;0;300.06;17;-26.75;6.64;1.2;14.70;69371;5138.463;-12819.418;209;500;508.9;100;99.9;0;0.9;29.3;-1.0;
13/06/2019 22:44:59;116;0;289.13;17;-11.03;7.67;1.1;14.80;69364;5138.461;-12819.422;209;500;508.9;100;99.9;0;0.9;29.3;-1.0;
13/06/2019 22:45:19;116;0;294.93;17;-7.37;8.81;1.1;14.80;69377;5138.459;-12819.426;209;500;508.9;100;99.9;0;0.9;29.3;-1.0;
13/06/2019 22:45:39;116;0;313.09;17;-24.70;0.26;1.3;14.80;69366;5138.457;-12819.432;209;500;508.9;100;100.0;0;0.9;29.3;-1.0;
13/06/2019 22:45:59;116;0;316.41;17;-14.17;7.28;1.1;14.80;69372;5138.456;-12819.436;209;500;508.9;100;99.9;0;0.9;29.3;-1.0;
13/06/2019 22:46:19;116;0;309.33;17;-6.38;-1.16;1.0;14.80;69375;5138.455;-12819.437;209;500;508.9;100;100.0;0;0.9;29.3;-1.0;
13/06/2019 22:46:39;116;0;323.87;17;-6.09;-0.01;1.1;14.90;69374;5138.450;-12819.450;209;500;508.9;100;99.9;0;0.9;29.3;-1.0;
13/06/2019 22:47:17;116;0;329.07;17;-7.70;4.96;1.1;14.90;69372;5138.450;-12819.450;209;500;508.9;100;99.9;0;0.9;29.2;-1.0;
13/06/2019 22:47:37;116;0;296.05;17;-7.03;7.00;1.1;14.90;69382;5138.449;-12819.455;209;500;510.9;100;99.9;0;0.9;29.2;-1.0;
13/06/2019 22:47:57;116;0;295.15;17;-9.21;-2.58;1.1;14.90;69381;5138.446;-12819.459;209;500;510.9;100;100.0;0;0.9;29.3;-1.0;
13/06/2019 22:48:27;110;0;312.38;17;-7.67;6.10;1.1;15.00;69375;5138.446;-12819.459;209;-250;407.9;100;99.9;0;0.9;29.3;-1.0;
13/06/2019 22:48:37;110;0;328.53;17;-9.84;4.64;1.1;15.00;69620;5138.446;-12819.459;209;-250;265.3;100;99.9;0;0.9;29.2;-1.0;
13/06/2019 22:48:47;110;0;322.92;17;-16.49;4.63;1.2;15.00;69809;5138.446;-12819.459;209;-250;118.8;100;99.9;0;0.9;29.2;-1.0;
13/06/2019 22:48:57;110;0;284.92;17;-24.35;3.06;1.3;15.00;70047;5138.446;-12819.459;209;-250;-39.6;100;100.0;0;0.9;29.2;-1.0;
13/06/2019 22:49:07;110;0;321.56;17;-44.83;2.89;2.2;15.00;70309;5138.446;-12819.459;209;-250;-237.6;95;94.6;0;0.9;29.2;-1.0;
13/06/2019 22:49:17;110;0;313.16;17;-57.12;6.75;4.1;15.00;70644;5138.446;-12819.459;209;-250;-251.5;72;71.8;0;0.9;29.2;-1.0;
13/06/2019 22:49:27;110;0;321.92;17;-39.85;3.41;6.9;15.00;70623;5138.446;-12819.459;209;-250;-249.5;71;70.9;0;0.9;29.3;-1.0;
13/06/2019 22:49:37;100;0;321.19;17;-29.77;4.30;9.2;15.00;70592;5138.446;-12819.459;209;-250;-247.5;71;70.9;0;0.9;29.3;-1.0;
13/06/2019 22:49:57;100;0;303.87;17;-22.55;4.33;12.9;15.00;70563;5138.446;-12819.459;209;-250;-245.5;71;70.9;45;45.1;29.3;0.0;
13/06/2019 22:50:17;100;0;279.88;17;-18.53;25.61;16.3;14.90;70552;5138.446;-12819.459;209;-250;-245.5;71;70.9;28;27.5;29.2;0.0;
13/06/2019 22:50:37;100;0;263.54;17;-20.66;16.20;19.0;14.80;70510;5138.446;-12819.459;209;-250;-245.5;71;70.8;20;19.9;29.3;0.0;
13/06/2019 22:50:57;100;0;250.21;17;-21.79;12.67;21.8;14.80;70483;5138.446;-12819.459;209;-250;-243.6;71;70.8;17;17.1;29.3;0.0;
13/06/2019 22:51:17;100;0;236.92;17;-19.44;10.78;24.6;14.70;70450;5138.446;-12819.459;209;-250;-245.5;71;70.8;14;13.5;29.3;0.0;
13/06/2019 22:51:37;100;0;216.36;17;-19.97;9.36;27.2;14.60;70402;5138.446;-12819.459;209;-250;-243.6;71;70.8;7;7.2;29.3;0.0;
13/06/2019 22:51:57;100;0;205.93;17;-19.76;6.31;29.9;14.60;70356;5138.446;-12819.459;209;-250;-245.5;71;70.8;7;6.8;29.3;0.0;
13/06/2019 22:52:17;100;0;197.74;17;-19.92;6.38;32.4;14.50;70322;5138.446;-12819.459;209;-250;-245.5;71;70.9;7;6.8;29.3;0.0;
13/06/2019 22:52:37;100;0;188.20;17;-20.42;6.41;35.0;14.40;70297;5138.446;-12819.459;209;-250;-243.6;71;70.9;7;6.8;29.3;0.0;
13/06/2019 22:52:57;100;0;180.56;17;-20.61;6.33;37.4;14.30;70274;5138.446;-12819.459;209;-250;-243.6;71;70.8;5;5.0;29.3;0.0;
13/06/2019 22:53:17;100;0;170.00;17;-19.74;5.20;40.0;14.20;70249;5138.446;-12819.459;209;-250;-243.6;71;70.8;2;1.8;29.3;0.0;
13/06/2019 22:53:37;100;0;162.35;17;-19.65;3.94;42.6;14.20;70227;5138.446;-12819.459;209;-250;-243.6;71;70.8;0;0.0;29.2;0.0;
13/06/2019 22:53:57;100;0;152.61;17;-19.84;3.17;45.1;14.10;70195;5138.446;-12819.459;209;-250;-243.6;71;70.8;-2;-1.8;29.3;0.0;
13/06/2019 22:54:17;100;0;142.79;17;-19.96;2.39;47.6;14.00;70190;5138.446;-12819.459;209;-250;-243.6;71;70.8;-6;-5.9;29.2;0.0;
13/06/2019 22:54:37;100;0;134.31;17;-19.50;0.39;50.1;13.90;70157;5138.446;-12819.459;209;-250;-243.6;71;70.8;-9;-9.0;29.2;0.0;
13/06/2019 22:54:57;100;0;129.94;17;-19.79;-1.02;52.4;13.80;70150;5138.446;-12819.459;209;-250;-243.6;71;70.8;-11;-10.8;29.3;0.0;
13/06/2019 22:55:17;100;0;130.17;17;-19.38;-1.83;54.8;13.70;70123;5138.446;-12819.459;209;-250;-243.6;71;70.8;-10;-9.9;29.3;0.0;
13/06/2019 22:55:37;100;0;125.18;17;-19.40;-0.97;57.2;13.70;70111;5138.446;-12819.459;209;-250;-243.6;71;70.8;-15;-14.9;29.3;0.0;
13/06/2019 22:55:57;100;0;123.69;17;-19.53;-3.79;59.4;13.60;70099;5138.446;-12819.459;209;-250;-243.6;71;70.8;-17;-17.1;29.3;0.0;
13/06/2019 22:56:17;100;0;120.98;17;-19.35;-4.90;61.7;13.50;70084;5138.446;-12819.459;209;-250;-243.6;71;70.8;-21;-21.2;29.3;0.0;
13/06/2019 22:56:37;100;0;118.26;17;-19.46;-6.45;63.9;13.50;70075;5138.446;-12819.459;209;-250;-243.6;71;70.8;-24;-23.9;29.3;0.0;
13/06/2019 22:56:57;100;0;119.17;17;-19.35;-7.84;66.2;13.40;70069;5138.446;-12819.459;209;-250;-243.6;71;70.8;-25;-24.8;29.2;0.0;
13/06/2019 22:57:17;100;0;121.42;17;-18.90;-8.37;68.4;13.30;70054;5138.446;-12819.459;209;-250;-243.6;71;70.8;-26;-26.2;29.3;0.0;
13/06/2019 22:57:37;100;0;122.36;17;-19.64;-8.99;70.6;13.30;70038;5138.446;-12819.459;209;-250;-243.6;71;70.8;-28;-28.4;29.3;0.0;
13/06/2019 22:57:57;100;0;122.62;17;-19.26;-10.06;72.8;13.20;70036;5138.446;-12819.459;209;-250;-243.6;71;70.8;-28;-28.9;29.3;0.0;
13/06/2019 22:58:17;100;0;123.06;17;-18.99;-10.03;75.0;13.20;70025;5138.446;-12819.459;209;-250;-243.6;71;70.8;-28;-28.9;29.3;0.0;
13/06/2019 22:58:37;100;0;125.88;17;-18.66;-10.21;77.2;13.10;70020;5138.446;-12819.459;209;-250;-243.6;71;70.8;-27;-27.1;29.2;0.0;
13/06/2019 22:58:57;100;0;131.28;17;-18.17;-8.96;79.2;13.00;69999;5138.446;-12819.459;209;-250;-243.6;71;70.6;-24;-23.9;29.3;0.0;
13/06/2019 22:59:17;100;0;132.24;17;-18.25;-7.47;81.1;13.00;69995;5138.446;-12819.459;209;-250;-243.6;71;70.8;-25;-24.8;29.3;0.0;
13/06/2019 22:59:37;100;0;131.43;17;-17.69;-8.57;82.9;12.90;69993;5138.446;-12819.459;209;-250;-243.6;71;70.8;-26;-26.2;29.3;0.0;
13/06/2019 22:59:57;100;0;125.57;17;-18.14;-9.10;84.8;12.90;69977;5138.446;-12819.459;209;-250;-241.6;71;70.6;-30;-29.8;29.3;0.0;
13/06/2019 23:00:17;100;0;124.27;17;-17.50;-10.81;86.6;12.80;69968;5138.446;-12819.459;209;-250;-241.6;71;70.8;-29;-28.9;29.3;0.0;
13/06/2019 23:00:37;100;0;130.96;17;-17.09;-9.96;88.3;12.80;69964;5138.446;-12819.459;209;-250;-241.6;71;70.8;-25;-24.8;29.3;0.0;
13/06/2019 23:00:57;100;0;133.85;17;-16.86;-7.80;90.1;12.70;69956;5138.446;-12819.459;209;-250;-241.6;71;70.8;-24;-23.9;29.3;0.0;
13/06/2019 23:01:17;100;0;136.73;17;-16.53;-7.73;91.8;12.60;69940;5138.446;-12819.459;209;-250;-241.6;71;70.8;-23;-22.6;29.3;0.0;
13/06/2019 23:01:37;100;0;134.20;17;-16.44;-6.85;93.6;12.60;69922;5138.446;-12819.459;209;-250;-243.6;71;70.8;-26;-26.2;29.3;0.0;
13/06/2019 23:01:57;100;0;133.99;17;-16.02;-9.15;95.3;12.50;69915;5138.446;-12819.459;209;-250;-241.6;71;70.8;-26;-26.6;29.3;0.0;
13/06/2019 23:02:17;100;0;135.02;17;-16.28;-9.22;97.0;12.50;69907;5138.446;-12819.459;209;-250;-241.6;71;70.6;-25;-24.8;29.3;0.0;
13/06/2019 23:02:37;100;0;139.17;17;-15.92;-8.01;98.6;12.40;69897;5138.446;-12819.459;209;-250;-241.6;71;70.8;-23;-23.0;29.2;0.0;
13/06/2019 23:02:57;100;0;140.88;17;-15.78;-7.06;100.2;12.40;69898;5138.446;-12819.459;209;-250;-241.6;71;70.8;-23;-22.1;29.3;0.0;
13/06/2019 23:03:17;100;0;141.14;17;-15.51;-7.05;101.8;12.30;69880;5138.446;-12819.459;209;-250;-241.6;71;70.8;-23;-22.1;29.3;0.0;
13/06/2019 23:03:37;100;0;143.25;17;-15.58;-7.15;103.3;12.20;69878;5138.446;-12819.459;209;-250;-241.6;71;70.8;-23;-22.1;29.3;0.0;
13/06/2019 23:03:57;100;0;142.28;17;-15.50;-7.05;104.9;12.20;69865;5138.446;-12819.459;209;-250;-241.6;71;70.8;-24;-23.9;29.3;44.2;
13/06/2019 23:04:17;100;0;141.56;17;-15.53;-8.18;106.4;12.10;69853;5138.446;-12819.459;209;-250;-241.6;71;70.8;-25;-24.8;29.3;42.8;
13/06/2019 23:04:37;100;0;140.45;17;-15.45;-8.40;107.9;12.10;69845;5138.446;-12819.459;209;-250;-241.6;71;70.8;-25;-25.3;29.3;41.2;
13/06/2019 23:04:57;100;0;140.18;17;-15.41;-8.47;109.5;12.00;69835;5138.446;-12819.459;209;-250;-241.6;71;70.8;-25;-25.3;29.3;39.4;
13/06/2019 23:05:17;100;0;141.65;17;-15.48;-8.53;111.0;12.00;69834;5138.446;-12819.459;209;-250;-241.6;71;70.8;-24;-23.9;29.3;38.0;
13/06/2019 23:05:37;100;0;140.41;17;-15.13;-7.54;112.6;11.90;69815;5138.446;-12819.459;209;-250;-241.6;71;70.8;-25;-25.3;29.3;36.3;
13/06/2019 23:05:58;100;0;141.15;17;-15.33;-8.77;114.0;11.90;69809;5138.446;-12819.459;209;-250;-241.6;71;70.8;-24;-23.5;29.3;34.9;
13/06/2019 23:06:18;100;0;141.37;17;-15.17;-7.50;115.5;11.80;69808;5138.446;-12819.459;209;-250;-241.6;71;70.8;-24;-23.0;29.3;33.5;
13/06/2019 23:06:38;100;0;138.92;17;-15.03;-7.44;116.9;11.70;69797;5138.446;-12819.459;209;-250;-241.6;71;70.8;-26;-26.2;29.3;32.1;
13/06/2019 23:06:58;100;0;139.20;17;-14.98;-9.11;118.2;11.70;69794;5138.446;-12819.459;209;-250;-241.6;71;70.6;-25;-24.4;29.3;30.7;
13/06/2019 23:07:18;100;0;141.16;17;-14.71;-8.02;119.6;11.60;69784;5138.446;-12819.459;209;-250;-239.6;71;70.8;-24;-23.9;29.3;29.1;
13/06/2019 23:07:38;118;0;140.86;17;-14.57;-7.91;121.0;11.60;69771;5138.446;-12819.459;209;50;-223.8;55;54.7;0;0.9;29.3;27.7;
13/06/2019 23:07:48;118;0;121.37;17;9.55;4.08;121.5;11.60;69684;5138.446;-12819.459;209;50;-65.3;55;55.1;0;0.9;28.8;27.7;
13/06/2019 23:07:58;118;0;123.44;17;26.42;3.77;121.1;11.60;69480;5138.446;-12819.459;209;50;55.4;55;55.3;0;0.9;28.9;-1.0;
13/06/2019 23:08:08;118;0;149.85;17;27.64;3.62;120.0;11.60;69298;5138.446;-12819.459;209;50;55.4;55;55.1;0;0.9;29.3;-1.0;
13/06/2019 23:08:18;118;0;151.15;17;29.08;3.84;118.8;11.50;69295;5138.446;-12819.459;209;50;55.4;55;55.1;0;0.9;29.3;-1.0;
13/06/2019 23:08:28;117;0;154.09;17;29.98;3.80;117.4;11.50;69283;5138.446;-12819.459;209;50;55.4;55;55.1;0;0.9;29.2;-1.0;
13/06/2019 23:08:48;117;0;160.09;17;30.06;3.91;114.0;11.50;69276;5138.446;-12819.459;209;50;57.4;55;55.1;13;13.1;29.3;-1.0;
13/06/2019 23:09:08;117;0;168.66;17;29.02;10.23;110.0;11.40;69287;5138.446;-12819.459;209;50;55.4;55;55.1;13;13.5;29.3;-1.0;
13/06/2019 23:09:28;117;0;174.99;17;28.47;9.97;106.7;11.40;69278;5138.446;-12819.459;209;50;55.4;55;55.1;12;12.2;29.3;-1.0;
13/06/2019 23:09:48;117;0;177.98;17;28.14;8.73;103.7;11.30;69283;5138.446;-12819.459;209;50;55.4;55;55.1;13;13.1;29.3;-1.0;
13/06/2019 23:10:08;117;0;178.56;17;28.15;10.06;100.6;11.30;69280;5138.446;-12819.459;209;50;55.4;55;55.1;15;14.9;29.3;-1.0;
13/06/2019 23:10:28;117;0;175.92;17;28.31;10.95;97.5;11.20;69289;5138.446;-12819.459;209;50;55.4;55;55.1;18;18.1;29.3;-1.0;
13/06/2019 23:10:48;117;0;181.67;17;27.03;12.75;94.5;11.20;69286;5138.446;-12819.459;209;50;55.4;55;55.1;14;14.0;29.3;-1.0;
13/06/2019 23:11:08;117;0;184.34;17;27.17;9.66;91.8;11.20;69301;5138.446;-12819.459;209;50;55.4;55;55.1;14;13.1;29.3;-1.0;
13/06/2019 23:11:28;117;0;181.62;17;27.45;9.77;89.1;11.10;69309;5138.446;-12819.459;209;50;55.4;55;55.3;16;15.8;29.3;-1.0;
13/06/2019 23:11:48;117;0;181.60;17;27.44;11.54;86.5;11.10;69302;5138.446;-12819.459;209;50;55.4;55;55.1;16;16.2;29.3;-1.0;
13/06/2019 23:12:08;117;0;186.83;17;26.08;11.70;83.7;11.10;69303;5138.446;-12819.459;209;50;55.4;55;55.1;14;14.0;29.3;-1.0;
13/06/2019 23:12:28;117;0;193.57;17;26.71;9.67;81.2;11.00;69311;5138.446;-12819.459;209;50;55.4;55;55.1;14;13.1;29.2;-1.0;
13/06/2019 23:12:48;117;0;196.80;17;25.87;9.66;78.8;11.00;69312;5138.446;-12819.459;209;50;57.4;55;55.1;11;10.4;29.2;-1.0;
13/06/2019 23:13:08;117;0;198.93;17;25.91;8.28;76.3;11.00;69314;5138.446;-12819.459;209;50;55.4;55;55.1;11;10.4;29.3;-1.0;
13/06/2019 23:13:28;117;0;199.49;17;24.74;8.25;73.7;11.00;69328;5138.446;-12819.459;209;50;57.4;55;55.1;11;9.9;29.3;-1.0;
13/06/2019 23:13:48;117;0;201.46;17;24.39;8.48;71.4;10.90;69317;5138.446;-12819.459;209;50;57.4;55;55.3;10;9.9;29.3;-1.0;
13/06/2019 23:14:08;117;0;208.00;17;24.16;7.86;69.4;10.90;69339;5138.446;-12819.459;209;50;55.4;55;55.1;6;5.9;29.3;-1.0;
13/06/2019 23:14:28;117;0;212.64;17;24.28;5.89;67.5;10.90;69336;5138.446;-12819.459;209;50;55.4;55;55.3;5;5.0;29.3;-1.0;
13/06/2019 23:14:48;117;0;213.26;17;24.00;5.58;65.4;10.90;69355;5138.446;-12819.459;209;50;55.4;55;55.3;5;4.5;29.2;-1.0;
13/06/2019 23:15:08;117;0;209.16;17;24.01;5.51;63.5;10.90;69348;5138.446;-12819.459;209;50;55.4;55;55.1;8;8.1;29.3;-1.0;
13/06/2019 23:15:28;117;0;207.47;17;23.75;7.51;61.6;10.90;69347;5138.446;-12819.459;209;50;55.4;55;55.1;8;8.6;29.3;-1.0;
13/06/2019 23:15:48;117;0;207.86;17;23.81;7.60;59.9;10.80;69346;5138.446;-12819.459;209;50;55.4;55;55.1;7;7.2;29.3;-1.0;
13/06/2019 23:16:08;117;0;210.11;17;24.06;6.68;58.0;10.80;69351;5138.446;-12819.459;209;50;55.4;55;55.1;5;5.0;29.3;-1.0;
13/06/2019 23:16:28;117;0;207.72;17;23.56;5.47;56.3;10.80;69348;5138.446;-12819.459;209;50;55.4;55;55.1;6;5.9;29.3;-1.0;
13/06/2019 23:16:48;117;0;204.16;17;23.55;6.81;54.5;10.80;69343;5138.446;-12819.459;209;50;55.4;55;55.1;7;7.2;29.3;-1.0;
13/06/2019 23:17:08;117;0;205.66;17;23.60;7.29;52.9;10.80;69349;5138.446;-12819.459;209;50;55.4;55;55.1;5;5.0;29.3;-1.0;
13/06/2019 23:17:28;117;0;203.41;17;22.96;5.52;51.2;10.80;69352;5138.446;-12819.459;209;50;57.4;55;55.1;6;6.3;29.3;-1.0;
13/06/2019 23:17:48;117;0;206.64;17;22.54;6.78;49.6;10.80;69351;5138.446;-12819.459;209;50;55.4;55;55.1;3;3.2;29.2;-1.0;
13/06/2019 23:18:08;117;0;208.40;17;22.57;4.60;48.0;10.80;69368;5138.446;-12819.459;209;50;55.4;55;55.3;2;1.4;29.3;-1.0;
13/06/2019 23:18:28;117;0;212.61;17;22.87;3.77;46.5;10.70;69371;5138.446;-12819.459;209;50;55.4;55;55.1;0;-0.5;29.3;-1.0;
13/06/2019 23:18:48;117;0;218.42;17;22.24;2.92;45.0;10.70;69372;5138.446;-12819.459;209;50;55.4;55;55.3;-3;-3.2;29.3;-1.0;
13/06/2019 23:19:08;117;0;219.40;17;22.61;1.36;43.4;10.70;69372;5138.446;-12819.459;209;50;57.4;55;55.1;-2;-1.8;29.3;-1.0;
13/06/2019 23:19:28;117;0;217.63;17;22.34;2.92;41.9;10.70;69383;5138.446;-12819.459;209;50;57.4;55;55.1;-1;-0.9;29.3;-1.0;
13/06/2019 23:19:48;117;0;218.85;17;22.31;2.83;40.4;10.70;69380;5138.446;-12819.459;209;50;57.4;55;55.1;-2;-2.3;29.3;-1.0;
13/06/2019 23:20:08;117;0;219.45;17;22.30;2.01;38.8;10.70;69393;5138.446;-12819.459;209;50;57.4;55;55.1;-3;-3.2;29.3;-1.0;
13/06/2019 23:20:28;117;0;222.72;17;22.55;1.48;37.2;10.70;69394;5138.446;-12819.459;209;50;55.4;55;55.1;-5;-5.0;29.3;-1.0;
13/06/2019 23:20:48;117;0;221.48;17;22.26;0.53;35.7;10.70;69401;5138.446;-12819.459;209;50;57.4;55;55.1;-4;-4.1;29.3;-1.0;
13/06/2019 23:21:08;117;0;224.06;17;22.18;1.86;34.0;10.70;69406;5138.446;-12819.459;209;50;57.4;55;55.1;-6;-5.9;29.3;-1.0;
13/06/2019 23:21:28;117;0;221.37;17;22.06;0.27;32.3;10.70;69425;5138.446;-12819.459;209;50;57.4;55;55.1;-4;-4.1;29.3;-1.0;
13/06/2019 23:21:48;117;0;218.21;17;22.08;1.84;30.7;10.70;69434;5138.446;-12819.459;209;50;57.4;55;55.1;-3;-3.2;29.3;-1.0;
13/06/2019 23:22:08;117;0;221.22;17;22.02;1.88;29.2;10.70;69428;5138.446;-12819.459;209;50;57.4;55;55.1;-6;-6.3;29.3;-1.0;
13/06/2019 23:22:28;117;0;226.80;17;22.20;0.07;27.7;10.70;69445;5138.446;-12819.459;209;50;57.4;55;55.1;-10;-9.9;29.3;-1.0;
13/06/2019 23:22:48;117;0;232.06;17;22.52;-1.62;26.2;10.70;69459;5138.446;-12819.459;209;50;57.4;55;55.1;-13;-13.1;29.3;-1.0;
13/06/2019 23:23:08;117;0;233.81;17;21.88;-3.45;24.9;10.70;69470;5138.446;-12819.459;209;50;57.4;55;55.1;-12;-11.7;29.3;-1.0;
13/06/2019 23:23:28;117;0;240.25;17;21.73;-2.22;23.5;10.70;69472;5138.446;-12819.459;209;50;57.4;55;55.1;-17;-17.6;29.3;-1.0;
13/06/2019 23:23:48;117;0;250.51;17;21.21;-5.36;22.4;10.70;69489;5138.446;-12819.459;209;50;57.4;55;55.1;-23;-23.0;29.3;-1.0;
13/06/2019 23:24:08;117;0;248.29;17;20.52;-8.08;21.4;10.70;69498;5138.446;-12819.459;209;50;57.4;55;55.1;-22;-22.1;29.3;-1.0;
13/06/2019 23:24:28;117;0;239.26;17;20.47;-7.18;20.5;10.80;69521;5138.446;-12819.459;209;50;57.4;55;55.1;-17;-17.1;29.2;-1.0;
13/06/2019 23:24:48;117;0;241.17;17;21.60;-4.69;19.7;10.80;69533;5138.446;-12819.459;209;50;57.4;55;55.1;-22;-22.6;29.2;-1.0;
13/06/2019 23:25:08;117;0;240.95;17;19.62;-7.88;18.7;10.80;69545;5138.446;-12819.459;209;50;57.4;55;55.1;-23;-23.0;29.3;-1.0;
13/06/2019 23:25:28;117;0;235.22;17;19.88;-7.97;17.8;10.80;69566;5138.446;-12819.459;209;50;55.4;55;55.1;-21;-21.2;29.3;-1.0;
13/06/2019 23:25:48;117;0;226.21;17;20.22;-6.54;16.9;10.80;69580;5138.446;-12819.459;209;50;57.4;55;55.1;-17;-17.1;29.3;-1.0;
13/06/2019 23:26:08;117;0;222.65;17;19.80;-4.69;15.9;10.90;69612;5138.446;-12819.459;209;50;57.4;55;55.1;-17;-16.7;29.3;-1.0;
13/06/2019 23:26:28;117;0;224.30;17;20.83;-4.58;15.1;10.90;69633;5138.446;-12819.459;209;50;57.4;55;55.3;-20;-19.9;29.3;-1.0;
13/06/2019 23:26:48;117;0;221.86;17;20.67;-6.56;14.2;10.90;69643;5138.446;-12819.459;209;50;57.4;55;55.1;-19;-19.0;29.3;-1.0;
13/06/2019 23:27:08;117;0;219.15;17;20.71;-5.89;13.3;10.90;69674;5138.446;-12819.459;209;50;57.4;55;55.1;-18;-18.1;29.3;-1.0;
13/06/2019 23:27:28;117;0;215.13;17;19.55;-5.24;12.4;11.00;69689;5138.446;-12819.459;209;50;57.4;55;55.1;-17;-17.1;29.3;-1.0;
13/06/2019 23:27:48;117;0;212.33;17;20.03;-4.72;11.5;11.00;69714;5138.446;-12819.459;209;50;57.4;55;55.1;-16;-15.8;29.3;-1.0;
13/06/2019 23:28:08;117;0;204.90;17;20.38;-4.65;10.7;11.00;69715;5138.446;-12819.459;209;50;57.4;55;55.1;-13;-13.1;29.3;-1.0;
