Timestamp;NavState;SecurityLevel;Heading;Declination;Pitch;Roll;Depth;Temperature;Pa;Lat;Lon;DesiredH;BallastCmd;BallastPos;LinCmd;LinPos;AngCmd;AngPos;Voltage;Altitude;
13/06/2019 20:53:13;117;0;185.03;17;24.53;-1.45;9.9;11.40;69776;5139.674;-12818.425;161;100;106.9;53;53.2;-10;-9.9;29.3;-1.0;
13/06/2019 20:53:23;115;0;179.19;17;24.25;-1.81;9.1;11.40;69771;5139.674;-12818.425;161;500;118.8;100;99.0;0;0.5;29.3;-1.0;
13/06/2019 20:53:33;115;0;150.51;17;-20.43;4.36;8.4;11.50;69695;5139.674;-12818.425;161;500;267.3;100;100.4;0;0.5;29.0;-1.0;
13/06/2019 20:53:43;115;0;152.90;17;-71.93;-1.57;9.1;11.50;69498;5139.674;-12818.425;161;500;423.8;100;100.4;0;0.5;29.0;-1.0;
13/06/2019 20:53:54;115;0;167.53;17;-63.32;0.78;8.4;11.50;69246;5139.674;-12818.425;161;500;505.0;100;100.4;0;0.9;29.0;-1.0;
13/06/2019 20:54:04;115;0;283.45;17;-39.21;-1.04;5.4;11.50;69124;5139.674;-12818.425;161;500;506.9;100;100.3;0;0.5;29.3;-1.0;
13/06/2019 20:54:14;116;0;326.57;17;-53.41;0.31;2.9;11.50;69149;5139.674;-12818.425;161;500;506.9;100;100.4;0;0.9;29.3;-1.0;
13/06/2019 20:54:34;116;0;307.79;17;-19.13;1.18;1.2;11.60;69171;5139.674;-12818.425;161;500;508.9;100;100.3;0;0.9;29.3;-1.0;
13/06/2019 20:54:54;116;0;315.35;17;-6.17;2.99;1.1;11.70;69202;5139.441;-12818.415;161;500;508.9;100;100.3;0;0.9;29.3;-1.0;
13/06/2019 20:55:14;116;0;286.52;17;-15.52;1.68;1.1;11.70;69213;5139.439;-12818.416;161;500;508.9;100;100.1;0;0.9;29.3;-1.0;
13/06/2019 20:55:34;116;0;255.18;17;-12.48;-14.31;1.1;11.80;69225;5139.431;-12818.424;161;500;508.9;100;100.3;0;0.9;29.3;-1.0;
13/06/2019 20:55:54;116;0;285.74;17;-7.81;3.68;1.1;11.90;69227;5139.429;-12818.426;161;500;508.9;100;100.3;0;0.9;29.3;-1.0;
13/06/2019 20:56:14;116;0;326.09;17;-4.84;4.42;1.1;12.00;69250;5139.422;-12818.429;161;500;508.9;100;100.3;0;0.9;29.3;-1.0;
13/06/2019 20:56:34;116;0;308.99;17;-7.64;4.98;1.1;12.10;69247;5139.400;-12818.455;161;500;508.9;100;100.3;0;0.9;29.3;-1.0;
13/06/2019 20:58:00;116;0;319.83;17;-5.30;0.50;1.0;12.60;69285;5139.398;-12818.456;161;500;510.9;100;100.3;0;0.9;29.3;-1.0;
13/06/2019 20:58:20;116;0;305.46;17;-12.13;-1.39;1.1;12.70;69288;5139.389;-12818.460;161;500;508.9;100;100.3;0;0.9;29.3;-1.0;
13/06/2019 20:58:40;116;0;310.02;17;-5.02;-2.32;1.1;12.80;69290;5139.392;-12818.458;161;500;510.9;100;100.1;0;0.9;29.3;-1.0;
13/06/2019 20:59:00;116;0;295.37;17;-11.51;1.20;1.1;13.00;69300;5139.388;-12818.467;161;500;508.9;100;100.3;0;0.9;29.3;-1.0;
13/06/2019 20:59:31;116;0;299.92;17;-26.90;4.48;1.3;13.10;69308;5139.386;-12818.468;161;500;508.9;100;100.4;0;0.9;29.3;-1.0;
13/06/2019 20:59:51;116;0;302.42;17;-18.18;3.18;1.1;13.20;69318;5139.389;-12818.471;161;500;508.9;100;100.3;0;0.9;29.3;-1.0;
13/06/2019 21:00:11;116;0;274.34;17;-5.90;1.50;1.1;13.30;69322;5139.379;-12818.472;161;500;508.9;100;100.3;0;0.9;29.3;-1.0;
13/06/2019 21:00:31;116;0;312.94;17;-6.04;2.82;1.0;13.40;69316;5139.377;-12818.476;161;500;508.9;100;100.1;0;0.9;29.3;-1.0;
13/06/2019 21:00:51;116;0;281.32;17;-6.89;0.25;1.1;13.40;69336;5139.377;-12818.483;161;500;508.9;100;100.3;0;0.9;29.3;-1.0;
13/06/2019 21:01:11;116;0;289.96;17;-9.19;2.92;1.1;13.50;69335;5139.373;-12818.488;161;500;508.9;100;100.3;0;0.9;29.3;-1.0;
13/06/2019 21:01:31;116;0;282.00;17;-5.99;1.42;1.0;13.60;69330;5139.373;-12818.498;161;500;508.9;100;100.3;0;0.9;29.3;-1.0;
13/06/2019 21:01:52;116;0;304.79;17;-26.89;3.78;1.2;13.70;69341;5139.373;-12818.498;161;500;508.9;100;100.3;0;0.9;29.3;-1.0;
13/06/2019 21:02:12;116;0;300.96;17;-10.72;1.81;1.1;13.70;69355;5139.370;-12818.501;161;500;508.9;100;100.3;0;0.9;29.3;-1.0;
13/06/2019 21:02:32;116;0;304.45;17;-2.97;0.27;1.1;13.80;69335;5139.361;-12818.514;161;500;508.9;100;100.3;0;0.9;29.3;-1.0;
13/06/2019 21:03:05;116;0;268.30;17;-7.50;3.74;1.1;13.90;69352;5139.361;-12818.515;161;500;508.9;100;100.3;0;0.9;29.3;-1.0;
13/06/2019 21:03:25;116;0;304.01;17;-5.18;0.68;1.1;14.00;69359;5139.359;-12818.513;209;500;508.9;100;100.3;0;0.9;29.3;-1.0;
13/06/2019 21:03:45;116;0;270.23;17;-5.48;4.44;1.1;14.10;69356;5139.353;-12818.523;209;500;508.9;100;100.3;0;0.9;29.3;-1.0;
13/06/2019 21:04:05;116;0;303.74;17;-8.42;0.30;1.1;14.30;69362;5139.349;-12818.528;209;500;508.9;100;100.3;0;0.9;29.3;-1.0;
13/06/2019 21:04:25;116;0;312.26;17;-10.75;7.78;1.1;14.30;69356;5139.347;-12818.529;209;500;508.9;100;100.1;0;0.9;29.3;-1.0;
13/06/2019 21:04:45;110;0;300.57;17;-6.11;8.06;1.0;14.40;69361;5139.347;-12818.529;209;-250;409.9;100;100.3;0;0.9;29.3;-1.0;
13/06/2019 21:04:55;110;0;288.95;17;-7.98;-2.07;1.0;14.40;69596;5139.347;-12818.529;209;-250;271.3;100;100.3;0;0.9;29.2;-1.0;
13/06/2019 21:05:05;110;0;303.17;17;-6.51;7.23;1.0;14.40;69791;5139.347;-12818.529;209;-250;132.7;100;100.3;0;0.9;29.2;-1.0;
13/06/2019 21:05:15;110;0;311.63;17;-18.48;8.89;1.1;14.40;70014;5139.347;-12818.529;209;-250;-13.9;100;100.4;0;0.9;29.2;-1.0;
13/06/2019 21:05:25;110;0;317.25;17;-38.52;3.28;1.8;14.40;70249;5139.347;-12818.529;209;-250;-198.0;98;98.1;0;0.9;29.2;-1.0;
13/06/2019 21:05:35;110;0;337.17;17;-56.83;5.89;3.6;14.40;70558;5139.347;-12818.529;209;-250;-249.5;77;77.0;0;0.9;29.2;-1.0;
13/06/2019 21:05:45;110;0;326.10;17;-47.19;4.83;6.4;14.50;70608;5139.347;-12818.529;209;-250;-249.5;72;72.0;0;0.9;29.3;-1.0;
13/06/2019 21:05:55;100;0;324.97;17;-33.04;3.49;9.2;14.50;70607;5139.347;-12818.529;209;-250;-247.5;71;70.9;0;0.9;29.3;-1.0;
13/06/2019 21:06:15;100;0;315.93;17;-22.74;4.11;13.5;14.50;70594;5139.347;-12818.529;209;-250;-245.5;71;70.8;45;45.1;29.3;0.0;
13/06/2019 21:06:35;100;0;296.49;17;-18.97;25.50;17.0;14.40;70573;5139.347;-12818.529;209;-250;-243.6;71;70.8;38;37.5;29.3;0.0;
13/06/2019 21:06:55;100;0;282.77;17;-19.37;20.88;19.9;14.40;70573;5139.347;-12818.529;209;-250;-243.6;71;70.8;30;29.8;29.3;0.0;
13/06/2019 21:07:15;100;0;270.62;17;-20.09;16.85;22.8;14.40;70538;5139.347;-12818.529;209;-250;-243.6;71;70.8;25;24.8;29.3;0.0;
13/06/2019 21:07:35;100;0;251.96;17;-20.21;14.68;25.7;14.30;70498;5139.347;-12818.529;209;-250;-243.6;71;70.8;17;17.1;29.3;0.0;
13/06/2019 21:07:55;100;0;241.10;17;-20.14;10.75;28.5;14.30;70470;5139.347;-12818.529;209;-250;-241.6;71;70.8;16;15.3;29.2;0.0;
13/06/2019 21:08:15;100;0;228.96;17;-19.15;10.12;31.4;14.20;70429;5139.347;-12818.529;209;-250;-241.6;71;70.8;13;13.1;29.3;0.0;
13/06/2019 21:08:35;100;0;215.60;17;-19.13;8.81;34.1;14.10;70385;5139.347;-12818.529;209;-250;-241.6;71;70.8;10;9.9;29.3;0.0;
13/06/2019 21:08:55;100;0;204.71;17;-19.05;7.41;36.7;14.00;70350;5139.347;-12818.529;209;-250;-243.6;71;70.8;8;8.1;29.3;0.0;
13/06/2019 21:09:15;100;0;195.23;17;-19.51;6.75;39.2;14.00;70325;5139.347;-12818.529;209;-250;-241.6;71;70.8;7;6.8;29.3;0.0;
13/06/2019 21:09:35;100;0;185.44;17;-19.77;6.21;41.7;13.90;70299;5139.347;-12818.529;209;-250;-241.6;71;70.8;7;6.3;29.3;0.0;
13/06/2019 21:09:55;100;0;175.37;17;-20.22;6.24;44.2;13.90;70277;5139.347;-12818.529;209;-250;-241.6;71;70.8;3;2.7;29.3;0.0;
13/06/2019 21:10:15;100;0;172.26;17;-20.19;4.28;46.6;13.80;70262;5139.347;-12818.529;209;-250;-241.6;71;70.8;4;4.1;29.3;0.0;
13/06/2019 21:10:35;100;0;164.40;17;-19.48;5.66;49.1;13.70;70232;5139.347;-12818.529;209;-250;-241.6;71;70.8;2;1.4;29.3;0.0;
13/06/2019 21:10:55;100;0;157.11;17;-19.75;3.67;51.6;13.60;70217;5139.347;-12818.529;209;-250;-243.6;71;70.8;0;0.0;29.3;0.0;
13/06/2019 21:11:15;100;0;148.81;17;-19.33;3.09;54.1;13.60;70204;5139.347;-12818.529;209;-250;-241.6;71;70.8;-2;-1.8;29.3;0.0;
13/06/2019 21:11:35;100;0;137.40;17;-19.62;2.35;56.6;13.50;70193;5139.347;-12818.529;209;-250;-241.6;71;70.8;-8;-8.1;29.3;0.0;
13/06/2019 21:11:55;100;0;126.86;17;-19.59;-0.57;59.1;13.40;70173;5139.347;-12818.529;209;-250;-241.6;71;70.8;-13;-13.1;29.3;0.0;
13/06/2019 21:12:15;100;0;122.86;17;-20.16;-2.97;61.6;13.40;70156;5139.347;-12818.529;209;-250;-241.6;71;70.8;-14;-14.4;29.3;0.0;
13/06/2019 21:12:35;100;0;123.62;17;-19.97;-3.55;64.0;13.30;70144;5139.347;-12818.529;209;-250;-241.6;71;70.8;-14;-14.9;29.3;0.0;
13/06/2019 21:12:55;100;0;124.95;17;-19.37;-3.54;66.5;13.30;70136;5139.347;-12818.529;209;-250;-241.6;71;70.8;-15;-14.9;29.3;0.0;
13/06/2019 21:13:15;100;0;126.14;17;-19.11;-3.56;68.9;13.20;70122;5139.347;-12818.529;209;-250;-241.6;71;70.6;-16;-15.8;29.3;0.0;
13/06/2019 21:13:35;100;0;128.00;17;-19.23;-4.27;71.3;13.10;70112;5139.347;-12818.529;209;-250;-241.6;71;70.8;-17;-17.1;29.3;0.0;
13/06/2019 21:13:55;100;0;127.63;17;-19.27;-4.86;73.5;13.10;70093;5139.347;-12818.529;209;-250;-241.6;71;70.6;-21;-21.2;29.2;0.0;
13/06/2019 21:14:15;100;0;129.68;17;-19.01;-6.61;75.9;13.00;70095;5139.347;-12818.529;209;-250;-241.6;71;70.8;-22;-22.6;29.3;0.0;
13/06/2019 21:14:35;100;0;124.16;17;-19.32;-7.20;78.0;13.00;70084;5139.347;-12818.529;209;-250;-241.6;71;70.8;-28;-28.0;29.3;0.0;
13/06/2019 21:14:55;100;0;123.28;17;-18.62;-9.95;80.3;12.90;70076;5139.347;-12818.529;209;-250;-241.6;71;70.8;-29;-28.9;29.3;0.0;
13/06/2019 21:15:15;100;0;129.65;17;-17.94;-10.14;82.5;12.90;70054;5139.347;-12818.529;209;-250;-241.6;71;70.8;-25;-24.8;29.3;0.0;
13/06/2019 21:15:35;100;0;128.80;17;-18.20;-7.95;84.4;12.80;70044;5139.347;-12818.529;209;-250;-241.6;71;70.8;-27;-27.1;29.3;0.0;
13/06/2019 21:15:55;100;0;126.47;17;-18.68;-9.54;86.3;12.80;70026;5139.347;-12818.529;209;-250;-241.6;71;70.8;-28;-28.0;29.3;0.0;
13/06/2019 21:16:15;100;0;123.72;17;-17.78;-9.63;88.2;12.70;70020;5139.347;-12818.529;209;-250;-241.6;71;70.8;-29;-28.9;29.3;0.0;
13/06/2019 21:16:35;100;0;125.85;17;-16.83;-10.55;90.2;12.70;70005;5139.347;-12818.529;209;-250;-239.6;71;70.8;-28;-27.5;29.3;0.0;
13/06/2019 21:16:55;100;0;130.51;17;-16.93;-9.39;92.1;12.60;69997;5139.347;-12818.529;209;-250;-241.6;71;70.8;-25;-24.8;29.3;0.0;
13/06/2019 21:17:15;100;0;135.35;17;-16.66;-8.16;93.9;12.50;69982;5139.347;-12818.529;209;-250;-241.6;71;70.6;-23;-22.6;29.3;0.0;
13/06/2019 21:17:35;100;0;135.63;17;-16.54;-6.87;95.5;12.50;69973;5139.347;-12818.529;209;-250;-241.6;71;70.6;-24;-23.9;29.3;0.0;
13/06/2019 21:17:55;100;0;136.06;17;-16.40;-8.02;97.3;12.40;69964;5139.347;-12818.529;209;-250;-241.6;71;70.8;-24;-24.4;29.3;0.0;
13/06/2019 21:18:15;100;0;136.55;17;-16.44;-7.97;99.0;12.40;69968;5139.347;-12818.529;209;-250;-243.6;71;70.6;-25;-24.8;29.3;44.4;
13/06/2019 21:18:35;100;0;136.82;17;-16.12;-8.50;100.8;12.30;69955;5139.347;-12818.529;209;-250;-239.6;71;70.8;-25;-25.3;29.3;42.6;
13/06/2019 21:18:55;100;0;140.47;17;-15.77;-8.55;102.5;12.30;69941;5139.347;-12818.529;209;-250;-241.6;71;70.6;-23;-23.0;29.3;40.8;
13/06/2019 21:19:15;100;0;142.45;17;-15.93;-7.16;104.2;12.20;69945;5139.347;-12818.529;209;-250;-241.6;71;70.8;-23;-22.1;29.3;39.0;
13/06/2019 21:19:35;100;0;145.08;17;-15.72;-7.09;106.0;12.20;69932;5139.347;-12818.529;209;-250;-239.6;71;70.8;-22;-22.1;29.3;37.2;
13/06/2019 21:19:55;100;0;140.85;17;-15.95;-6.95;107.5;12.10;69922;5139.347;-12818.529;209;-250;-239.6;71;70.6;-26;-26.2;29.3;35.4;
13/06/2019 21:20:15;100;0;143.67;17;-15.61;-9.38;109.2;12.10;69912;5139.347;-12818.529;209;-250;-239.6;71;70.6;-24;-23.9;29.3;33.9;
13/06/2019 21:20:35;100;0;145.64;17;-15.60;-7.55;110.8;12.00;69909;5139.347;-12818.529;209;-250;-239.6;71;70.8;-23;-23.0;29.3;32.1;
13/06/2019 21:20:55;100;0;149.91;17;-15.50;-7.57;112.4;11.90;69897;5139.347;-12818.529;209;-250;-239.6;71;70.8;-21;-21.2;29.3;30.4;
13/06/2019 21:21:15;100;0;152.51;17;-15.19;-6.23;114.0;11.90;69893;5139.347;-12818.529;209;-250;-241.6;71;70.8;-20;-19.4;29.3;28.7;
13/06/2019 21:21:35;118;0;152.84;17;-15.06;-5.35;115.6;11.90;69881;5139.347;-12818.529;209;100;-225.7;53;52.8;0;0.5;29.3;27.1;
13/06/2019 21:21:45;118;0;127.84;17;9.55;3.92;116.3;11.80;69797;5139.347;-12818.529;209;100;-67.3;53;53.2;0;0.5;28.9;27.1;
13/06/2019 21:21:56;118;0;130.23;17;28.66;3.51;115.7;11.80;69590;5139.347;-12818.529;209;100;89.1;53;53.2;0;0.5;28.9;-1.0;
13/06/2019 21:22:06;118;0;130.23;17;31.37;3.52;114.7;11.80;69329;5139.347;-12818.529;209;100;105.0;53;53.2;0;0.5;28.9;-1.0;
13/06/2019 21:22:16;118;0;156.19;17;32.65;3.47;113.2;11.80;69316;5139.347;-12818.529;209;100;105.0;53;53.2;0;0.5;29.3;-1.0;
13/06/2019 21:22:26;117;0;152.30;17;33.76;3.44;111.4;11.80;69316;5139.347;-12818.529;209;100;105.0;53;53.2;0;0.5;29.3;-1.0;
13/06/2019 21:22:46;117;0;151.78;17;33.40;3.92;107.4;11.70;69312;5139.347;-12818.529;209;100;105.0;53;53.2;22;22.6;29.3;-1.0;
13/06/2019 21:23:06;117;0;156.50;17;33.10;14.79;102.6;11.60;69311;5139.347;-12818.529;209;100;106.9;53;53.2;20;19.9;29.3;-1.0;
13/06/2019 21:23:26;117;0;162.97;17;32.39;12.71;98.3;11.60;69311;5139.347;-12818.529;209;100;105.0;53;53.2;17;17.1;29.3;-1.0;
13/06/2019 21:23:46;117;0;164.30;17;33.07;11.20;94.2;11.60;69320;5139.347;-12818.529;209;100;105.0;53;53.2;17;16.7;29.3;-1.0;
13/06/2019 21:24:06;117;0;162.12;17;31.72;11.40;90.0;11.50;69317;5139.347;-12818.529;209;100;105.0;53;53.2;20;19.9;29.3;-1.0;
13/06/2019 21:24:26;117;0;173.62;17;30.37;13.58;86.3;11.50;69315;5139.347;-12818.529;209;100;106.9;53;53.2;14;13.5;29.3;-1.0;
13/06/2019 21:24:46;117;0;183.89;17;31.15;9.48;82.7;11.40;69328;5139.347;-12818.529;209;100;105.0;53;53.2;10;9.9;29.3;-1.0;
13/06/2019 21:25:06;117;0;182.19;17;30.57;7.58;79.0;11.40;69336;5139.347;-12818.529;209;100;106.9;53;53.2;14;14.0;29.3;-1.0;
13/06/2019 21:25:26;117;0;185.25;17;28.69;10.01;75.7;11.40;69331;5139.347;-12818.529;209;100;105.0;53;53.2;13;12.6;29.3;-1.0;
13/06/2019 21:25:46;117;0;187.97;17;29.56;8.97;72.7;11.30;69334;5139.347;-12818.529;209;100;106.9;53;53.2;13;11.7;29.3;-1.0;
13/06/2019 21:26:06;117;0;189.57;17;29.19;9.11;69.7;11.30;69344;5139.347;-12818.529;209;100;106.9;53;53.2;13;12.2;29.3;-1.0;
13/06/2019 21:26:26;117;0;190.49;17;28.87;8.96;66.6;11.30;69354;5139.347;-12818.529;209;100;105.0;53;53.2;13;12.2;29.2;-1.0;
13/06/2019 21:26:46;117;0;179.24;17;28.98;9.09;63.5;11.30;69361;5139.347;-12818.529;209;100;106.9;53;53.2;20;19.9;29.3;-1.0;
13/06/2019 21:27:06;117;0;177.36;17;28.26;13.46;60.7;11.20;69369;5139.347;-12818.529;209;100;105.0;53;53.2;20;20.3;29.3;-1.0;
13/06/2019 21:27:26;117;0;181.54;17;27.85;13.57;57.9;11.20;69369;5139.347;-12818.529;209;100;105.0;53;53.2;16;15.8;29.3;-1.0;
13/06/2019 21:27:46;117;0;190.19;17;27.27;10.38;55.3;11.20;69374;5139.347;-12818.529;209;100;105.0;53;53.2;11;10.8;29.3;-1.0;
13/06/2019 21:28:06;117;0;193.36;17;27.88;7.96;52.7;11.20;69383;5139.347;-12818.529;209;100;106.9;53;53.2;11;9.9;29.3;-1.0;
13/06/2019 21:28:26;117;0;197.85;17;27.20;7.86;50.1;11.20;69387;5139.347;-12818.529;209;100;105.0;53;53.2;11;9.9;29.3;-1.0;
13/06/2019 21:28:46;117;0;197.35;17;27.62;7.87;47.6;11.20;69394;5139.347;-12818.529;209;100;105.0;53;53.2;12;12.2;29.2;-1.0;
13/06/2019 21:29:06;117;0;199.47;17;27.20;9.37;45.1;11.10;69403;5139.347;-12818.529;209;100;105.0;53;53.2;11;10.4;29.3;-1.0;
13/06/2019 21:29:26;117;0;199.91;17;27.69;8.19;42.7;11.10;69410;5139.347;-12818.529;209;100;105.0;53;53.2;11;9.9;29.3;-1.0;
13/06/2019 21:29:46;117;0;205.32;17;27.65;8.09;40.0;11.10;69414;5139.347;-12818.529;209;100;105.0;53;53.2;8;8.1;29.3;-1.0;
13/06/2019 21:30:06;117;0;203.87;17;27.58;6.84;37.3;11.10;69420;5139.347;-12818.529;209;100;105.0;53;53.2;10;9.9;29.3;-1.0;
13/06/2019 21:30:26;117;0;205.27;17;27.43;8.38;34.6;11.10;69434;5139.347;-12818.529;209;100;106.9;53;53.2;8;8.1;29.3;-1.0;
13/06/2019 21:30:46;117;0;210.56;17;27.26;7.07;32.0;11.10;69440;5139.347;-12818.529;209;100;106.9;53;53.2;5;5.0;29.3;-1.0;
13/06/2019 21:31:06;117;0;214.84;17;27.02;5.35;29.4;11.10;69446;5139.347;-12818.529;209;100;105.0;53;53.2;4;4.1;29.3;-1.0;
13/06/2019 21:31:26;117;0;222.18;17;26.83;4.86;27.0;11.10;69448;5139.347;-12818.529;209;100;105.0;53;53.2;0;0.0;29.3;-1.0;
13/06/2019 21:31:46;117;0;227.84;17;26.66;2.79;24.7;11.10;69476;5139.347;-12818.529;209;100;106.9;53;53.2;0;-0.5;29.3;-1.0;
13/06/2019 21:32:06;117;0;224.40;17;25.35;2.70;22.5;11.10;69498;5139.347;-12818.529;209;100;105.0;53;53.2;2;1.8;29.3;-1.0;
13/06/2019 21:32:26;117;0;224.81;17;25.74;4.29;20.4;11.10;69528;5139.347;-12818.529;209;100;106.9;53;53.2;2;2.3;29.3;-1.0;
13/06/2019 21:32:46;117;0;230.03;17;25.76;4.21;18.3;11.10;69555;5139.347;-12818.529;209;100;105.0;53;53.2;-1;-0.9;29.3;-1.0;
13/06/2019 21:33:06;117;0;230.49;17;24.99;2.52;16.0;11.10;69594;5139.347;-12818.529;209;100;106.9;53;53.2;-1;-0.9;29.3;-1.0;
13/06/2019 21:33:26;117;0;228.73;17;25.17;2.72;14.0;11.20;69631;5139.347;-12818.529;209;100;106.9;53;53.2;0;0.0;29.3;-1.0;
13/06/2019 21:33:46;117;0;228.22;17;25.36;3.59;11.9;11.20;69661;5139.347;-12818.529;209;100;106.9;53;53.2;0;0.5;29.3;-1.0;
