Timestamp;NavState;SecurityLevel;Heading;Declination;Pitch;Roll;Depth;Temperature;Pa;Lat;Lon;DesiredH;BallastCmd;BallastPos;LinCmd;LinPos;AngCmd;AngPos;Voltage;Altitude;
14/06/2019 16:25:07;117;0;190.72;17;13.77;0.03;9.5;10.30;69424;5133.760;-12823.783;212;150;158.4;58;58.1;-2;-1.8;29.1;-1.0;
14/06/2019 16:25:17;115;0;192.04;17;12.97;2.84;8.9;10.30;69434;5133.760;-12823.783;212;500;170.3;100;100.1;0;0.9;29.1;-1.0;
14/06/2019 16:25:27;115;0;157.97;17;-33.44;6.27;8.5;10.30;69352;5133.760;-12823.783;212;500;320.8;100;100.1;0;0.9;28.8;-1.0;
14/06/2019 16:25:37;115;0;134.66;17;-75.51;-4.39;8.9;10.30;69153;5133.760;-12823.783;212;500;473.3;100;100.1;0;0.9;28.7;-1.0;
14/06/2019 16:25:47;115;0;78.28;17;-53.36;8.99;7.4;10.40;68907;5133.760;-12823.783;212;500;506.9;100;100.1;0;0.9;28.8;-1.0;
14/06/2019 16:25:57;115;0;40.06;17;-43.91;6.13;4.9;10.40;68868;5133.760;-12823.783;212;500;505.0;100;100.1;0;0.9;29.1;-1.0;
14/06/2019 16:26:07;116;0;320.03;17;-65.49;16.02;1.2;10.40;68873;5133.760;-12823.783;212;500;506.9;100;100.1;0;0.9;29.1;-1.0;
14/06/2019 16:26:27;116;0;315.28;17;-21.62;2.41;1.2;10.50;68900;5133.284;-12823.825;212;500;508.9;100;100.0;0;0.9;29.1;-1.0;
14/06/2019 16:26:47;116;0;296.30;17;-4.55;3.72;1.2;10.50;68894;5133.287;-12823.823;212;500;508.9;100;100.0;0;0.9;29.1;-1.0;
14/06/2019 16:27:11;116;0;304.49;17;-10.65;1.71;1.2;10.60;68902;5133.290;-12823.825;212;500;508.9;100;100.0;0;0.9;29.1;-1.0;
14/06/2019 16:27:42;116;0;325.13;17;-7.97;6.62;1.2;10.80;68922;5133.289;-12823.825;212;500;508.9;100;100.0;0;0.9;29.1;-1.0;
14/06/2019 16:28:02;116;0;320.35;17;-14.90;-1.46;1.2;10.90;68929;5133.292;-12823.827;212;500;508.9;100;100.0;0;0.9;29.1;-1.0;
14/06/2019 16:28:42;116;0;319.45;17;-8.97;7.31;1.2;11.10;68947;5133.292;-12823.826;212;500;508.9;100;100.0;0;0.9;29.1;-1.0;
14/06/2019 16:29:02;116;0;314.21;17;-41.22;9.38;1.6;11.20;68964;5133.291;-12823.824;211;500;508.9;100;100.1;0;0.9;29.1;-1.0;
14/06/2019 16:29:22;116;0;308.62;17;-7.10;1.01;1.1;11.30;68966;5133.293;-12823.823;211;500;508.9;100;100.0;0;0.9;29.1;-1.0;
14/06/2019 16:30:49;116;0;336.02;17;-14.64;2.23;1.2;11.80;68987;5133.293;-12823.824;211;500;508.9;100;100.0;0;0.9;29.1;-1.0;
14/06/2019 16:31:09;116;0;330.95;17;-4.99;9.65;1.2;12.00;68982;5133.295;-12823.822;211;500;508.9;100;100.0;0;0.9;29.1;-1.0;
14/06/2019 16:31:29;116;0;322.19;17;-12.65;3.32;1.2;12.10;69000;5133.290;-12823.826;211;500;508.9;100;100.0;0;0.9;29.1;-1.0;
14/06/2019 16:31:59;116;0;316.96;17;-19.49;5.50;1.3;12.30;69004;5133.289;-12823.828;211;500;508.9;100;100.0;0;0.9;29.1;-1.0;
14/06/2019 16:32:19;116;0;315.71;17;-24.37;0.89;1.3;12.40;69020;5133.297;-12823.832;211;500;508.9;100;100.1;0;0.9;29.1;-1.0;
14/06/2019 16:32:39;116;0;324.27;17;-12.52;8.96;1.2;12.60;69018;5133.310;-12823.827;211;500;508.9;100;100.0;0;0.9;29.0;-1.0;
14/06/2019 16:37:20;116;0;341.62;17;-6.42;4.25;1.2;13.60;69060;5133.311;-12823.826;211;500;508.9;100;100.0;0;0.9;29.1;-1.0;
14/06/2019 16:37:40;116;0;297.21;17;-9.22;4.50;1.2;13.70;69063;5133.312;-12823.828;211;500;508.9;100;100.0;0;0.9;29.1;-1.0;
14/06/2019 16:38:00;116;0;332.33;17;-13.98;1.25;1.2;13.70;69062;5133.314;-12823.829;211;500;508.9;100;100.0;0;0.9;29.1;-1.0;
14/06/2019 16:38:20;116;0;334.39;17;-5.71;9.47;1.1;13.80;69061;5133.315;-12823.827;211;500;508.9;100;100.0;0;0.9;29.1;-1.0;
14/06/2019 16:38:40;116;0;307.78;17;-12.90;5.51;1.1;13.80;69077;5133.317;-12823.829;211;500;508.9;100;100.0;0;0.9;29.1;-1.0;
14/06/2019 16:39:00;116;0;327.57;17;-10.56;1.54;1.1;13.90;69072;5133.316;-12823.828;211;500;508.9;100;100.0;0;0.9;29.1;-1.0;
14/06/2019 16:39:20;116;0;322.62;17;-5.08;9.33;1.2;13.90;69075;5133.316;-12823.827;211;500;508.9;100;100.0;0;0.9;29.1;-1.0;
14/06/2019 16:39:40;116;0;311.48;17;-7.90;4.35;1.2;14.00;69076;5133.321;-12823.826;211;500;508.9;100;100.0;0;1.4;29.1;-1.0;
14/06/2019 16:40:00;116;0;313.62;17;-7.29;2.39;1.1;14.00;69085;5133.321;-12823.825;211;500;508.9;100;100.0;0;0.9;29.1;-1.0;
14/06/2019 16:40:20;116;0;316.94;17;-8.55;3.27;1.1;14.10;69088;5133.322;-12823.827;211;500;510.9;100;100.0;0;0.9;29.1;-1.0;
14/06/2019 16:40:40;116;0;314.14;17;-22.08;3.58;1.3;14.10;69093;5133.319;-12823.822;211;500;508.9;100;100.0;0;0.9;29.1;-1.0;
14/06/2019 16:41:51;116;0;307.45;17;-4.26;4.02;1.1;14.40;69101;5133.319;-12823.822;211;500;508.9;100;100.0;0;0.9;29.1;-1.0;
14/06/2019 16:42:11;116;0;310.71;17;-8.13;7.67;1.1;14.50;69104;5133.324;-12823.828;211;500;508.9;100;100.0;0;1.4;29.1;-1.0;
14/06/2019 16:42:31;116;0;322.38;17;-22.84;6.92;1.3;14.60;69111;5133.325;-12823.828;211;500;508.9;100;100.0;0;0.9;29.1;-1.0;
14/06/2019 16:42:51;116;0;323.03;17;-23.77;8.43;1.3;14.70;69110;5133.327;-12823.828;211;500;508.9;100;100.0;0;0.9;29.1;-1.0;
14/06/2019 16:43:11;116;0;301.12;17;-4.93;1.71;1.1;14.70;69108;5133.326;-12823.826;211;500;508.9;100;100.0;0;0.9;29.1;-1.0;
14/06/2019 16:43:31;116;0;326.98;17;-8.11;7.26;1.1;14.70;69112;5133.326;-12823.827;211;500;508.9;100;100.0;0;0.9;29.1;-1.0;
14/06/2019 16:43:51;116;0;304.40;17;-19.34;4.33;1.2;14.70;69108;5133.328;-12823.825;211;500;508.9;100;100.0;0;0.9;29.1;-1.0;
14/06/2019 16:44:11;116;0;317.01;17;-6.91;5.44;1.1;14.80;69112;5133.330;-12823.824;211;500;508.9;100;100.0;0;0.9;29.1;-1.0;
14/06/2019 16:44:34;116;0;310.04;17;-10.64;7.99;1.1;14.80;69119;5133.331;-12823.823;211;500;508.9;100;100.0;0;0.9;29.1;-1.0;
14/06/2019 16:44:54;116;0;304.81;17;-8.96;1.15;1.1;14.80;69117;5133.328;-12823.825;211;500;508.9;100;100.0;0;0.9;29.1;-1.0;
14/06/2019 16:45:43;116;0;299.32;17;-19.68;3.21;1.2;14.90;69129;5133.328;-12823.825;211;500;508.9;100;100.0;0;0.9;29.1;-1.0;
14/06/2019 16:46:03;116;0;303.74;17;-8.10;2.69;1.1;14.90;69128;5133.329;-12823.824;211;500;508.9;100;100.0;0;0.9;29.1;-1.0;
14/06/2019 16:46:23;116;0;300.82;17;-26.91;-2.35;1.3;14.90;69123;5133.332;-12823.828;211;500;510.9;100;100.0;0;0.9;29.1;-1.0;
14/06/2019 16:46:43;116;0;310.90;17;-6.68;-0.80;1.1;15.00;69132;5133.332;-12823.828;211;500;508.9;100;100.0;0;0.9;29.0;-1.0;
14/06/2019 16:47:03;116;0;277.09;17;-9.13;1.84;1.2;15.00;69128;5133.334;-12823.827;211;500;510.9;100;100.0;0;0.9;29.1;-1.0;
14/06/2019 16:47:23;116;0;298.97;17;-6.42;5.29;1.1;15.00;69128;5133.333;-12823.828;211;500;508.9;100;100.0;0;0.9;29.1;-1.0;
14/06/2019 16:47:43;116;0;302.84;17;-15.88;3.55;1.2;15.00;69129;5133.334;-12823.829;211;500;508.9;100;100.0;0;0.9;29.1;-1.0;
14/06/2019 16:48:03;116;0;304.73;17;-8.04;0.98;1.1;15.00;69133;5133.334;-12823.831;211;500;508.9;100;100.0;0;0.9;29.1;-1.0;
14/06/2019 16:48:46;116;0;297.42;17;-20.14;1.33;1.2;15.10;69139;5133.334;-12823.830;211;500;510.9;100;100.1;0;0.9;29.1;-1.0;
14/06/2019 16:49:06;116;0;320.53;17;-18.55;0.97;1.1;15.10;69141;5133.336;-12823.833;211;500;508.9;100;100.0;0;0.9;29.1;-1.0;
14/06/2019 16:49:26;116;0;311.26;17;-31.74;-4.40;1.2;15.10;69140;5133.336;-12823.833;211;500;508.9;100;100.0;0;0.9;29.1;-1.0;
14/06/2019 16:49:46;116;0;296.32;17;-11.29;4.25;1.1;15.10;69141;5133.336;-12823.833;211;500;508.9;100;100.0;0;0.9;29.1;-1.0;
14/06/2019 16:50:06;116;0;301.97;17;-8.28;4.23;1.1;15.10;69137;5133.337;-12823.833;211;500;508.9;100;100.0;0;0.9;29.1;-1.0;
14/06/2019 16:50:26;110;0;316.38;17;-7.19;1.29;1.1;15.10;69139;5133.337;-12823.833;211;-300;407.9;100;100.0;0;0.9;29.1;-1.0;
14/06/2019 16:50:36;110;0;336.42;17;-6.31;0.31;1.1;15.10;69387;5133.337;-12823.833;211;-300;267.3;100;100.0;0;1.4;29.0;-1.0;
14/06/2019 16:50:46;110;0;343.39;17;-15.13;9.77;1.2;15.10;69568;5133.337;-12823.833;211;-300;114.9;100;100.0;0;0.9;29.0;-1.0;
14/06/2019 16:50:56;110;0;337.61;17;-41.29;6.06;1.9;15.10;69812;5133.337;-12823.833;211;-300;-65.3;100;100.1;0;0.9;29.0;-1.0;
14/06/2019 16:51:06;110;0;337.56;17;-64.09;0.63;3.0;15.10;70109;5133.337;-12823.833;211;-300;-275.2;94;93.9;0;0.9;29.0;-1.0;
14/06/2019 16:51:16;110;0;341.31;17;-58.93;4.98;5.0;15.10;70472;5133.337;-12823.833;211;-300;-301.0;75;75.0;0;0.9;29.0;-1.0;
14/06/2019 16:51:26;110;0;343.53;17;-44.64;2.99;8.4;15.10;70463;5133.337;-12823.833;211;-300;-303.0;73;73.0;0;0.9;29.1;-1.0;
14/06/2019 16:51:36;100;0;342.96;17;-35.42;3.56;11.4;15.10;70464;5133.337;-12823.833;211;-300;-299.0;73;72.9;0;0.9;29.1;-1.0;
14/06/2019 16:51:56;100;0;333.45;17;-27.40;4.42;16.6;15.10;70460;5133.337;-12823.833;211;-300;-297.0;73;72.9;45;45.6;29.1;0.0;
14/06/2019 16:52:16;100;0;309.16;17;-22.21;25.94;21.2;15.00;70456;5133.337;-12823.833;211;-300;-297.0;73;72.9;45;45.6;29.1;0.0;
14/06/2019 16:52:36;100;0;298.83;17;-22.41;25.59;24.8;14.90;70410;5133.337;-12823.833;211;-300;-297.0;73;72.9;40;39.7;29.1;0.0;
14/06/2019 16:52:56;100;0;278.81;17;-22.50;22.09;28.2;14.80;70341;5133.337;-12823.833;211;-300;-295.0;73;72.9;26;25.7;29.1;0.0;
14/06/2019 16:53:16;100;0;257.08;17;-23.02;14.99;31.5;14.70;70289;5133.337;-12823.833;211;-300;-295.0;73;72.9;17;17.1;29.1;0.0;
14/06/2019 16:53:36;100;0;244.44;17;-23.66;10.85;34.9;14.60;70237;5133.337;-12823.833;211;-300;-295.0;73;72.9;14;14.0;29.1;0.0;
14/06/2019 16:53:56;100;0;233.78;17;-24.53;9.30;38.2;14.50;70209;5133.337;-12823.833;211;-300;-295.0;73;72.9;13;13.1;29.1;0.0;
14/06/2019 16:54:16;100;0;224.90;17;-24.04;8.71;41.6;14.40;70173;5133.337;-12823.833;211;-300;-297.0;73;72.9;13;12.2;29.1;0.0;
14/06/2019 16:54:36;100;0;210.88;17;-23.67;8.85;44.9;14.30;70136;5133.337;-12823.833;211;-300;-295.0;73;72.9;8;8.1;29.1;0.0;
14/06/2019 16:54:56;100;0;198.39;17;-23.80;6.65;48.3;14.20;70114;5133.337;-12823.833;211;-300;-295.0;73;72.9;6;5.9;29.1;0.0;
14/06/2019 16:55:16;100;0;186.79;17;-23.50;5.47;51.8;14.10;70092;5133.337;-12823.833;211;-300;-293.1;73;72.9;6;5.0;29.1;0.0;
14/06/2019 16:55:36;100;0;175.98;17;-23.34;5.29;55.3;14.00;70070;5133.337;-12823.833;211;-300;-295.0;73;72.9;2;1.4;29.1;0.0;
14/06/2019 16:55:56;100;0;175.97;17;-23.24;3.91;58.7;13.90;70054;5133.337;-12823.833;211;-300;-295.0;73;72.7;5;5.0;29.1;0.0;
14/06/2019 16:56:16;100;0;160.33;17;-22.61;5.85;62.1;13.80;70020;5133.337;-12823.833;211;-300;-295.0;73;72.7;-1;-0.9;29.1;0.0;
14/06/2019 16:56:36;100;0;156.35;17;-23.46;2.67;65.3;13.80;70013;5133.337;-12823.833;211;-300;-293.1;73;72.7;0;0.5;29.1;0.0;
14/06/2019 16:56:56;100;0;154.27;17;-23.38;3.67;68.5;13.70;70005;5133.337;-12823.833;211;-300;-293.1;73;72.7;0;0.9;29.2;0.0;
14/06/2019 16:57:16;100;0;139.20;17;-22.50;3.65;71.8;13.60;70004;5133.337;-12823.833;211;-300;-295.0;73;72.7;-8;-8.1;29.1;0.0;
14/06/2019 16:57:36;100;0;136.12;17;-22.80;-0.59;74.9;13.50;69989;5133.337;-12823.833;211;-300;-293.1;73;72.7;-8;-8.6;29.1;0.0;
14/06/2019 16:57:56;100;0;130.56;17;-23.11;-0.66;77.8;13.40;69975;5133.337;-12823.833;211;-300;-293.1;73;72.7;-12;-12.2;29.1;0.0;
14/06/2019 16:58:16;100;0;130.48;17;-22.97;-2.60;80.6;13.40;69962;5133.337;-12823.833;211;-300;-293.1;73;72.7;-12;-12.6;29.1;0.0;
14/06/2019 16:58:36;100;0;135.33;17;-22.09;-2.63;83.5;13.30;69951;5133.337;-12823.833;211;-300;-293.1;73;72.7;-10;-9.9;29.1;0.0;
14/06/2019 16:58:56;100;0;125.90;17;-21.87;-0.95;86.5;13.20;69935;5133.337;-12823.833;211;-300;-293.1;73;72.7;-19;-19.0;29.1;0.0;
14/06/2019 16:59:16;100;0;128.11;17;-22.11;-5.41;89.2;13.20;69933;5133.337;-12823.833;211;-300;-293.1;73;72.7;-18;-18.1;29.1;0.0;
14/06/2019 16:59:36;100;0;133.79;17;-22.09;-4.53;91.9;13.10;69924;5133.337;-12823.833;211;-300;-293.1;73;72.7;-18;-17.6;29.1;0.0;
14/06/2019 16:59:56;100;0;135.05;17;-21.67;-4.47;94.7;13.00;69911;5133.337;-12823.833;211;-300;-293.1;73;72.7;-20;-20.3;29.1;0.0;
14/06/2019 17:00:16;100;0;131.83;17;-21.38;-6.09;97.3;13.00;69882;5133.337;-12823.833;211;-300;-293.1;73;72.7;-25;-24.8;29.1;0.0;
14/06/2019 17:00:36;100;0;134.73;17;-21.22;-8.38;99.9;12.90;69887;5133.337;-12823.833;211;-300;-293.1;73;72.7;-26;-26.2;29.1;0.0;
14/06/2019 17:00:56;100;0;132.14;17;-21.07;-9.17;102.5;12.80;69872;5133.337;-12823.833;211;-300;-295.0;73;72.7;-27;-27.1;29.1;0.0;
14/06/2019 17:01:16;100;0;131.14;17;-21.44;-9.45;105.0;12.70;69857;5133.337;-12823.833;211;-300;-293.1;73;72.7;-27;-27.5;29.1;0.0;
14/06/2019 17:01:36;100;0;132.94;17;-21.18;-9.52;107.5;12.70;69845;5133.337;-12823.833;211;-300;-293.1;73;72.7;-27;-27.5;29.1;0.0;
14/06/2019 17:01:56;100;0;129.61;17;-21.22;-9.39;110.0;12.60;69843;5133.337;-12823.833;211;-300;-293.1;73;72.7;-28;-28.4;29.1;0.0;
14/06/2019 17:02:16;100;0;135.09;17;-20.83;-9.92;112.4;12.60;69834;5133.337;-12823.833;211;-300;-295.0;73;72.7;-24;-23.9;29.1;0.0;
14/06/2019 17:02:36;100;0;139.13;17;-20.64;-7.39;114.8;12.50;69824;5133.337;-12823.833;211;-300;-293.1;73;72.7;-23;-23.0;29.1;0.0;
14/06/2019 17:02:56;100;0;137.70;17;-20.73;-6.84;117.2;12.40;69809;5133.337;-12823.833;211;-300;-293.1;73;72.7;-25;-24.8;29.1;0.0;
14/06/2019 17:03:16;100;0;139.03;17;-20.74;-8.50;119.6;12.40;69810;5133.337;-12823.833;211;-300;-293.1;73;72.7;-24;-23.9;29.1;0.0;
14/06/2019 17:03:36;100;0;138.76;17;-20.69;-7.32;121.9;12.30;69801;5133.337;-12823.833;211;-300;-293.1;73;72.7;-25;-24.8;29.1;0.0;
14/06/2019 17:03:56;100;0;138.75;17;-20.76;-8.50;124.3;12.20;69797;5133.337;-12823.833;211;-300;-293.1;73;72.7;-25;-25.3;29.0;0.0;
14/06/2019 17:04:16;100;0;144.52;17;-20.56;-8.60;126.7;12.20;69787;5133.337;-12823.833;211;-300;-293.1;73;72.7;-22;-22.1;29.1;0.0;
14/06/2019 17:04:36;100;0;153.35;17;-20.46;-6.38;129.0;12.10;69784;5133.337;-12823.833;211;-300;-291.1;73;72.7;-18;-18.1;29.1;0.0;
14/06/2019 17:04:56;100;0;154.82;17;-20.13;-4.65;131.2;12.10;69765;5133.337;-12823.833;211;-300;-293.1;73;72.7;-20;-19.9;29.1;0.0;
14/06/2019 17:05:16;100;0;155.38;17;-19.84;-6.13;133.4;12.00;69764;5133.337;-12823.833;211;-300;-293.1;73;72.7;-20;-20.3;29.1;43.8;
14/06/2019 17:05:36;100;0;157.85;17;-19.66;-6.04;135.9;12.00;69760;5133.337;-12823.833;211;-300;-293.1;73;72.7;-20;-20.3;29.1;41.5;
14/06/2019 17:05:56;100;0;161.86;17;-19.43;-5.92;138.1;11.90;69750;5133.337;-12823.833;211;-300;-293.1;73;72.7;-19;-18.5;29.1;39.1;
14/06/2019 17:06:16;100;0;168.66;17;-19.37;-4.96;140.5;11.90;69745;5133.337;-12823.833;211;-300;-293.1;73;72.7;-16;-15.8;29.1;36.7;
14/06/2019 17:06:37;100;0;169.58;17;-18.81;-3.67;142.7;11.80;69724;5133.337;-12823.833;211;-300;-293.1;73;72.7;-17;-17.1;29.1;34.3;
14/06/2019 17:06:57;100;0;165.76;17;-19.20;-4.81;144.8;11.70;69711;5133.337;-12823.833;211;-300;-291.1;73;72.7;-20;-20.3;29.1;32.3;
14/06/2019 17:07:17;100;0;165.70;17;-19.26;-6.20;146.9;11.70;69700;5133.337;-12823.833;211;-300;-293.1;73;72.7;-20;-20.8;29.1;30.0;
14/06/2019 17:07:37;100;0;166.38;17;-19.36;-6.24;149.1;11.60;69686;5133.337;-12823.833;211;-300;-293.1;73;72.7;-20;-20.8;29.1;27.9;
14/06/2019 17:07:57;100;0;168.75;17;-19.31;-6.25;151.2;11.50;69676;5133.337;-12823.833;211;-300;-291.1;73;72.7;-19;-19.0;29.1;25.8;
14/06/2019 17:08:17;100;0;171.25;17;-19.22;-5.08;153.2;11.50;69680;5133.337;-12823.833;211;-300;-293.1;73;72.7;-17;-16.7;29.1;23.7;
14/06/2019 17:08:37;100;0;172.30;17;-19.45;-4.18;155.3;11.40;69673;5133.337;-12823.833;211;-300;-293.1;73;72.9;-18;-18.1;29.1;21.6;
14/06/2019 17:08:57;100;0;171.37;17;-18.91;-5.15;157.3;11.40;69652;5133.337;-12823.833;211;-300;-293.1;73;72.7;-19;-19.0;29.1;19.5;
14/06/2019 17:09:17;118;0;169.88;17;-18.75;-5.52;159.4;11.30;69642;5133.337;-12823.833;211;150;-277.2;58;57.8;0;0.5;29.1;17.3;
14/06/2019 17:09:27;118;0;137.99;17;0.61;4.04;160.3;11.30;69555;5133.337;-12823.833;211;150;-120.8;58;58.1;0;0.5;28.6;17.3;
14/06/2019 17:09:37;118;0;138.93;17;16.60;3.74;160.0;11.30;69347;5133.337;-12823.833;211;150;33.7;58;58.1;0;0.5;28.6;-1.0;
14/06/2019 17:09:47;118;0;139.86;17;20.80;4.01;159.2;11.30;69104;5133.337;-12823.833;211;150;154.5;58;58.1;0;0.9;28.6;-1.0;
14/06/2019 17:09:57;118;0;175.57;17;21.89;3.59;158.1;11.20;68919;5133.337;-12823.833;211;150;156.4;58;58.1;0;0.9;29.1;-1.0;
14/06/2019 17:10:07;118;0;176.38;17;24.22;3.78;156.6;11.20;68924;5133.337;-12823.833;211;150;156.4;58;58.1;0;0.5;29.1;-1.0;
14/06/2019 17:10:17;117;0;176.92;17;24.74;3.84;155.1;11.20;68920;5133.337;-12823.833;211;150;158.4;58;58.1;0;0.9;29.1;-1.0;
14/06/2019 17:10:37;117;0;173.46;17;25.49;3.89;151.4;11.10;68920;5133.337;-12823.833;211;150;156.4;58;58.1;18;18.5;29.1;-1.0;
14/06/2019 17:10:57;117;0;179.36;17;25.12;12.77;147.1;11.10;68917;5133.337;-12823.833;211;150;156.4;58;58.1;15;14.9;29.1;-1.0;
14/06/2019 17:11:17;117;0;185.31;17;25.02;10.20;143.2;11.00;68909;5133.337;-12823.833;211;150;156.4;58;58.0;13;13.1;29.1;-1.0;
14/06/2019 17:11:37;117;0;180.88;17;24.77;9.28;139.3;11.00;68910;5133.337;-12823.833;211;150;156.4;58;58.1;17;17.6;29.1;-1.0;
14/06/2019 17:11:57;117;0;179.19;17;24.30;12.15;135.8;10.90;68911;5133.337;-12823.833;211;150;156.4;58;58.1;18;18.1;29.1;-1.0;
14/06/2019 17:12:17;117;0;182.88;17;23.89;11.90;132.3;10.90;68922;5133.337;-12823.833;211;150;158.4;58;58.0;16;15.8;29.1;-1.0;
14/06/2019 17:12:37;117;0;180.85;17;24.45;10.69;128.8;10.80;68930;5133.337;-12823.833;211;150;156.4;58;58.1;17;17.1;29.1;-1.0;
14/06/2019 17:12:57;117;0;183.21;17;23.82;12.01;125.1;10.80;68944;5133.337;-12823.833;211;150;156.4;58;58.0;16;15.3;29.1;-1.0;
14/06/2019 17:13:17;117;0;187.57;17;23.05;10.37;121.4;10.80;68949;5133.337;-12823.833;211;150;156.4;58;58.1;14;14.0;29.1;-1.0;
14/06/2019 17:13:37;117;0;190.64;17;22.67;9.73;118.1;10.70;68951;5133.337;-12823.833;211;150;156.4;58;58.0;13;12.6;29.1;-1.0;
14/06/2019 17:13:57;117;0;193.36;17;23.15;8.94;114.8;10.70;68943;5133.337;-12823.833;211;150;158.4;58;58.1;13;12.2;29.1;-1.0;
14/06/2019 17:14:17;117;0;195.33;17;22.92;9.06;111.3;10.60;68956;5133.337;-12823.833;211;150;156.4;58;58.1;13;12.2;29.1;-1.0;
14/06/2019 17:14:37;117;0;199.58;17;22.47;9.06;108.0;10.60;68954;5133.337;-12823.833;211;150;158.4;58;58.1;11;10.8;29.0;-1.0;
14/06/2019 17:14:57;117;0;203.35;17;22.06;8.21;104.7;10.60;68950;5133.337;-12823.833;211;150;156.4;58;58.1;9;9.0;29.1;-1.0;
14/06/2019 17:15:17;117;0;206.76;17;22.10;7.28;101.6;10.60;68959;5133.337;-12823.833;211;150;156.4;58;58.0;9;8.6;29.0;-1.0;
14/06/2019 17:15:37;117;0;210.37;17;22.15;7.21;98.6;10.50;68959;5133.337;-12823.833;211;150;156.4;58;58.1;7;7.2;29.1;-1.0;
14/06/2019 17:15:57;117;0;211.57;17;21.79;6.41;95.4;10.50;68965;5133.337;-12823.833;211;150;156.4;58;58.0;7;6.8;29.1;-1.0;
14/06/2019 17:16:17;117;0;207.73;17;22.09;6.51;92.4;10.50;68969;5133.337;-12823.833;211;150;158.4;58;58.0;10;9.9;29.1;-1.0;
14/06/2019 17:16:37;117;0;208.49;17;21.08;8.40;89.2;10.50;68967;5133.337;-12823.833;211;150;160.4;58;58.0;8;7.7;29.1;-1.0;
14/06/2019 17:16:57;117;0;208.28;17;20.81;6.73;86.2;10.50;68978;5133.337;-12823.833;211;150;158.4;58;58.1;8;7.2;29.1;-1.0;
14/06/2019 17:17:17;117;0;210.21;17;20.65;6.71;83.3;10.40;68977;5133.337;-12823.833;211;150;158.4;58;58.0;6;5.9;29.1;-1.0;
14/06/2019 17:17:37;117;0;208.40;17;21.26;6.14;80.2;10.40;68983;5133.337;-12823.833;211;150;156.4;58;58.1;7;7.2;29.1;-1.0;
14/06/2019 17:17:57;117;0;211.62;17;19.82;7.06;77.4;10.40;68984;5133.337;-12823.833;211;150;156.4;58;58.0;4;4.1;29.1;-1.0;
14/06/2019 17:18:17;117;0;212.19;17;19.51;5.10;74.7;10.40;68990;5133.337;-12823.833;211;150;158.4;58;58.0;4;4.1;29.1;-1.0;
14/06/2019 17:18:37;117;0;217.63;17;18.70;5.02;72.3;10.40;69001;5133.337;-12823.833;211;150;156.4;58;58.1;1;0.9;29.1;-1.0;
14/06/2019 17:18:57;117;0;218.83;17;18.38;3.36;70.0;10.40;68993;5133.337;-12823.833;211;150;158.4;58;58.1;1;0.5;29.1;-1.0;
14/06/2019 17:19:17;117;0;215.92;17;18.55;3.30;67.8;10.40;69006;5133.337;-12823.833;211;150;156.4;58;58.0;3;3.2;29.1;-1.0;
14/06/2019 17:19:37;117;0;214.19;17;18.52;5.07;65.6;10.40;69017;5133.337;-12823.833;211;150;158.4;58;58.0;2;1.4;29.1;-1.0;
14/06/2019 17:19:57;117;0;212.56;17;18.40;3.58;63.3;10.40;69020;5133.337;-12823.833;211;150;156.4;58;58.1;3;3.2;29.1;-1.0;
14/06/2019 17:20:17;117;0;216.81;17;17.52;5.12;61.1;10.30;69021;5133.337;-12823.833;211;150;158.4;58;58.1;0;-0.5;29.1;-1.0;
14/06/2019 17:20:37;117;0;217.51;17;17.55;2.82;59.1;10.30;69016;5133.337;-12823.833;211;150;158.4;58;58.0;0;-0.9;29.1;-1.0;
14/06/2019 17:20:57;117;0;213.17;17;17.58;2.80;57.2;10.30;69025;5133.337;-12823.833;211;150;156.4;58;58.0;1;0.9;29.1;-1.0;
14/06/2019 17:21:17;117;0;210.66;17;17.37;4.04;55.1;10.30;69025;5133.337;-12823.833;211;150;158.4;58;58.1;1;1.8;29.1;-1.0;
14/06/2019 17:21:37;117;0;210.43;17;17.14;4.24;53.1;10.30;69021;5133.337;-12823.833;211;150;158.4;58;58.1;0;-0.5;29.1;-1.0;
14/06/2019 17:21:57;117;0;213.36;17;16.99;2.95;51.2;10.30;69037;5133.337;-12823.833;211;150;158.4;58;58.0;-2;-2.3;29.1;-1.0;
14/06/2019 17:22:17;117;0;214.32;17;16.93;1.99;49.2;10.30;69024;5133.337;-12823.833;211;150;156.4;58;58.1;-3;-3.2;29.1;-1.0;
14/06/2019 17:22:37;117;0;212.86;17;16.98;1.33;47.2;10.30;69027;5133.337;-12823.833;211;150;156.4;58;58.1;-2;-1.4;29.1;-1.0;
14/06/2019 17:22:57;117;0;211.52;17;16.74;2.90;45.4;10.30;69041;5133.337;-12823.833;211;150;156.4;58;58.1;-2;-0.9;29.1;-1.0;
14/06/2019 17:23:17;117;0;215.86;17;16.73;3.01;43.5;10.30;69038;5133.337;-12823.833;211;150;158.4;58;58.0;-5;-5.0;29.1;-1.0;
14/06/2019 17:23:37;117;0;212.97;17;16.75;0.64;41.6;10.30;69046;5133.337;-12823.833;211;150;158.4;58;58.1;-3;-3.2;29.1;-1.0;
14/06/2019 17:23:57;117;0;209.92;17;16.53;2.12;39.7;10.30;69034;5133.337;-12823.833;211;150;158.4;58;58.1;-3;-2.3;29.1;-1.0;
14/06/2019 17:24:17;117;0;206.95;17;16.36;2.08;37.7;10.30;69061;5133.337;-12823.833;211;150;156.4;58;58.1;-2;-1.8;29.1;-1.0;
14/06/2019 17:24:37;117;0;206.82;17;16.25;2.78;35.9;10.30;69069;5133.337;-12823.833;211;150;156.4;58;58.1;-3;-3.2;29.1;-1.0;
14/06/2019 17:24:57;117;0;203.74;17;15.96;1.51;34.0;10.30;69075;5133.337;-12823.833;211;150;158.4;58;58.1;-3;-4.1;29.1;-1.0;
14/06/2019 17:25:17;117;0;197.58;17;16.07;1.42;32.3;10.30;69090;5133.337;-12823.833;211;150;158.4;58;58.0;0;0.5;29.1;-1.0;
14/06/2019 17:25:37;117;0;199.09;17;15.58;3.87;30.4;10.30;69085;5133.337;-12823.833;211;150;158.4;58;58.0;-3;-3.2;29.1;-1.0;
14/06/2019 17:25:57;117;0;194.01;17;15.80;1.40;28.7;10.30;69101;5133.337;-12823.833;211;150;158.4;58;58.1;-3;-3.6;29.1;-1.0;
14/06/2019 17:26:17;117;0;190.45;17;15.66;1.50;26.9;10.30;69119;5133.337;-12823.833;211;150;158.4;58;58.1;0;0.0;29.1;-1.0;
14/06/2019 17:26:37;117;0;194.10;17;15.43;3.71;25.0;10.30;69128;5133.337;-12823.833;211;150;158.4;58;58.1;0;0.9;29.1;-1.0;
14/06/2019 17:26:57;117;0;193.62;17;14.78;3.59;23.2;10.30;69139;5133.337;-12823.833;211;150;158.4;58;58.1;0;0.9;29.1;-1.0;
14/06/2019 17:27:17;117;0;188.30;17;14.58;3.80;21.5;10.30;69171;5133.337;-12823.833;211;150;158.4;58;58.0;0;0.5;29.1;-1.0;
14/06/2019 17:27:37;117;0;188.90;17;13.78;3.70;19.8;10.30;69215;5133.337;-12823.833;211;150;158.4;58;58.0;0;0.9;29.1;-1.0;
14/06/2019 17:27:57;117;0;190.15;17;13.60;3.74;18.2;10.40;69247;5133.337;-12823.833;211;150;156.4;58;58.1;-2;-1.8;29.1;-1.0;
14/06/2019 17:28:17;117;0;192.81;17;13.52;2.32;16.7;10.40;69275;5133.337;-12823.833;211;150;160.4;58;58.1;-3;-3.2;29.2;-1.0;
14/06/2019 17:28:37;117;0;190.28;17;13.04;1.69;15.2;10.40;69316;5133.337;-12823.833;211;150;158.4;58;58.1;-1;-0.9;29.1;-1.0;
