Timestamp;NavState;SecurityLevel;Heading;Declination;Pitch;Roll;Depth;Temperature;Pa;Lat;Lon;DesiredH;BallastCmd;BallastPos;LinCmd;LinPos;AngCmd;AngPos;Voltage;Altitude;
13/06/2019 19:10:39;117;0;195.67;17;30.43;2.77;9.3;12.30;69917;5140.766;-12818.246;177;100;106.9;51;51.1;0;-0.5;29.3;-1.0;
13/06/2019 19:10:49;115;0;196.23;17;30.15;3.61;8.2;12.30;69917;5140.766;-12818.246;177;500;118.8;100;95.5;0;-0.9;29.3;-1.0;
13/06/2019 19:10:59;115;0;165.99;17;-9.36;3.93;7.3;12.30;69835;5140.766;-12818.246;177;500;269.3;100;100.4;0;-0.9;29.1;-1.0;
13/06/2019 19:11:09;115;0;159.28;17;-55.27;4.61;8.3;12.30;69633;5140.766;-12818.246;177;500;425.7;100;100.4;0;-0.5;29.1;-1.0;
13/06/2019 19:11:19;115;0;155.03;17;-66.01;2.34;8.4;12.30;69378;5140.766;-12818.246;177;500;505.0;100;100.4;0;-0.9;29.0;-1.0;
13/06/2019 19:11:29;115;0;190.66;17;-53.82;-2.95;5.6;12.30;69269;5140.766;-12818.246;177;500;505.0;100;100.3;0;-0.5;29.3;-1.0;
13/06/2019 19:11:39;116;0;309.92;17;-52.17;-15.24;1.4;12.40;69278;5140.766;-12818.246;177;500;506.9;100;100.3;0;-0.5;29.3;-1.0;
13/06/2019 19:11:59;116;0;300.97;17;-17.74;-3.40;1.1;12.40;69310;5140.766;-12818.246;177;500;508.9;100;100.3;0;-0.5;29.3;-1.0;
13/06/2019 19:12:20;116;0;304.50;17;-3.21;3.00;1.1;12.40;69340;5140.505;-12818.220;177;500;508.9;100;100.3;0;-0.5;29.3;-1.0;
13/06/2019 19:13:09;116;0;298.56;17;-7.99;4.53;1.0;12.60;69371;5140.500;-12818.228;177;500;508.9;100;100.3;0;-0.5;29.3;-1.0;
13/06/2019 19:13:33;116;0;326.51;17;-4.60;4.79;1.1;12.70;69389;5140.496;-12818.227;177;500;508.9;100;100.3;0;-0.5;29.3;-1.0;
13/06/2019 19:13:53;116;0;308.83;17;-9.47;2.12;1.1;12.70;69393;5140.493;-12818.231;177;500;508.9;100;100.3;0;-0.5;29.3;-1.0;
13/06/2019 19:14:13;116;0;328.03;17;-4.20;0.93;1.1;12.80;69400;5140.489;-12818.238;177;500;508.9;100;100.3;0;-0.5;29.3;-1.0;
13/06/2019 19:14:33;116;0;334.69;17;-11.75;12.02;1.1;12.90;69413;5140.488;-12818.239;177;500;506.9;100;100.3;0;-0.5;29.3;-1.0;
13/06/2019 19:14:53;116;0;330.52;17;-7.60;4.16;1.1;13.00;69417;5140.479;-12818.252;177;500;506.9;100;100.3;0;-0.9;29.3;-1.0;
13/06/2019 19:15:49;116;0;311.85;17;-23.77;3.22;1.1;13.20;69425;5140.479;-12818.252;177;500;508.9;100;100.3;0;-0.9;29.3;-1.0;
13/06/2019 19:16:09;116;0;321.79;17;-11.96;5.56;1.1;13.30;69437;5140.469;-12818.262;177;500;508.9;100;100.3;0;-0.5;29.3;-1.0;
13/06/2019 19:16:29;116;0;302.24;17;-19.74;0.65;1.2;13.40;69437;5140.459;-12818.272;177;500;508.9;100;100.3;0;-0.5;29.3;-1.0;
13/06/2019 19:17:12;116;0;316.87;17;-12.21;2.55;1.1;13.50;69449;5140.455;-12818.277;177;500;508.9;100;100.3;0;-0.9;29.3;-1.0;
13/06/2019 19:17:34;116;0;325.46;17;-21.92;1.95;1.3;13.60;69460;5140.449;-12818.280;177;500;506.9;100;100.3;0;-0.5;29.3;-1.0;
13/06/2019 19:17:55;116;0;318.56;17;-7.64;-2.88;1.0;13.70;69456;5140.447;-12818.282;177;500;506.9;100;100.3;0;-0.9;29.3;-1.0;
13/06/2019 19:18:15;116;0;344.79;17;-13.02;7.01;1.2;13.70;69458;5140.443;-12818.286;177;500;506.9;100;100.1;0;-0.5;29.3;-1.0;
13/06/2019 19:18:35;116;0;317.88;17;-23.83;6.16;1.2;13.80;69473;5140.442;-12818.289;173;500;508.9;100;100.3;0;-0.9;29.3;-1.0;
13/06/2019 19:18:55;116;0;309.63;17;-8.48;3.23;1.1;13.90;69471;5140.439;-12818.291;173;500;508.9;100;100.3;0;-0.9;29.3;-1.0;
13/06/2019 19:19:15;116;0;334.18;17;-10.89;-2.24;1.1;13.90;69472;5140.435;-12818.294;173;500;506.9;100;100.3;0;-0.5;29.3;-1.0;
13/06/2019 19:19:35;116;0;305.55;17;-22.47;2.36;1.2;14.00;69468;5140.429;-12818.299;173;500;508.9;100;100.3;0;-0.9;29.3;-1.0;
13/06/2019 19:19:55;110;0;305.06;17;-25.02;8.84;1.0;14.10;69482;5140.429;-12818.299;173;-250;409.9;100;100.3;0;-0.5;29.3;-1.0;
13/06/2019 19:20:05;110;0;342.04;17;-7.09;5.41;1.0;14.10;69724;5140.429;-12818.299;173;-250;269.3;100;100.3;0;-0.9;29.2;-1.0;
13/06/2019 19:20:15;110;0;307.02;17;-7.92;4.88;1.0;14.10;69900;5140.429;-12818.299;173;-250;134.7;100;100.1;0;-0.5;29.2;-1.0;
13/06/2019 19:20:25;110;0;342.73;17;-10.69;4.78;1.1;14.10;70137;5140.429;-12818.299;173;-250;-15.8;100;100.3;0;-0.5;29.3;-1.0;
13/06/2019 19:20:35;110;0;337.46;17;-39.74;7.07;1.8;14.10;70379;5140.429;-12818.299;173;-250;-200.0;98;97.9;0;-0.9;29.3;-1.0;
13/06/2019 19:20:45;110;0;336.02;17;-57.59;6.17;3.7;14.20;70691;5140.429;-12818.299;173;-250;-251.5;76;76.0;0;-0.9;29.3;-1.0;
13/06/2019 19:20:55;110;0;330.08;17;-44.68;3.83;6.6;14.20;70739;5140.429;-12818.299;173;-250;-251.5;71;70.9;0;-0.9;29.3;-1.0;
13/06/2019 19:21:05;100;0;328.56;17;-31.03;3.30;9.1;14.20;70733;5140.429;-12818.299;173;-250;-249.5;71;70.8;0;-0.9;29.3;-1.0;
13/06/2019 19:21:25;100;0;316.85;17;-23.22;3.39;13.2;14.20;70707;5140.429;-12818.299;173;-250;-245.5;71;70.8;45;45.1;29.3;0.0;
13/06/2019 19:21:45;100;0;303.58;17;-19.11;24.97;16.7;14.20;70679;5140.429;-12818.299;173;-250;-245.5;71;70.8;45;45.6;29.3;0.0;
13/06/2019 19:22:05;100;0;284.38;17;-18.56;25.59;19.4;14.10;70667;5140.429;-12818.299;173;-250;-245.5;71;70.8;42;42.0;29.3;0.0;
13/06/2019 19:22:25;100;0;267.53;17;-20.13;23.01;22.2;14.10;70649;5140.429;-12818.299;173;-250;-245.5;71;70.8;31;31.1;29.3;0.0;
13/06/2019 19:22:45;100;0;252.74;17;-19.96;17.79;24.9;14.10;70630;5140.429;-12818.299;173;-250;-245.5;71;70.6;25;24.8;29.3;0.0;
13/06/2019 19:23:05;100;0;239.76;17;-19.50;14.45;27.6;14.00;70586;5140.429;-12818.299;173;-250;-243.6;71;70.8;22;22.1;29.3;0.0;
13/06/2019 19:23:25;100;0;223.79;17;-18.42;13.17;30.4;14.00;70553;5140.429;-12818.299;173;-250;-245.5;71;70.6;17;17.1;29.3;0.0;
13/06/2019 19:23:45;100;0;217.64;17;-18.92;10.86;33.0;13.90;70505;5140.429;-12818.299;173;-250;-243.6;71;70.6;19;19.4;29.3;0.0;
13/06/2019 19:24:05;100;0;205.03;17;-18.47;12.62;35.5;13.90;70464;5140.429;-12818.299;173;-250;-245.5;71;70.6;16;15.8;29.3;0.0;
13/06/2019 19:24:25;100;0;195.45;17;-19.05;10.25;37.9;13.80;70454;5140.429;-12818.299;173;-250;-243.6;71;70.6;14;14.0;29.3;0.0;
13/06/2019 19:24:45;100;0;181.32;17;-18.78;9.60;40.6;13.70;70427;5140.429;-12818.299;173;-250;-243.6;71;70.6;10;9.9;29.3;0.0;
13/06/2019 19:25:05;100;0;171.30;17;-19.32;7.30;42.9;13.70;70400;5140.429;-12818.299;173;-250;-243.6;71;70.6;9;9.0;29.4;0.0;
13/06/2019 19:25:25;100;0;168.08;17;-19.53;7.46;45.4;13.60;70383;5140.429;-12818.299;173;-250;-243.6;71;70.6;12;12.2;29.3;0.0;
13/06/2019 19:25:45;100;0;158.48;17;-18.89;9.02;47.9;13.60;70366;5140.429;-12818.299;173;-250;-243.6;71;70.8;9;9.0;29.3;0.0;
13/06/2019 19:26:05;100;0;152.56;17;-18.92;6.94;50.4;13.50;70339;5140.429;-12818.299;173;-250;-243.6;71;70.8;9;8.6;29.3;0.0;
13/06/2019 19:26:25;100;0;144.18;17;-18.76;6.96;53.0;13.50;70317;5140.429;-12818.299;173;-250;-243.6;71;70.6;6;5.9;29.3;0.0;
13/06/2019 19:26:45;100;0;136.78;17;-18.87;5.60;55.5;13.40;70301;5140.429;-12818.299;173;-250;-243.6;71;70.6;4;4.1;29.3;0.0;
13/06/2019 19:27:05;100;0;127.69;17;-18.82;4.37;58.0;13.30;70288;5140.429;-12818.299;173;-250;-243.6;71;70.6;1;0.9;29.3;0.0;
13/06/2019 19:27:25;100;0;121.89;17;-18.98;3.22;60.5;13.30;70274;5140.429;-12818.299;173;-250;-243.6;71;70.6;0;-0.5;29.3;0.0;
13/06/2019 19:27:45;100;0;121.31;17;-19.02;2.68;63.0;13.20;70260;5140.429;-12818.299;173;-250;-243.6;71;70.6;2;1.8;29.3;0.0;
13/06/2019 19:28:05;100;0;115.64;17;-18.71;4.36;65.4;13.20;70250;5140.429;-12818.299;173;-250;-245.5;71;70.6;0;-0.5;29.3;0.0;
13/06/2019 19:28:25;100;0;108.07;17;-18.40;2.77;67.8;13.10;70233;5140.429;-12818.299;173;-250;-245.5;71;70.5;-4;-4.1;29.3;0.0;
13/06/2019 19:28:45;100;0;103.74;17;-18.82;1.12;70.0;13.10;70225;5140.429;-12818.299;173;-250;-243.6;71;70.6;-7;-7.2;29.3;0.0;
13/06/2019 19:29:05;100;0;99.12;17;-18.91;-0.16;72.2;13.00;70213;5140.429;-12818.299;173;-250;-243.6;71;70.6;-9;-9.0;29.3;0.0;
13/06/2019 19:29:25;100;0;98.07;17;-18.68;-1.24;74.5;13.00;70208;5140.429;-12818.299;173;-250;-243.6;71;70.6;-10;-9.9;29.3;0.0;
13/06/2019 19:29:45;100;0;90.91;17;-18.74;-1.64;76.7;12.90;70200;5140.429;-12818.299;173;-250;-243.6;71;70.6;-16;-15.8;29.3;0.0;
13/06/2019 19:30:05;100;0;84.31;17;-18.88;-4.12;78.9;12.90;70196;5140.429;-12818.299;173;-250;-243.6;71;70.6;-21;-21.2;29.3;0.0;
13/06/2019 19:30:25;100;0;77.47;17;-18.45;-6.67;81.3;12.80;70181;5140.429;-12818.299;173;-250;-243.6;71;70.6;-26;-26.6;29.3;0.0;
13/06/2019 19:30:45;100;0;83.93;17;-17.53;-9.26;83.4;12.80;70171;5140.429;-12818.299;173;-250;-241.6;71;70.6;-23;-22.6;29.3;0.0;
13/06/2019 19:31:05;100;0;90.80;17;-17.70;-6.88;85.5;12.70;70164;5140.429;-12818.299;173;-250;-243.6;71;70.6;-21;-21.2;29.3;0.0;
13/06/2019 19:31:25;100;0;89.70;17;-17.67;-6.11;87.4;12.70;70147;5140.429;-12818.299;173;-250;-243.6;71;70.6;-26;-26.2;29.4;0.0;
13/06/2019 19:31:45;100;0;89.75;17;-17.60;-9.00;89.3;12.60;70146;5140.429;-12818.299;173;-250;-241.6;71;70.6;-27;-27.1;29.3;0.0;
13/06/2019 19:32:05;100;0;88.54;17;-17.18;-9.49;91.2;12.60;70133;5140.429;-12818.299;173;-250;-243.6;71;70.6;-28;-28.0;29.3;0.0;
13/06/2019 19:32:25;100;0;89.38;17;-16.67;-9.82;93.1;12.60;70129;5140.429;-12818.299;173;-250;-241.6;71;70.6;-27;-26.6;29.3;44.2;
13/06/2019 19:32:45;100;0;92.65;17;-17.14;-9.00;94.9;12.50;70114;5140.429;-12818.299;173;-250;-241.6;71;70.5;-26;-26.2;29.3;42.2;
13/06/2019 19:33:05;100;0;98.34;17;-16.53;-8.98;96.7;12.40;70101;5140.429;-12818.299;173;-250;-243.6;71;70.6;-23;-23.0;29.3;40.5;
13/06/2019 19:33:25;100;0;102.97;17;-16.04;-7.11;98.3;12.40;70097;5140.429;-12818.299;173;-250;-243.6;71;70.6;-22;-22.1;29.3;38.7;
13/06/2019 19:33:45;118;0;101.47;17;-15.97;-6.52;100.1;12.40;70082;5140.429;-12818.299;173;100;-225.7;53;52.9;0;0.9;29.3;36.9;
13/06/2019 19:33:55;118;0;95.02;17;8.62;4.28;100.6;12.30;69986;5140.429;-12818.299;173;100;-69.3;53;53.2;0;0.9;28.9;36.9;
13/06/2019 19:34:05;118;0;98.17;17;28.04;3.86;100.2;12.30;69786;5140.429;-12818.299;173;100;85.1;53;53.2;0;0.5;29.0;-1.0;
13/06/2019 19:34:15;118;0;103.53;17;30.77;3.64;99.1;12.30;69524;5140.429;-12818.299;173;100;105.0;53;53.2;0;0.9;28.9;-1.0;
13/06/2019 19:34:25;118;0;119.69;17;31.73;3.53;97.6;12.30;69513;5140.429;-12818.299;173;100;105.0;53;53.2;0;0.9;29.3;-1.0;
13/06/2019 19:34:35;117;0;115.48;17;32.39;3.74;95.9;12.30;69506;5140.429;-12818.299;173;100;105.0;53;53.1;0;0.9;29.3;-1.0;
13/06/2019 19:34:55;117;0;108.56;17;32.71;3.91;92.1;12.20;69511;5140.429;-12818.299;173;100;105.0;53;53.2;20;19.9;29.3;-1.0;
13/06/2019 19:35:15;117;0;117.77;17;30.88;13.36;87.8;12.20;69506;5140.429;-12818.299;173;100;105.0;53;53.2;17;17.1;29.3;-1.0;
13/06/2019 19:35:35;117;0;119.13;17;32.42;11.13;84.1;12.10;69508;5140.429;-12818.299;173;100;105.0;53;53.1;18;18.1;29.3;-1.0;
13/06/2019 19:35:55;117;0;116.66;17;29.55;12.77;80.1;12.10;69501;5140.429;-12818.299;173;100;105.0;53;53.1;22;22.1;29.3;-1.0;
13/06/2019 19:36:15;117;0;131.33;17;29.38;14.90;77.0;12.00;69505;5140.429;-12818.299;173;100;105.0;53;53.1;13;13.1;29.3;-1.0;
13/06/2019 19:36:35;117;0;140.66;17;30.11;9.20;74.0;12.00;69520;5140.429;-12818.299;173;100;105.0;53;53.1;11;10.4;29.3;-1.0;
13/06/2019 19:36:55;117;0;142.37;17;29.62;8.04;70.7;12.00;69531;5140.429;-12818.299;173;100;105.0;53;53.1;13;13.5;29.3;-1.0;
13/06/2019 19:37:15;117;0;148.08;17;29.01;10.06;67.3;11.90;69535;5140.429;-12818.299;173;100;105.0;53;53.1;12;12.2;29.3;-1.0;
13/06/2019 19:37:35;117;0;146.89;17;29.28;8.85;64.0;11.90;69519;5140.429;-12818.299;173;100;105.0;53;53.2;15;14.9;29.3;-1.0;
13/06/2019 19:37:55;117;0;143.09;17;28.59;10.78;60.8;11.90;69514;5140.429;-12818.299;173;100;105.0;53;53.2;17;17.1;29.3;-1.0;
13/06/2019 19:38:15;117;0;147.80;17;28.13;12.28;57.9;11.80;69519;5140.429;-12818.299;173;100;105.0;53;53.1;15;14.4;29.3;-1.0;
13/06/2019 19:38:35;117;0;155.07;17;27.94;9.95;55.0;11.80;69523;5140.429;-12818.299;173;100;105.0;53;53.1;15;14.4;29.3;-1.0;
13/06/2019 19:38:55;117;0;159.51;17;28.15;9.98;52.4;11.80;69533;5140.429;-12818.299;173;100;105.0;53;53.1;11;10.4;29.3;-1.0;
13/06/2019 19:39:16;117;0;159.53;17;27.53;7.97;49.7;11.70;69527;5140.429;-12818.299;173;100;105.0;53;53.2;12;12.2;29.3;-1.0;
13/06/2019 19:39:36;117;0;165.85;17;27.48;9.35;47.3;11.70;69537;5140.429;-12818.299;173;100;105.0;53;53.2;9;9.0;29.3;-1.0;
13/06/2019 19:39:56;117;0;163.67;17;27.48;7.15;44.8;11.70;69558;5140.429;-12818.299;173;100;105.0;53;53.2;11;10.8;29.3;-1.0;
13/06/2019 19:40:16;117;0;168.07;17;28.24;8.80;42.3;11.70;69564;5140.429;-12818.299;173;100;105.0;53;53.2;8;8.1;29.3;-1.0;
13/06/2019 19:40:36;117;0;171.91;17;27.05;7.07;39.6;11.70;69571;5140.429;-12818.299;173;100;105.0;53;53.1;7;7.2;29.3;-1.0;
13/06/2019 19:40:56;117;0;177.85;17;27.58;6.34;37.1;11.70;69583;5140.429;-12818.299;173;100;105.0;53;53.1;4;3.6;29.3;-1.0;
13/06/2019 19:41:16;117;0;180.10;17;27.61;4.69;34.5;11.60;69581;5140.429;-12818.299;173;100;106.9;53;53.1;4;3.2;29.3;-1.0;
13/06/2019 19:41:36;117;0;182.11;17;27.02;4.56;31.9;11.60;69605;5140.429;-12818.299;173;100;105.0;53;53.2;3;3.2;29.3;-1.0;
13/06/2019 19:41:56;117;0;193.03;17;26.73;4.67;29.7;11.60;69608;5140.429;-12818.299;173;100;106.9;53;53.2;-1;-0.9;29.3;-1.0;
13/06/2019 19:42:16;117;0;204.52;17;25.88;2.17;27.7;11.60;69624;5140.429;-12818.299;173;100;106.9;53;53.1;-7;-7.2;29.3;-1.0;
13/06/2019 19:42:36;117;0;203.53;17;26.24;-0.73;26.0;11.60;69651;5140.429;-12818.299;173;100;105.0;53;53.2;-5;-5.0;29.3;-1.0;
13/06/2019 19:42:56;117;0;200.90;17;26.72;1.14;24.2;11.70;69688;5140.429;-12818.299;173;100;106.9;53;53.1;-2;-1.8;29.3;-1.0;
13/06/2019 19:43:16;117;0;197.80;17;24.67;2.71;22.2;11.60;69695;5140.429;-12818.299;173;100;105.0;53;53.2;-1;-0.9;29.3;-1.0;
13/06/2019 19:43:36;117;0;195.48;17;26.13;2.41;20.1;11.70;69735;5140.429;-12818.299;173;100;106.9;53;53.1;-1;-1.4;29.3;-1.0;
13/06/2019 19:43:56;117;0;192.54;17;25.16;2.93;18.0;11.70;69757;5140.429;-12818.299;173;100;106.9;53;53.2;-1;-0.9;29.3;-1.0;
13/06/2019 19:44:16;117;0;193.73;17;25.88;2.56;16.0;11.70;69777;5140.429;-12818.299;173;100;106.9;53;53.1;-3;-3.6;29.3;-1.0;
13/06/2019 19:44:36;117;0;193.53;17;25.70;1.08;14.0;11.70;69798;5140.429;-12818.299;173;100;106.9;53;53.2;-3;-4.1;29.3;-1.0;
13/06/2019 19:44:56;117;0;193.49;17;25.46;1.32;12.2;11.70;69809;5140.429;-12818.299;173;100;105.0;53;53.2;-4;-4.1;29.3;-1.0;
13/06/2019 19:45:16;117;0;198.96;17;25.69;1.97;10.4;11.80;69835;5140.429;-12818.299;173;100;106.9;53;53.1;-8;-8.1;29.3;-1.0;
