Timestamp;NavState;SecurityLevel;Heading;Declination;Pitch;Roll;Depth;Temperature;Pa;Lat;Lon;DesiredH;BallastCmd;BallastPos;LinCmd;LinPos;AngCmd;AngPos;Voltage;Altitude;
14/06/2019 06:23:56;117;0;228.19;17;23.10;5.70;9.2;10.80;69427;5137.888;-12820.217;208;200;205.9;54;54.1;-6;-6.3;29.2;-1.0;
14/06/2019 06:24:06;115;0;228.70;17;22.74;-0.50;7.9;10.80;69428;5137.888;-12820.217;208;500;217.8;100;99.1;0;0.9;29.2;-1.0;
14/06/2019 06:24:16;115;0;202.66;17;-13.05;4.17;6.9;10.80;69346;5137.888;-12820.217;208;500;368.3;100;100.4;0;0.9;28.9;-1.0;
14/06/2019 06:24:26;115;0;207.37;17;-56.91;3.48;7.9;10.90;69150;5137.888;-12820.217;208;500;505.0;100;100.4;0;0.9;28.9;-1.0;
14/06/2019 06:24:36;115;0;233.79;17;-63.43;5.66;7.5;10.90;68922;5137.888;-12820.217;208;500;506.9;100;100.4;0;0.9;29.2;-1.0;
14/06/2019 06:24:46;115;0;233.80;17;-34.91;2.65;4.8;10.90;68945;5137.888;-12820.217;208;500;506.9;100;100.4;0;0.9;29.2;-1.0;
14/06/2019 06:24:56;116;0;254.19;17;-68.67;0.82;1.5;10.90;68953;5137.888;-12820.217;208;500;506.9;100;100.4;0;0.9;29.2;-1.0;
14/06/2019 06:25:16;116;0;283.29;17;-29.35;4.94;1.4;11.00;68982;5137.888;-12820.217;208;500;508.9;100;100.3;0;0.9;29.2;-1.0;
14/06/2019 06:25:36;116;0;298.69;17;-5.26;1.56;1.1;11.10;68986;5137.888;-12820.217;208;500;506.9;100;100.3;0;0.9;29.2;-1.0;
14/06/2019 06:25:56;116;0;316.40;17;-8.66;4.50;1.1;11.20;69001;5137.597;-12820.306;208;500;508.9;100;100.3;0;0.9;29.2;-1.0;
14/06/2019 06:26:16;116;0;316.59;17;-9.40;3.42;1.1;11.30;69007;5137.588;-12820.291;208;500;508.9;100;100.3;0;0.9;29.2;-1.0;
14/06/2019 06:27:30;116;0;299.15;17;-9.14;-4.39;1.2;11.80;69046;5137.587;-12820.290;208;500;508.9;100;100.3;0;0.9;29.2;-1.0;
14/06/2019 06:27:50;116;0;288.96;17;-24.07;7.40;1.2;11.90;69048;5137.590;-12820.295;208;500;508.9;100;100.3;0;0.9;29.2;-1.0;
14/06/2019 06:28:10;116;0;293.61;17;-22.23;3.56;1.2;12.00;69054;5137.592;-12820.296;208;500;508.9;100;100.4;0;0.9;29.2;-1.0;
14/06/2019 06:28:30;116;0;314.52;17;-31.01;9.18;1.3;12.20;69063;5137.590;-12820.298;208;500;508.9;100;100.4;0;0.9;29.2;-1.0;
14/06/2019 06:28:50;116;0;295.81;17;-14.44;1.41;1.2;12.30;69072;5137.591;-12820.295;208;500;508.9;100;100.3;0;0.9;29.2;-1.0;
14/06/2019 06:29:10;116;0;295.70;17;-4.67;4.29;1.0;12.30;69070;5137.588;-12820.293;208;500;508.9;100;100.3;0;0.9;29.2;-1.0;
14/06/2019 06:29:30;116;0;297.81;17;-34.57;4.02;1.3;12.40;69088;5137.581;-12820.289;208;500;508.9;100;100.3;0;0.9;29.2;-1.0;
14/06/2019 06:30:07;116;0;303.04;17;-8.64;2.70;1.1;12.50;69089;5137.580;-12820.288;208;500;508.9;100;100.3;0;0.9;29.2;-1.0;
14/06/2019 06:30:27;116;0;292.92;17;-5.66;1.94;1.1;12.60;69102;5137.579;-12820.290;208;500;508.9;100;100.3;0;0.9;29.2;-1.0;
14/06/2019 06:30:47;116;0;304.92;17;-3.14;2.22;1.1;12.70;69091;5137.582;-12820.288;208;500;508.9;100;100.4;0;0.9;29.2;-1.0;
14/06/2019 06:31:07;116;0;295.49;17;-11.48;5.08;1.2;12.80;69097;5137.583;-12820.286;208;500;508.9;100;100.3;0;0.9;29.2;-1.0;
14/06/2019 06:31:27;116;0;312.22;17;-5.86;5.82;1.1;12.90;69109;5137.583;-12820.287;208;500;508.9;100;100.3;0;0.9;29.2;-1.0;
14/06/2019 06:31:47;116;0;296.93;17;-6.42;0.89;1.1;13.00;69118;5137.585;-12820.283;208;500;508.9;100;100.3;0;0.9;29.2;-1.0;
14/06/2019 06:32:07;116;0;298.99;17;-6.67;0.64;1.1;13.00;69113;5137.580;-12820.282;208;500;508.9;100;100.3;0;0.9;29.2;-1.0;
14/06/2019 06:32:27;116;0;293.77;17;-10.74;-2.06;1.1;13.10;69126;5137.578;-12820.287;208;500;508.9;100;100.3;0;0.9;29.2;-1.0;
14/06/2019 06:32:47;116;0;304.88;17;-7.72;7.39;1.1;13.20;69127;5137.580;-12820.284;208;500;510.9;100;100.3;0;0.9;29.2;-1.0;
14/06/2019 06:33:07;116;0;311.77;17;-19.37;-1.91;1.1;13.30;69131;5137.579;-12820.286;208;500;508.9;100;100.3;0;0.9;29.2;-1.0;
14/06/2019 06:33:27;116;0;292.92;17;-10.84;3.58;1.1;13.30;69132;5137.577;-12820.284;208;500;508.9;100;100.3;0;0.9;29.2;-1.0;
14/06/2019 06:33:47;116;0;308.08;17;-24.78;8.41;1.2;13.40;69140;5137.578;-12820.283;208;500;510.9;100;100.3;0;0.9;29.2;-1.0;
14/06/2019 06:34:07;116;0;301.13;17;-29.72;-1.94;1.3;13.50;69134;5137.575;-12820.282;209;500;508.9;100;100.3;0;0.9;29.2;-1.0;
14/06/2019 06:34:28;116;0;310.90;17;-15.77;2.23;1.2;13.50;69149;5137.575;-12820.281;209;500;508.9;100;100.3;0;0.9;29.2;-1.0;
14/06/2019 06:34:48;116;0;302.01;17;-16.39;1.38;1.1;13.60;69152;5137.575;-12820.277;209;500;508.9;100;100.4;0;0.9;29.2;-1.0;
14/06/2019 06:35:08;116;0;293.44;17;-6.27;5.32;1.1;13.70;69157;5137.574;-12820.276;209;500;508.9;100;100.3;0;0.9;29.2;-1.0;
14/06/2019 06:36:22;116;0;292.71;17;-11.05;-2.46;1.1;14.20;69164;5137.575;-12820.275;209;500;510.9;100;100.3;0;0.9;29.2;-1.0;
14/06/2019 06:36:42;116;0;310.30;17;-11.22;3.36;1.1;14.30;69178;5137.570;-12820.276;209;500;510.9;100;100.3;0;0.9;29.2;-1.0;
14/06/2019 06:37:02;116;0;324.89;17;-11.36;6.85;1.1;14.30;69172;5137.571;-12820.275;209;500;510.9;100;100.3;0;0.9;29.2;-1.0;
14/06/2019 06:37:28;116;0;299.97;17;-11.70;1.41;1.1;14.40;69173;5137.571;-12820.273;209;500;510.9;100;100.3;0;0.9;29.2;-1.0;
14/06/2019 06:37:48;116;0;280.92;17;-4.96;0.60;1.2;14.40;69183;5137.571;-12820.270;209;500;508.9;100;100.3;0;0.9;29.2;-1.0;
14/06/2019 06:38:08;116;0;327.11;17;-7.49;-0.37;1.1;14.50;69188;5137.569;-12820.272;209;500;508.9;100;100.3;0;0.9;29.2;-1.0;
14/06/2019 06:38:28;116;0;315.61;17;-10.19;3.67;1.1;14.50;69189;5137.544;-12820.264;209;500;510.9;100;100.3;0;0.9;29.2;-1.0;
14/06/2019 06:44:04;116;0;284.84;17;-13.33;-2.29;1.1;14.60;69218;5137.544;-12820.263;209;500;510.9;100;100.3;0;0.9;29.2;-1.0;
14/06/2019 06:44:24;116;0;312.48;17;-12.26;0.81;1.2;14.60;69217;5137.541;-12820.264;209;500;508.9;100;100.3;0;0.9;29.2;-1.0;
14/06/2019 06:44:44;116;0;296.18;17;-12.76;3.41;1.1;14.60;69213;5137.540;-12820.264;209;500;508.9;100;100.3;0;0.9;29.2;-1.0;
14/06/2019 06:45:04;116;0;295.80;17;-32.58;5.29;1.2;14.70;69215;5137.539;-12820.264;209;500;508.9;100;100.4;0;0.9;29.2;-1.0;
14/06/2019 06:45:24;116;0;284.97;17;-18.97;-1.39;1.1;14.70;69219;5137.537;-12820.264;209;500;508.9;100;100.3;0;0.9;29.2;-1.0;
14/06/2019 06:45:44;116;0;307.24;17;-7.46;8.41;1.1;14.70;69224;5137.532;-12820.262;209;500;508.9;100;100.3;0;0.9;29.2;-1.0;
14/06/2019 06:46:04;116;0;307.39;17;-32.59;7.82;1.5;14.70;69216;5137.533;-12820.263;209;500;508.9;100;100.4;0;0.9;29.2;-1.0;
14/06/2019 06:46:24;116;0;300.36;17;-15.04;2.03;1.1;14.70;69224;5137.531;-12820.262;209;500;508.9;100;100.4;0;0.9;29.2;-1.0;
14/06/2019 06:46:44;116;0;300.87;17;-7.93;9.07;1.0;14.80;69225;5137.528;-12820.261;209;500;508.9;100;100.3;0;0.9;29.2;-1.0;
14/06/2019 06:47:04;116;0;298.48;17;-11.38;-0.93;1.1;14.80;69227;5137.523;-12820.257;209;500;510.9;100;100.3;0;0.9;29.2;-1.0;
14/06/2019 06:47:42;116;0;304.46;17;-6.75;3.74;1.1;14.80;69226;5137.523;-12820.256;209;500;508.9;100;100.3;0;0.9;29.2;-1.0;
14/06/2019 06:48:02;116;0;259.03;17;-7.15;0.44;1.1;14.80;69226;5137.521;-12820.257;209;500;510.9;100;100.3;0;0.5;29.2;-1.0;
14/06/2019 06:48:22;116;0;297.20;17;-11.72;3.49;1.1;14.80;69228;5137.520;-12820.258;209;500;508.9;100;100.3;0;0.9;29.2;-1.0;
14/06/2019 06:48:42;110;0;309.21;17;-8.14;4.55;1.1;14.80;69242;5137.520;-12820.258;209;-250;409.9;100;100.3;0;0.9;29.2;-1.0;
14/06/2019 06:48:52;110;0;320.25;17;-7.05;1.36;1.1;14.90;69465;5137.520;-12820.258;209;-250;267.3;100;100.3;0;0.9;29.1;-1.0;
14/06/2019 06:49:02;110;0;291.63;17;-11.83;3.31;1.1;14.90;69665;5137.520;-12820.258;209;-250;130.7;100;100.3;0;0.9;29.1;-1.0;
14/06/2019 06:49:12;110;0;313.07;17;-17.93;6.68;1.1;14.90;69882;5137.520;-12820.258;209;-250;-17.8;100;100.3;0;0.9;29.1;-1.0;
14/06/2019 06:49:22;110;0;318.06;17;-33.53;0.43;1.7;14.90;70126;5137.520;-12820.258;209;-250;-202.0;98;98.1;0;0.9;29.1;-1.0;
14/06/2019 06:49:32;110;0;318.72;17;-56.73;5.34;3.7;14.90;70433;5137.520;-12820.258;209;-250;-249.5;76;76.0;0;0.9;29.1;-1.0;
14/06/2019 06:49:42;110;0;303.59;17;-46.36;5.85;6.8;14.90;70478;5137.520;-12820.258;209;-250;-249.5;72;71.8;0;0.9;29.2;-1.0;
14/06/2019 06:49:52;100;0;291.46;17;-34.20;3.84;9.7;14.90;70478;5137.520;-12820.258;209;-250;-245.5;71;70.9;0;0.9;29.2;-1.0;
14/06/2019 06:50:12;100;0;259.89;17;-23.04;4.22;14.5;14.90;70465;5137.520;-12820.258;209;-250;-245.5;71;70.8;32;32.0;29.2;0.0;
14/06/2019 06:50:32;100;0;240.94;17;-19.83;19.17;18.3;14.80;70441;5137.520;-12820.258;209;-250;-243.6;71;70.8;16;15.8;29.2;0.0;
14/06/2019 06:50:52;100;0;227.68;17;-20.59;10.29;21.3;14.80;70433;5137.520;-12820.258;209;-250;-243.6;71;70.8;8;8.1;29.2;0.0;
14/06/2019 06:51:12;100;0;224.76;17;-21.05;6.66;24.5;14.70;70398;5137.520;-12820.258;209;-250;-245.5;71;70.8;9;9.5;29.1;0.0;
14/06/2019 06:51:32;100;0;217.28;17;-19.94;7.70;27.5;14.60;70352;5137.520;-12820.258;209;-250;-243.6;71;70.8;7;7.2;29.2;0.0;
14/06/2019 06:51:52;100;0;209.91;17;-19.32;6.14;30.4;14.60;70292;5137.520;-12820.258;209;-250;-241.6;71;70.8;5;5.0;29.2;0.0;
14/06/2019 06:52:12;100;0;207.11;17;-19.52;5.52;33.1;14.50;70235;5137.520;-12820.258;209;-250;-241.6;71;70.8;7;7.2;29.2;0.0;
14/06/2019 06:52:32;100;0;202.41;17;-19.87;7.02;35.7;14.40;70200;5137.520;-12820.258;209;-250;-239.6;71;70.8;6;5.9;29.1;0.0;
14/06/2019 06:52:52;100;0;194.91;17;-19.85;5.77;38.1;14.30;70176;5137.520;-12820.258;209;-250;-241.6;71;70.8;3;3.2;29.2;0.0;
14/06/2019 06:53:12;100;0;186.67;17;-19.97;4.54;40.7;14.20;70137;5137.520;-12820.258;209;-250;-241.6;71;70.6;3;2.7;29.2;0.0;
14/06/2019 06:53:32;100;0;182.06;17;-19.81;4.46;43.3;14.10;70120;5137.520;-12820.258;209;-250;-241.6;71;70.6;1;0.9;29.2;0.0;
14/06/2019 06:53:52;100;0;181.94;17;-19.91;3.35;45.9;14.00;70101;5137.520;-12820.258;209;-250;-241.6;71;70.8;2;1.8;29.2;0.0;
14/06/2019 06:54:12;100;0;177.15;17;-19.24;4.44;48.6;14.00;70092;5137.520;-12820.258;209;-250;-241.6;71;70.6;1;0.9;29.2;0.0;
14/06/2019 06:54:32;100;0;168.95;17;-19.76;3.34;51.1;13.90;70072;5137.520;-12820.258;209;-250;-241.6;71;70.6;-3;-3.2;29.2;0.0;
14/06/2019 06:54:52;100;0;165.28;17;-19.91;1.56;53.6;13.80;70058;5137.520;-12820.258;209;-250;-241.6;71;70.6;-3;-3.6;29.2;0.0;
14/06/2019 06:55:12;100;0;165.98;17;-20.03;1.64;56.0;13.70;70038;5137.520;-12820.258;209;-250;-241.6;71;70.6;-1;-0.5;29.2;0.0;
14/06/2019 06:55:32;100;0;164.95;17;-19.62;3.36;58.5;13.70;70029;5137.520;-12820.258;209;-250;-241.6;71;70.6;-2;-1.8;29.2;0.0;
14/06/2019 06:55:52;100;0;159.93;17;-19.68;2.22;60.9;13.60;70020;5137.520;-12820.258;209;-250;-241.6;71;70.6;-5;-5.4;29.2;0.0;
14/06/2019 06:56:12;100;0;155.99;17;-19.43;0.51;63.3;13.50;70001;5137.520;-12820.258;209;-250;-241.6;71;70.8;-6;-5.9;29.2;0.0;
14/06/2019 06:56:32;100;0;152.39;17;-19.10;0.63;65.5;13.40;69979;5137.520;-12820.258;209;-250;-243.6;71;70.6;-7;-7.2;29.2;0.0;
14/06/2019 06:56:52;100;0;148.03;17;-18.82;-0.12;68.0;13.40;69977;5137.520;-12820.258;209;-250;-241.6;71;70.6;-9;-9.5;29.2;0.0;
14/06/2019 06:57:12;100;0;146.72;17;-19.19;-1.26;70.3;13.30;69954;5137.520;-12820.258;209;-250;-241.6;71;70.6;-10;-9.9;29.2;0.0;
14/06/2019 06:57:32;100;0;143.24;17;-18.72;-1.32;72.7;13.20;69952;5137.520;-12820.258;209;-250;-241.6;71;70.6;-13;-13.5;29.2;0.0;
14/06/2019 06:57:52;100;0;137.47;17;-18.05;-3.22;75.0;13.20;69942;5137.520;-12820.258;209;-250;-239.6;71;70.6;-18;-18.5;29.2;0.0;
14/06/2019 06:58:12;100;0;133.38;17;-18.23;-5.29;77.3;13.10;69931;5137.520;-12820.258;209;-250;-239.6;71;70.6;-21;-21.2;29.2;0.0;
14/06/2019 06:58:32;100;0;134.75;17;-18.18;-6.77;79.4;13.10;69916;5137.520;-12820.258;209;-250;-241.6;71;70.6;-21;-21.7;29.2;0.0;
14/06/2019 06:58:52;100;0;138.51;17;-18.15;-6.85;81.6;13.00;69908;5137.520;-12820.258;209;-250;-241.6;71;70.6;-20;-19.9;29.2;0.0;
14/06/2019 06:59:12;100;0;137.26;17;-17.80;-5.51;83.7;12.90;69903;5137.520;-12820.258;209;-250;-241.6;71;70.6;-23;-23.0;29.2;0.0;
14/06/2019 06:59:32;100;0;142.68;17;-16.96;-7.60;85.8;12.90;69896;5137.520;-12820.258;209;-250;-241.6;71;70.6;-22;-22.1;29.2;0.0;
14/06/2019 06:59:52;100;0;148.09;17;-17.34;-6.62;87.8;12.80;69886;5137.520;-12820.258;209;-250;-239.6;71;70.6;-20;-19.9;29.2;0.0;
14/06/2019 07:00:12;100;0;153.12;17;-17.12;-5.62;89.7;12.80;69876;5137.520;-12820.258;209;-250;-239.6;71;70.6;-19;-19.0;29.2;0.0;
14/06/2019 07:00:32;100;0;146.55;17;-16.88;-5.15;91.4;12.70;69863;5137.520;-12820.258;209;-250;-239.6;71;70.6;-24;-23.9;29.2;0.0;
14/06/2019 07:00:52;100;0;145.54;17;-16.44;-8.10;93.2;12.60;69855;5137.520;-12820.258;209;-250;-241.6;71;70.6;-25;-25.3;29.2;0.0;
14/06/2019 07:01:12;100;0;149.40;17;-16.20;-8.80;95.1;12.60;69851;5137.520;-12820.258;209;-250;-239.6;71;70.6;-22;-22.1;29.2;0.0;
14/06/2019 07:01:32;100;0;149.52;17;-16.02;-6.55;96.9;12.50;69831;5137.520;-12820.258;209;-250;-239.6;71;70.6;-22;-21.2;29.2;0.0;
14/06/2019 07:01:52;100;0;150.82;17;-16.06;-6.50;98.7;12.50;69816;5137.520;-12820.258;209;-250;-239.6;71;70.6;-22;-21.2;29.2;0.0;
14/06/2019 07:02:12;100;0;151.79;17;-15.95;-6.57;100.3;12.40;69811;5137.520;-12820.258;209;-250;-239.6;71;70.6;-22;-21.2;29.2;0.0;
14/06/2019 07:02:32;100;0;153.15;17;-15.78;-6.62;102.0;12.40;69798;5137.520;-12820.258;209;-250;-239.6;71;70.6;-21;-21.2;29.2;0.0;
14/06/2019 07:02:52;100;0;153.55;17;-15.85;-6.57;103.6;12.30;69801;5137.520;-12820.258;209;-250;-239.6;71;70.6;-22;-22.1;29.2;0.0;
14/06/2019 07:03:12;100;0;152.58;17;-15.78;-7.13;105.2;12.20;69786;5137.520;-12820.258;209;-250;-239.6;71;70.6;-22;-22.6;29.1;0.0;
14/06/2019 07:03:32;100;0;152.42;17;-15.68;-7.11;106.7;12.20;69786;5137.520;-12820.258;209;-250;-239.6;71;70.6;-22;-22.6;29.2;0.0;
14/06/2019 07:03:52;100;0;155.03;17;-15.54;-7.20;108.1;12.10;69765;5137.520;-12820.258;209;-250;-239.6;71;70.6;-21;-21.2;29.2;0.0;
14/06/2019 07:04:12;100;0;156.14;17;-15.39;-6.29;109.7;12.10;69766;5137.520;-12820.258;209;-250;-239.6;71;70.6;-21;-20.3;29.1;0.0;
14/06/2019 07:04:32;100;0;156.95;17;-15.46;-6.30;111.1;12.00;69750;5137.520;-12820.258;209;-250;-239.6;71;70.6;-21;-20.8;29.2;0.0;
14/06/2019 07:04:52;100;0;159.46;17;-15.31;-6.30;112.5;12.00;69742;5137.520;-12820.258;209;-250;-239.6;71;70.6;-20;-19.4;29.2;0.0;
14/06/2019 07:05:12;100;0;159.85;17;-15.21;-5.36;114.1;11.90;69745;5137.520;-12820.258;209;-250;-239.6;71;70.6;-20;-18.5;29.2;43.6;
14/06/2019 07:05:32;100;0;164.43;17;-15.25;-5.54;115.5;11.90;69745;5137.520;-12820.258;209;-250;-241.6;71;70.6;-18;-17.6;29.2;41.9;
14/06/2019 07:05:52;100;0;165.55;17;-14.77;-4.45;117.1;11.80;69728;5137.520;-12820.258;209;-250;-239.6;71;70.6;-18;-16.7;29.2;40.3;
14/06/2019 07:06:13;100;0;163.37;17;-14.81;-4.42;118.5;11.80;69725;5137.520;-12820.258;209;-250;-239.6;71;70.6;-20;-19.9;29.2;38.8;
14/06/2019 07:06:33;100;0;162.43;17;-14.85;-6.13;120.1;11.70;69717;5137.520;-12820.258;209;-250;-239.6;71;70.6;-21;-21.2;29.2;9.2;
14/06/2019 07:06:53;118;0;161.22;17;-14.92;-6.68;121.6;11.70;69706;5137.520;-12820.258;209;200;-223.8;54;53.8;0;0.9;29.2;35.7;
14/06/2019 07:07:03;118;0;137.25;17;10.48;4.17;122.2;11.70;69621;5137.520;-12820.258;209;200;-65.3;54;54.2;0;0.9;28.8;35.7;
14/06/2019 07:07:13;118;0;138.15;17;28.70;3.71;121.8;11.60;69414;5137.520;-12820.258;209;200;87.1;54;54.2;0;0.9;28.7;-1.0;
14/06/2019 07:07:23;118;0;140.00;17;29.68;3.97;120.8;11.60;69169;5137.520;-12820.258;209;200;205.9;54;54.2;0;0.9;28.8;-1.0;
14/06/2019 07:07:33;118;0;175.82;17;30.45;3.93;119.3;11.60;68976;5137.520;-12820.258;209;200;205.9;54;54.2;0;0.9;29.2;-1.0;
14/06/2019 07:07:43;118;0;176.82;17;32.32;3.80;117.2;11.60;68984;5137.520;-12820.258;209;200;205.9;54;54.2;0;0.9;29.2;-1.0;
14/06/2019 07:07:53;117;0;172.29;17;33.35;4.22;114.8;11.50;68982;5137.520;-12820.258;209;200;205.9;54;54.2;0;0.9;29.1;-1.0;
14/06/2019 07:08:13;117;0;168.95;17;33.17;3.99;109.5;11.50;68987;5137.520;-12820.258;209;200;205.9;54;54.2;17;17.1;29.2;-1.0;
14/06/2019 07:08:33;117;0;176.89;17;32.78;12.32;103.1;11.50;68993;5137.520;-12820.258;209;200;205.9;54;54.1;14;14.0;29.2;-1.0;
14/06/2019 07:08:53;117;0;177.25;17;32.29;9.78;97.3;11.40;68991;5137.520;-12820.258;209;200;205.9;54;54.2;15;14.9;29.2;-1.0;
14/06/2019 07:09:13;117;0;177.67;17;31.01;11.16;92.0;11.40;69001;5137.520;-12820.258;209;200;205.9;54;54.1;16;15.8;29.2;-1.0;
14/06/2019 07:09:33;117;0;179.44;17;31.47;10.93;87.1;11.30;69000;5137.520;-12820.258;209;200;205.9;54;54.1;16;15.8;29.2;-1.0;
14/06/2019 07:09:53;117;0;175.02;17;30.01;10.74;82.0;11.30;69011;5137.520;-12820.258;209;200;207.9;54;54.2;19;19.0;29.2;-1.0;
14/06/2019 07:10:13;117;0;177.31;17;30.03;13.08;77.3;11.30;69019;5137.520;-12820.258;209;200;207.9;54;54.1;17;16.7;29.2;-1.0;
14/06/2019 07:10:33;117;0;187.81;17;28.49;11.19;72.7;11.20;69025;5137.520;-12820.258;209;200;207.9;54;54.2;11;10.8;29.2;-1.0;
14/06/2019 07:10:53;117;0;186.54;17;28.41;8.17;68.5;11.20;69031;5137.520;-12820.258;209;200;207.9;54;54.2;14;14.4;29.2;-1.0;
14/06/2019 07:11:13;117;0;189.88;17;27.65;10.47;64.3;11.20;69038;5137.520;-12820.258;209;200;205.9;54;54.2;13;13.1;29.1;-1.0;
14/06/2019 07:11:33;117;0;192.37;17;27.51;9.20;60.4;11.10;69051;5137.520;-12820.258;209;200;205.9;54;54.2;13;12.2;29.2;-1.0;
14/06/2019 07:11:53;117;0;192.95;17;27.65;9.28;56.6;11.10;69047;5137.520;-12820.258;209;200;207.9;54;54.2;13;12.2;29.1;-1.0;
14/06/2019 07:12:13;117;0;189.37;17;27.90;9.40;52.6;11.10;69063;5137.520;-12820.258;209;200;207.9;54;54.2;13;12.6;29.2;-1.0;
14/06/2019 07:12:33;117;0;191.46;17;27.59;9.50;48.6;11.10;69067;5137.520;-12820.258;209;200;205.9;54;54.2;13;12.2;29.2;-1.0;
14/06/2019 07:12:53;117;0;189.97;17;26.78;9.47;44.6;11.10;69086;5137.520;-12820.258;209;200;207.9;54;54.2;13;12.2;29.2;-1.0;
14/06/2019 07:13:13;117;0;189.84;17;26.71;9.43;41.0;11.10;69090;5137.520;-12820.258;209;200;207.9;54;54.2;13;12.6;29.2;-1.0;
14/06/2019 07:13:33;117;0;194.09;17;26.68;9.22;37.5;11.00;69094;5137.520;-12820.258;209;200;205.9;54;54.2;13;12.2;29.2;-1.0;
14/06/2019 07:13:53;117;0;192.81;17;26.77;9.39;33.8;11.10;69104;5137.520;-12820.258;209;200;207.9;54;54.2;13;12.6;29.2;-1.0;
14/06/2019 07:14:13;117;0;192.43;17;26.06;9.28;30.1;11.00;69111;5137.520;-12820.258;209;200;207.9;54;54.2;13;12.6;29.2;-1.0;
14/06/2019 07:14:33;117;0;196.07;17;24.99;9.44;27.0;11.00;69130;5137.520;-12820.258;209;200;207.9;54;54.1;12;12.2;29.2;-1.0;
14/06/2019 07:14:53;117;0;199.29;17;24.16;9.10;24.3;11.00;69187;5137.520;-12820.258;209;200;207.9;54;54.2;11;10.8;29.2;-1.0;
14/06/2019 07:15:13;117;0;200.96;17;23.75;8.19;21.7;11.10;69238;5137.520;-12820.258;209;200;205.9;54;54.2;11;9.9;29.2;-1.0;
14/06/2019 07:15:33;117;0;202.31;17;23.88;8.02;19.1;11.10;69276;5137.520;-12820.258;209;200;207.9;54;54.2;10;9.9;29.2;-1.0;
14/06/2019 07:15:53;117;0;203.93;17;24.42;7.72;16.5;11.10;69328;5137.520;-12820.258;209;200;207.9;54;54.2;10;9.5;29.2;-1.0;
14/06/2019 07:16:13;117;0;204.91;17;23.68;7.91;13.4;11.10;69365;5137.520;-12820.258;209;200;207.9;54;54.2;9;9.0;29.2;-1.0;
14/06/2019 07:16:33;117;0;220.50;17;23.36;7.62;10.8;11.20;69402;5137.520;-12820.258;209;200;207.9;54;54.2;0;0.0;29.2;-1.0;
