Timestamp;NavState;SecurityLevel;Heading;Declination;Pitch;Roll;Depth;Temperature;Pa;Lat;Lon;DesiredH;BallastCmd;BallastPos;LinCmd;LinPos;AngCmd;AngPos;Voltage;Altitude;
15/06/2019 20:35:13;117;0;259.38;17;15.19;7.04;9.0;9.90;69356;5123.400;-12837.754;281;150;158.4;57;56.9;0;0.0;28.8;-1.0;
15/06/2019 20:35:23;115;0;259.00;17;15.64;3.14;8.1;10.00;69361;5123.400;-12837.754;281;500;168.3;100;100.1;0;-0.5;28.9;-1.0;
15/06/2019 20:35:33;115;0;253.44;17;-25.18;3.88;7.4;10.00;69300;5123.400;-12837.754;281;500;318.8;100;100.0;0;-0.9;28.5;-1.0;
15/06/2019 20:35:44;115;0;264.83;17;-64.33;3.45;8.2;10.00;69108;5123.400;-12837.754;281;500;471.3;100;100.0;0;-0.5;28.5;-1.0;
15/06/2019 20:35:54;115;0;233.91;17;-58.16;3.18;7.1;10.10;68868;5123.400;-12837.754;281;500;505.0;100;100.0;0;-0.5;28.4;-1.0;
15/06/2019 20:36:04;115;0;245.83;17;-30.15;3.73;4.2;10.10;68846;5123.400;-12837.754;281;500;506.9;100;99.9;0;-0.5;28.8;-1.0;
15/06/2019 20:36:14;116;0;206.10;17;-60.39;4.16;1.5;10.20;68859;5123.400;-12837.754;281;500;506.9;100;100.0;0;-0.5;28.8;-1.0;
15/06/2019 20:36:34;116;0;155.10;17;-15.31;3.01;1.4;10.20;68900;5123.400;-12837.754;281;500;506.9;100;99.9;0;-0.5;28.8;-1.0;
15/06/2019 20:36:53;116;0;149.13;17;-8.56;2.63;1.2;10.30;68937;5123.015;-12838.483;281;500;508.9;100;99.9;0;-0.5;28.8;-1.0;
15/06/2019 20:37:13;116;0;153.49;17;-10.46;2.71;1.3;10.50;68959;5123.015;-12838.485;294;500;508.9;100;99.9;0;-0.5;28.7;-1.0;
15/06/2019 20:37:33;116;0;145.32;17;-19.27;2.75;1.3;10.60;68981;5123.014;-12838.487;294;500;506.9;100;99.9;0;-0.9;28.9;-1.0;
15/06/2019 20:38:36;116;0;138.14;17;-9.87;0.66;1.4;11.10;69034;5123.013;-12838.486;294;500;508.9;100;99.9;0;-0.5;28.8;-1.0;
15/06/2019 20:38:56;116;0;143.76;17;-19.78;5.15;1.4;11.30;69062;5123.013;-12838.486;294;500;506.9;100;99.9;0;-0.9;28.8;-1.0;
15/06/2019 20:39:16;116;0;148.99;17;-19.44;1.64;1.3;11.50;69074;5123.011;-12838.485;294;500;508.9;100;99.9;0;-0.5;28.8;-1.0;
15/06/2019 20:39:37;116;0;137.86;17;-17.58;4.85;1.4;11.70;69095;5123.011;-12838.486;294;500;508.9;100;99.9;0;-0.5;28.8;-1.0;
15/06/2019 20:39:57;116;0;144.00;17;-20.39;2.49;1.3;11.80;69101;5123.006;-12838.500;294;500;508.9;100;99.9;0;-0.9;28.8;-1.0;
15/06/2019 20:40:17;116;0;148.66;17;-16.18;2.77;1.4;12.00;69105;5122.993;-12838.492;294;500;508.9;100;99.9;0;-0.5;28.8;-1.0;
15/06/2019 20:41:22;116;0;142.56;17;-17.86;2.68;1.3;12.70;69142;5122.985;-12838.505;294;500;508.9;100;99.9;0;-0.5;28.8;-1.0;
15/06/2019 20:41:42;116;0;150.25;17;-11.95;4.31;1.3;12.90;69149;5122.992;-12838.487;294;500;506.9;100;99.9;0;-0.5;28.7;-1.0;
15/06/2019 20:42:02;116;0;153.43;17;-10.67;6.68;1.4;13.00;69157;5122.986;-12838.488;294;500;508.9;100;99.9;0;-0.9;28.8;-1.0;
15/06/2019 20:42:26;116;0;143.06;17;-25.34;4.56;1.5;13.20;69175;5122.980;-12838.492;294;500;508.9;100;99.9;0;-0.5;28.8;-1.0;
15/06/2019 20:42:46;116;0;153.47;17;-14.12;5.20;1.4;13.30;69177;5122.947;-12838.497;294;500;506.9;100;99.9;0;-0.9;28.8;-1.0;
15/06/2019 20:43:06;116;0;141.85;17;-10.21;2.82;1.3;13.50;69177;5122.976;-12838.487;294;500;508.9;100;99.9;0;-0.5;28.9;-1.0;
15/06/2019 20:44:09;116;0;149.64;17;-16.58;1.90;1.3;14.00;69212;5122.975;-12838.488;294;500;508.9;100;99.9;0;-0.5;28.9;-1.0;
15/06/2019 20:44:29;116;0;152.88;17;-10.90;-1.09;1.3;14.20;69212;5122.975;-12838.488;294;500;506.9;100;99.9;0;-0.5;28.9;-1.0;
15/06/2019 20:44:49;116;0;156.07;17;-20.39;2.59;1.4;14.30;69223;5122.975;-12838.488;294;500;508.9;100;99.9;0;-0.9;28.8;-1.0;
15/06/2019 20:45:09;116;0;153.67;17;-14.56;1.93;1.3;14.30;69229;5122.968;-12838.471;294;500;508.9;100;100.0;0;-0.5;28.9;-1.0;
15/06/2019 20:45:29;116;0;148.98;17;-11.18;2.75;1.3;14.40;69227;5122.955;-12838.439;294;500;506.9;100;99.9;0;-0.5;28.8;-1.0;
15/06/2019 20:45:49;116;0;150.73;17;-7.22;5.98;1.3;14.50;69242;5122.996;-12838.478;294;500;506.9;100;99.9;0;-0.9;28.8;-1.0;
15/06/2019 20:46:09;116;0;136.33;17;-19.89;7.70;1.4;14.50;69244;5122.996;-12838.478;294;500;508.9;100;99.9;0;-0.5;28.8;-1.0;
15/06/2019 20:46:29;116;0;132.35;17;-17.94;1.92;1.4;14.60;69252;5122.996;-12838.478;294;500;508.9;100;99.9;0;-0.5;28.8;-1.0;
15/06/2019 20:46:49;116;0;140.05;17;-10.59;0.52;1.3;14.70;69262;5122.995;-12838.476;294;500;508.9;100;99.9;0;-0.5;28.8;-1.0;
15/06/2019 20:47:09;116;0;136.60;17;-20.60;4.86;1.3;14.80;69264;5122.995;-12838.476;294;500;506.9;100;99.9;0;-0.5;28.8;-1.0;
15/06/2019 20:47:29;110;0;144.68;17;-17.96;3.61;1.4;14.80;69268;5122.995;-12838.476;294;-300;405.9;100;99.9;0;-0.5;28.8;-1.0;
15/06/2019 20:47:39;110;0;132.41;17;-14.04;0.85;1.4;14.80;69513;5122.995;-12838.476;294;-300;259.4;100;99.9;0;-0.9;28.8;-1.0;
15/06/2019 20:47:49;110;0;129.36;17;-20.41;3.63;1.5;14.80;69705;5122.995;-12838.476;294;-300;103.0;100;100.0;0;-0.5;28.7;-1.0;
15/06/2019 20:47:59;110;0;142.56;17;-48.42;2.01;2.1;14.90;69965;5122.995;-12838.476;294;-300;-75.2;100;100.0;0;-0.9;28.7;-1.0;
15/06/2019 20:48:09;110;0;163.60;17;-62.32;7.94;2.9;14.90;70243;5122.995;-12838.476;294;-300;-271.3;93;93.0;0;-0.9;28.7;-1.0;
15/06/2019 20:48:19;110;0;163.95;17;-55.42;5.13;4.1;14.90;70575;5122.995;-12838.476;294;-300;-305.0;75;75.0;0;-0.5;28.8;-1.0;
15/06/2019 20:48:29;110;0;186.52;17;-42.02;3.44;6.5;14.90;70586;5122.995;-12838.476;294;-300;-305.0;73;73.0;0;-0.9;28.8;-1.0;
15/06/2019 20:48:39;100;0;177.59;17;-31.66;3.52;9.1;14.90;70550;5122.995;-12838.476;294;-300;-301.0;73;72.9;0;-0.5;28.9;-1.0;
15/06/2019 20:48:59;100;0;179.72;17;-27.68;3.42;13.7;14.80;70526;5122.995;-12838.476;294;-300;-299.0;73;72.9;-45;-45.1;28.8;0.0;
15/06/2019 20:49:19;100;0;180.94;17;-27.01;-17.19;18.5;14.80;70455;5122.995;-12838.476;294;-300;-299.0;73;72.9;-43;-42.4;28.9;0.0;
15/06/2019 20:49:39;100;0;178.94;17;-27.47;-15.36;22.5;14.80;70388;5122.995;-12838.476;294;-300;-299.0;73;72.9;-40;-39.7;28.8;0.0;
15/06/2019 20:49:59;100;0;176.31;17;-26.45;-14.55;26.6;14.70;70323;5122.995;-12838.476;294;-300;-297.0;73;72.9;-40;-39.3;28.9;0.0;
15/06/2019 20:50:19;100;0;180.82;17;-26.16;-14.62;30.4;14.60;70266;5122.995;-12838.476;294;-300;-297.0;73;72.9;-35;-35.2;28.8;0.0;
15/06/2019 20:50:39;100;0;184.47;17;-25.89;-12.28;34.4;14.50;70222;5122.995;-12838.476;294;-300;-297.0;73;72.9;-32;-32.0;28.9;0.0;
15/06/2019 20:50:59;100;0;184.58;17;-25.92;-10.82;38.5;14.40;70198;5122.995;-12838.476;294;-300;-297.0;73;72.9;-32;-31.6;28.9;0.0;
15/06/2019 20:51:19;100;0;188.94;17;-24.96;-10.86;42.5;14.30;70166;5122.995;-12838.476;294;-300;-299.0;73;72.9;-30;-29.3;28.9;0.0;
15/06/2019 20:51:39;100;0;188.65;17;-25.49;-9.60;46.4;14.20;70147;5122.995;-12838.476;294;-300;-295.0;73;72.9;-31;-31.1;28.9;0.0;
15/06/2019 20:51:59;100;0;190.20;17;-25.57;-10.95;50.2;14.20;70127;5122.995;-12838.476;294;-300;-295.0;73;72.9;-31;-31.6;28.9;0.0;
15/06/2019 20:52:19;100;0;190.02;17;-25.56;-11.04;54.1;14.10;70111;5122.995;-12838.476;294;-300;-297.0;73;72.9;-31;-31.6;28.8;0.0;
15/06/2019 20:52:39;100;0;189.80;17;-25.62;-11.15;58.0;14.00;70093;5122.995;-12838.476;294;-300;-297.0;73;72.9;-32;-32.0;28.8;0.0;
15/06/2019 20:52:59;100;0;192.50;17;-24.95;-11.28;62.0;13.90;70074;5122.995;-12838.476;294;-300;-297.0;73;72.9;-30;-29.8;28.9;0.0;
15/06/2019 20:53:19;100;0;195.37;17;-25.05;-9.83;65.8;13.80;70057;5122.995;-12838.476;294;-300;-299.0;73;72.9;-29;-28.9;28.9;0.0;
15/06/2019 20:53:39;100;0;194.31;17;-25.18;-9.88;69.4;13.80;70047;5122.995;-12838.476;294;-300;-295.0;73;72.9;-30;-29.8;28.8;0.0;
15/06/2019 20:53:59;100;0;196.76;17;-25.39;-10.40;73.1;13.70;70046;5122.995;-12838.476;294;-300;-295.0;73;72.9;-30;-30.2;28.8;0.0;
15/06/2019 20:54:19;100;0;191.40;17;-25.31;-10.42;76.8;13.60;70017;5122.995;-12838.476;294;-300;-297.0;73;72.9;-33;-32.9;28.9;0.0;
15/06/2019 20:54:39;100;0;187.32;17;-24.93;-11.70;80.5;13.50;70006;5122.995;-12838.476;294;-300;-297.0;73;72.9;-34;-33.8;28.8;0.0;
15/06/2019 20:54:59;100;0;185.63;17;-24.79;-12.48;83.9;13.50;69982;5122.995;-12838.476;294;-300;-297.0;73;72.9;-35;-35.2;28.8;0.0;
15/06/2019 20:55:19;100;0;179.33;17;-25.68;-13.06;87.3;13.40;69964;5122.995;-12838.476;294;-300;-299.0;73;72.7;-37;-37.0;28.8;0.0;
15/06/2019 20:55:39;100;0;185.13;17;-23.53;-14.23;90.7;13.30;69955;5122.995;-12838.476;294;-300;-297.0;73;72.9;-32;-32.0;28.9;0.0;
15/06/2019 20:55:59;100;0;201.76;17;-23.21;-11.27;93.7;13.30;69935;5122.995;-12838.476;294;-300;-295.0;73;72.9;-23;-23.0;28.8;0.0;
15/06/2019 20:56:19;100;0;214.81;17;-23.26;-7.02;96.5;13.20;69918;5122.995;-12838.476;294;-300;-295.0;73;72.9;-19;-19.0;28.8;0.0;
15/06/2019 20:56:39;100;0;227.37;17;-23.01;-4.90;99.3;13.10;69899;5122.995;-12838.476;294;-300;-297.0;73;72.7;-15;-14.9;28.9;0.0;
15/06/2019 20:56:59;100;0;225.94;17;-22.52;-3.14;102.0;13.00;69892;5122.995;-12838.476;294;-300;-297.0;73;72.9;-21;-21.2;28.9;0.0;
15/06/2019 20:57:19;100;0;230.40;17;-22.12;-6.71;104.7;13.00;69874;5122.995;-12838.476;294;-300;-297.0;73;72.9;-20;-19.9;28.9;0.0;
15/06/2019 20:57:39;100;0;238.96;17;-22.09;-5.65;107.3;12.90;69870;5122.995;-12838.476;294;-300;-297.0;73;72.9;-17;-17.1;28.8;0.0;
15/06/2019 20:57:59;100;0;240.17;17;-22.73;-4.08;109.9;12.80;69855;5122.995;-12838.476;294;-300;-295.0;73;72.9;-19;-19.0;28.8;0.0;
15/06/2019 20:58:19;100;0;236.53;17;-21.90;-5.38;112.7;12.70;69844;5122.995;-12838.476;294;-300;-295.0;73;72.9;-22;-22.1;28.9;0.0;
15/06/2019 20:58:39;100;0;232.12;17;-22.18;-6.76;115.5;12.70;69832;5122.995;-12838.476;294;-300;-295.0;73;72.9;-25;-24.8;28.8;0.0;
15/06/2019 20:58:59;100;0;240.46;17;-20.95;-8.53;118.5;12.60;69818;5122.995;-12838.476;294;-300;-295.0;73;72.9;-19;-19.0;28.9;0.0;
15/06/2019 20:59:19;100;0;241.43;17;-20.02;-4.86;121.5;12.50;69800;5122.995;-12838.476;294;-300;-295.0;73;72.9;-20;-19.9;28.9;0.0;
15/06/2019 20:59:39;100;0;235.07;17;-20.89;-5.97;124.1;12.50;69779;5122.995;-12838.476;294;-300;-293.1;73;72.9;-24;-23.9;28.9;0.0;
15/06/2019 20:59:59;100;0;232.14;17;-20.51;-7.84;126.8;12.40;69775;5122.995;-12838.476;294;-300;-295.0;73;72.9;-25;-24.8;28.8;0.0;
15/06/2019 21:00:19;100;0;235.58;17;-19.87;-8.42;129.6;12.30;69765;5122.995;-12838.476;294;-300;-295.0;73;72.9;-23;-23.0;28.9;0.0;
15/06/2019 21:00:39;100;0;235.57;17;-20.10;-6.95;132.1;12.30;69758;5122.995;-12838.476;294;-300;-295.0;73;72.9;-23;-22.1;28.9;0.0;
15/06/2019 21:00:59;100;0;234.76;17;-20.24;-6.98;134.6;12.20;69748;5122.995;-12838.476;294;-300;-295.0;73;72.7;-23;-22.1;28.9;0.0;
15/06/2019 21:01:19;100;0;236.38;17;-19.75;-6.93;137.1;12.20;69735;5122.995;-12838.476;294;-300;-297.0;73;72.9;-22;-22.1;28.8;0.0;
15/06/2019 21:01:39;100;0;238.42;17;-20.11;-7.00;139.4;12.10;69726;5122.995;-12838.476;294;-300;-295.0;73;72.9;-21;-21.2;28.9;0.0;
15/06/2019 21:01:59;100;0;239.39;17;-20.22;-6.05;141.9;12.00;69708;5122.995;-12838.476;294;-300;-295.0;73;72.9;-21;-20.8;28.9;0.0;
15/06/2019 21:02:19;100;0;237.30;17;-19.92;-6.10;144.3;12.00;69717;5122.995;-12838.476;294;-300;-295.0;73;72.9;-23;-23.0;28.9;0.0;
15/06/2019 21:02:39;100;0;235.22;17;-19.75;-7.47;146.6;11.90;69707;5122.995;-12838.476;294;-300;-295.0;73;72.9;-24;-23.9;28.8;0.0;
15/06/2019 21:02:59;100;0;237.19;17;-19.77;-7.99;148.9;11.90;69692;5122.995;-12838.476;294;-300;-295.0;73;73.0;-22;-22.1;28.8;0.0;
15/06/2019 21:03:19;100;0;238.62;17;-19.86;-6.55;151.1;11.80;69692;5122.995;-12838.476;294;-300;-295.0;73;72.9;-22;-21.2;28.8;0.0;
15/06/2019 21:03:39;100;0;238.79;17;-19.84;-6.55;153.3;11.70;69684;5122.995;-12838.476;294;-300;-297.0;73;72.9;-22;-21.2;28.8;0.0;
15/06/2019 21:03:59;100;0;237.47;17;-19.56;-6.54;155.4;11.70;69673;5122.995;-12838.476;294;-300;-293.1;73;72.9;-23;-23.5;28.8;0.0;
15/06/2019 21:04:19;100;0;238.51;17;-19.92;-7.66;157.5;11.60;69675;5122.995;-12838.476;294;-300;-295.0;73;72.9;-22;-22.1;28.8;0.0;
15/06/2019 21:04:39;100;0;237.98;17;-19.66;-6.52;159.5;11.60;69660;5122.995;-12838.476;294;-300;-295.0;73;72.9;-23;-23.0;28.9;0.0;
15/06/2019 21:04:59;100;0;235.79;17;-19.49;-7.57;161.7;11.50;69640;5122.995;-12838.476;294;-300;-295.0;73;72.7;-24;-23.9;28.8;0.0;
15/06/2019 21:05:20;100;0;234.80;17;-19.40;-8.06;163.9;11.40;69630;5122.995;-12838.476;294;-300;-297.0;73;72.7;-24;-24.4;28.8;0.0;
15/06/2019 21:05:40;100;0;235.48;17;-19.12;-8.07;166.1;11.40;69629;5122.995;-12838.476;294;-300;-295.0;73;72.7;-23;-23.0;28.8;0.0;
15/06/2019 21:06:00;100;0;233.75;17;-19.11;-6.91;168.4;11.30;69618;5122.995;-12838.476;294;-300;-295.0;73;72.7;-24;-23.9;28.8;0.0;
15/06/2019 21:06:20;100;0;235.06;17;-18.82;-8.01;170.6;11.30;69603;5122.995;-12838.476;294;-300;-295.0;73;72.9;-22;-22.1;28.8;0.0;
15/06/2019 21:06:40;100;0;240.43;17;-18.76;-6.54;172.5;11.20;69606;5122.995;-12838.476;294;-300;-295.0;73;72.9;-20;-19.9;28.9;43.1;
15/06/2019 21:07:00;100;0;243.53;17;-19.54;-5.44;174.5;11.20;69591;5122.995;-12838.476;294;-300;-295.0;73;72.9;-19;-19.0;28.9;41.0;
15/06/2019 21:07:20;100;0;247.95;17;-18.91;-5.55;176.4;11.10;69582;5122.995;-12838.476;294;-300;-295.0;73;72.9;-18;-17.6;28.9;39.2;
15/06/2019 21:07:40;100;0;251.05;17;-18.83;-4.48;178.3;11.10;69585;5122.995;-12838.476;294;-300;-295.0;73;72.7;-17;-17.1;28.8;37.1;
15/06/2019 21:08:00;100;0;257.99;17;-18.55;-4.71;180.2;11.00;69567;5122.995;-12838.476;294;-300;-295.0;73;72.9;-15;-14.9;28.8;35.2;
15/06/2019 21:08:20;100;0;257.07;17;-18.63;-2.96;182.1;10.90;69564;5122.995;-12838.476;294;-300;-295.0;73;72.9;-16;-15.8;28.8;33.2;
15/06/2019 21:08:40;100;0;262.10;17;-18.26;-4.58;183.9;10.90;69552;5122.995;-12838.476;294;-300;-295.0;73;72.9;-15;-14.9;28.8;31.4;
15/06/2019 21:09:00;100;0;264.63;17;-19.52;-3.63;185.9;10.80;69536;5122.995;-12838.476;294;-300;-295.0;73;72.7;-15;-14.4;28.8;29.4;
15/06/2019 21:09:20;100;0;264.18;17;-18.04;-4.07;187.9;10.80;69538;5122.995;-12838.476;294;-300;-293.1;73;72.9;-16;-15.8;28.8;27.4;
15/06/2019 21:09:40;100;0;273.05;17;-18.14;-3.99;189.7;10.80;69524;5122.995;-12838.476;294;-300;-295.0;73;72.9;-11;-10.8;28.8;25.4;
15/06/2019 21:10:00;100;0;273.48;17;-18.92;-1.30;191.5;10.70;69524;5122.995;-12838.476;294;-300;-295.0;73;72.7;-13;-13.5;28.8;23.6;
15/06/2019 21:10:20;100;0;268.04;17;-15.79;-1.86;193.3;10.70;69522;5122.995;-12838.476;294;-300;-293.1;73;72.9;-17;-17.1;28.8;21.7;
15/06/2019 21:10:40;100;0;276.01;17;-18.58;-4.93;195.3;10.60;69516;5122.995;-12838.476;294;-300;-293.1;73;72.9;-17;-17.6;28.8;19.7;
15/06/2019 21:11:00;118;0;276.16;17;-18.10;-4.69;197.1;10.50;69499;5122.995;-12838.476;294;150;-281.2;57;56.8;0;0.9;28.9;17.8;
15/06/2019 21:11:10;118;0;214.49;17;2.47;3.88;197.9;10.50;69420;5122.995;-12838.476;294;150;-122.8;57;57.1;0;0.5;28.3;17.8;
15/06/2019 21:11:20;118;0;224.88;17;20.66;3.73;197.6;10.50;69213;5122.995;-12838.476;294;150;33.7;57;57.1;0;0.5;28.3;-1.0;
15/06/2019 21:11:30;118;0;216.81;17;23.29;4.10;196.8;10.50;68961;5122.995;-12838.476;294;150;156.4;57;57.1;0;0.9;28.2;-1.0;
15/06/2019 21:11:40;118;0;245.99;17;25.53;3.51;195.4;10.50;68774;5122.995;-12838.476;294;150;156.4;57;56.9;0;0.5;28.8;-1.0;
15/06/2019 21:11:50;118;0;243.43;17;27.65;3.19;193.8;10.50;68787;5122.995;-12838.476;294;150;158.4;57;57.1;0;0.9;28.8;-1.0;
15/06/2019 21:12:00;117;0;244.44;17;28.30;4.07;191.8;10.50;68784;5122.995;-12838.476;294;150;156.4;57;56.9;0;0.9;28.8;-1.0;
15/06/2019 21:12:20;117;0;239.54;17;29.27;4.48;187.5;10.40;68777;5122.995;-12838.476;294;150;158.4;57;56.9;34;33.8;28.8;-1.0;
15/06/2019 21:12:40;117;0;247.49;17;28.45;20.75;182.6;10.40;68764;5122.995;-12838.476;294;150;158.4;57;57.1;24;23.9;28.9;-1.0;
15/06/2019 21:13:00;117;0;246.30;17;29.64;14.51;177.7;10.30;68775;5122.995;-12838.476;294;150;156.4;57;57.1;23;23.0;28.8;-1.0;
15/06/2019 21:13:20;117;0;248.14;17;29.28;14.27;172.5;10.30;68770;5122.995;-12838.476;294;150;158.4;57;57.1;20;19.9;28.9;-1.0;
15/06/2019 21:13:40;117;0;249.59;17;27.86;12.31;167.3;10.20;68775;5122.995;-12838.476;294;150;158.4;57;57.1;20;19.0;28.8;-1.0;
15/06/2019 21:14:00;117;0;254.13;17;27.14;11.95;162.8;10.20;68784;5122.995;-12838.476;294;150;158.4;57;56.9;17;16.7;28.8;-1.0;
15/06/2019 21:14:20;117;0;258.02;17;26.87;10.81;158.6;10.20;68788;5122.995;-12838.476;294;150;156.4;57;57.1;16;15.8;28.9;-1.0;
15/06/2019 21:14:40;117;0;263.96;17;27.37;10.14;154.2;10.10;68795;5122.995;-12838.476;294;150;156.4;57;57.1;14;14.0;28.8;-1.0;
15/06/2019 21:15:00;117;0;271.11;17;26.88;9.34;150.0;10.10;68786;5122.995;-12838.476;294;150;158.4;57;57.1;11;10.8;28.8;-1.0;
15/06/2019 21:15:20;117;0;274.95;17;27.10;7.88;145.6;10.10;68803;5122.995;-12838.476;294;150;158.4;57;57.1;11;10.4;28.8;-1.0;
15/06/2019 21:15:40;117;0;280.74;17;27.03;7.94;141.3;10.00;68796;5122.995;-12838.476;294;150;158.4;57;57.1;11;10.4;28.8;-1.0;
15/06/2019 21:16:00;117;0;285.93;17;26.72;7.76;137.0;10.00;68812;5122.995;-12838.476;294;150;160.4;57;57.1;9;9.0;28.8;-1.0;
15/06/2019 21:16:20;117;0;283.77;17;26.42;6.89;132.8;10.00;68810;5122.995;-12838.476;294;150;156.4;57;57.1;12;12.6;28.8;-1.0;
15/06/2019 21:16:40;117;0;288.46;17;26.57;9.25;128.7;10.00;68818;5122.995;-12838.476;294;150;158.4;57;57.1;9;9.0;28.8;-1.0;
15/06/2019 21:17:00;117;0;283.75;17;26.09;7.07;124.7;10.00;68819;5122.995;-12838.476;294;150;158.4;57;57.1;13;13.1;28.8;-1.0;
15/06/2019 21:17:20;117;0;287.99;17;25.59;9.37;120.9;9.90;68811;5122.995;-12838.476;294;150;158.4;57;56.9;10;9.5;28.8;-1.0;
15/06/2019 21:17:40;117;0;279.15;17;26.52;7.16;117.3;9.90;68830;5122.995;-12838.476;294;150;158.4;57;56.9;15;14.9;28.8;-1.0;
15/06/2019 21:18:00;117;0;280.11;17;24.21;10.23;113.7;9.90;68837;5122.995;-12838.476;294;150;158.4;57;57.1;13;13.1;28.8;-1.0;
15/06/2019 21:18:20;117;0;285.18;17;24.38;8.94;110.6;9.90;68852;5122.995;-12838.476;294;150;158.4;57;57.1;9;9.0;28.8;-1.0;
15/06/2019 21:18:40;117;0;289.56;17;24.05;7.15;107.2;9.90;68858;5122.995;-12838.476;294;150;158.4;57;57.1;7;7.2;28.8;-1.0;
15/06/2019 21:19:00;117;0;292.84;17;23.62;6.00;103.6;9.90;68875;5122.995;-12838.476;294;150;158.4;57;57.1;6;5.9;28.8;-1.0;
15/06/2019 21:19:20;117;0;301.66;17;23.60;5.56;100.3;9.90;68888;5122.995;-12838.476;294;150;158.4;57;57.1;1;0.9;28.8;-1.0;
15/06/2019 21:19:40;117;0;307.23;17;23.17;2.92;96.8;9.90;68897;5122.995;-12838.476;294;150;158.4;57;57.1;0;0.0;28.9;-1.0;
15/06/2019 21:20:00;117;0;316.27;17;23.26;2.50;93.4;9.90;68900;5122.995;-12838.476;294;150;158.4;57;57.1;-3;-3.2;28.9;-1.0;
15/06/2019 21:20:20;117;0;316.82;17;21.45;1.23;90.3;9.90;68911;5122.995;-12838.476;294;150;158.4;57;57.1;-1;-0.5;28.8;-1.0;
15/06/2019 21:20:40;117;0;308.64;17;20.63;2.97;87.7;9.90;68917;5122.995;-12838.476;294;150;158.4;57;57.1;4;4.1;28.8;-1.0;
15/06/2019 21:21:00;117;0;310.54;17;20.21;5.20;85.5;9.90;68923;5122.995;-12838.476;294;150;158.4;57;57.1;1;0.9;28.8;-1.0;
15/06/2019 21:21:20;117;0;306.15;17;20.76;2.84;83.3;9.90;68937;5122.995;-12838.476;294;150;156.4;57;56.9;3;3.2;28.8;-1.0;
15/06/2019 21:21:40;117;0;311.00;17;19.08;4.68;81.0;9.90;68950;5122.995;-12838.476;294;150;158.4;57;57.1;-1;-0.9;28.9;-1.0;
15/06/2019 21:22:00;117;0;311.15;17;19.78;2.12;78.8;9.90;68964;5122.995;-12838.476;294;150;158.4;57;57.1;-1;-1.4;28.8;-1.0;
15/06/2019 21:22:20;117;0;305.40;17;20.08;2.18;76.7;9.90;68961;5122.995;-12838.476;294;150;158.4;57;57.1;2;1.8;28.8;-1.0;
15/06/2019 21:22:40;117;0;308.38;17;19.74;3.74;74.4;9.90;68975;5122.995;-12838.476;294;150;158.4;57;57.1;-1;-0.9;28.9;-1.0;
15/06/2019 21:23:00;117;0;307.47;17;20.17;2.34;72.2;9.90;68982;5122.995;-12838.476;294;150;158.4;57;57.1;-1;-1.4;28.8;-1.0;
15/06/2019 21:23:20;117;0;305.48;17;20.05;2.22;69.9;9.90;68991;5122.995;-12838.476;294;150;160.4;57;57.1;0;0.0;28.9;-1.0;
15/06/2019 21:23:40;117;0;301.58;17;19.82;3.09;67.6;9.90;68998;5122.995;-12838.476;294;150;158.4;57;57.1;0;0.5;28.9;-1.0;
15/06/2019 21:24:00;117;0;305.01;17;19.41;3.07;65.3;9.90;69005;5122.995;-12838.476;294;150;158.4;57;57.1;-3;-3.2;28.9;-1.0;
15/06/2019 21:24:20;117;0;307.72;17;19.57;1.21;63.2;9.90;69019;5122.995;-12838.476;294;150;156.4;57;57.1;-4;-4.1;28.8;-1.0;
15/06/2019 21:24:40;117;0;305.89;17;19.56;0.79;60.9;9.90;69025;5122.995;-12838.476;294;150;158.4;57;57.1;-3;-3.2;28.9;-1.0;
15/06/2019 21:25:00;117;0;306.69;17;19.43;1.68;58.8;10.00;69032;5122.995;-12838.476;294;150;160.4;57;57.1;-5;-5.0;28.8;-1.0;
15/06/2019 21:25:20;117;0;303.73;17;19.58;0.48;56.6;9.90;69033;5122.995;-12838.476;294;150;158.4;57;57.1;-3;-3.2;28.8;-1.0;
15/06/2019 21:25:40;117;0;298.11;17;19.33;1.99;54.4;10.00;69054;5122.995;-12838.476;294;150;156.4;57;57.1;-2;-1.8;28.8;-1.0;
15/06/2019 21:26:00;117;0;294.99;17;19.35;2.58;52.2;10.00;69061;5122.995;-12838.476;294;150;158.4;57;57.1;-1;-0.9;28.9;-1.0;
15/06/2019 21:26:20;117;0;290.80;17;19.26;2.61;50.0;10.00;69063;5122.995;-12838.476;294;150;158.4;57;57.1;-1;-0.9;28.8;-1.0;
15/06/2019 21:26:40;117;0;292.38;17;19.08;2.64;48.0;10.00;69060;5122.995;-12838.476;294;150;158.4;57;57.1;-4;-4.1;28.8;-1.0;
15/06/2019 21:27:00;117;0;288.57;17;19.12;0.79;45.9;10.00;69063;5122.995;-12838.476;294;150;158.4;57;57.1;-2;-1.8;28.9;-1.0;
15/06/2019 21:27:20;117;0;288.17;17;19.03;2.51;43.8;10.00;69083;5122.995;-12838.476;294;150;158.4;57;57.1;-4;-4.1;28.9;-1.0;
15/06/2019 21:27:40;117;0;279.57;17;18.98;0.95;41.6;10.00;69083;5122.995;-12838.476;294;150;158.4;57;56.9;0;0.5;28.8;-1.0;
15/06/2019 21:28:00;117;0;272.23;17;18.97;3.57;39.6;10.00;69092;5122.995;-12838.476;294;150;158.4;57;57.1;0;0.9;28.8;-1.0;
15/06/2019 21:28:20;117;0;267.05;17;18.77;3.42;37.6;10.10;69093;5122.995;-12838.476;294;150;158.4;57;57.1;3;3.2;28.8;-1.0;
15/06/2019 21:28:40;117;0;265.58;17;18.35;5.08;35.6;10.10;69097;5122.995;-12838.476;294;150;158.4;57;57.1;2;1.4;28.8;-1.0;
15/06/2019 21:29:00;117;0;271.88;17;18.45;3.65;33.6;10.10;69120;5122.995;-12838.476;294;150;158.4;57;57.1;-1;-0.9;28.8;-1.0;
15/06/2019 21:29:20;117;0;278.06;17;18.52;2.55;31.7;10.10;69114;5122.995;-12838.476;294;150;158.4;57;57.1;-1;-1.4;28.8;-1.0;
15/06/2019 21:29:40;117;0;274.20;17;17.94;2.44;29.7;10.10;69140;5122.995;-12838.476;294;150;158.4;57;57.1;-1;-1.4;28.8;-1.0;
15/06/2019 21:30:00;117;0;269.81;17;18.03;2.51;27.8;10.10;69158;5122.995;-12838.476;294;150;160.4;57;57.1;1;0.9;28.9;-1.0;
15/06/2019 21:30:20;117;0;269.45;17;17.45;3.98;26.0;10.20;69172;5122.995;-12838.476;294;150;158.4;57;57.1;0;-0.5;28.9;-1.0;
15/06/2019 21:30:40;117;0;269.81;17;17.39;2.78;24.2;10.20;69186;5122.995;-12838.476;294;150;158.4;57;57.1;0;-0.9;28.8;-1.0;
15/06/2019 21:31:00;117;0;272.73;17;17.53;2.81;22.5;10.20;69193;5122.995;-12838.476;294;150;158.4;57;57.1;0;-0.9;28.8;-1.0;
15/06/2019 21:31:20;117;0;274.73;17;17.48;2.60;21.0;10.20;69219;5122.995;-12838.476;294;150;158.4;57;57.1;-1;-0.9;28.9;-1.0;
15/06/2019 21:31:40;117;0;266.70;17;16.73;2.73;19.2;10.30;69255;5122.995;-12838.476;294;150;158.4;57;57.1;4;4.1;28.8;-1.0;
15/06/2019 21:32:00;117;0;270.64;17;15.84;5.58;17.5;10.30;69309;5122.995;-12838.476;294;150;158.4;57;57.1;0;0.0;28.8;-1.0;
15/06/2019 21:32:20;117;0;270.49;17;16.11;2.86;15.8;10.40;69339;5122.995;-12838.476;294;150;158.4;57;57.1;1;0.9;28.9;-1.0;
15/06/2019 21:32:40;117;0;267.05;17;16.40;4.03;14.1;10.40;69349;5122.995;-12838.476;294;150;158.4;57;57.1;3;3.2;28.8;-1.0;
15/06/2019 21:33:00;117;0;259.98;17;16.26;5.29;12.3;10.40;69376;5122.995;-12838.476;294;150;156.4;57;57.1;7;7.2;28.8;-1.0;
15/06/2019 21:33:20;117;0;265.75;17;15.60;7.64;10.6;10.50;69422;5122.995;-12838.476;294;150;158.4;57;57.1;3;2.7;28.8;-1.0;
