Timestamp;NavState;SecurityLevel;Heading;Declination;Pitch;Roll;Depth;Temperature;Pa;Lat;Lon;DesiredH;BallastCmd;BallastPos;LinCmd;LinPos;AngCmd;AngPos;Voltage;Altitude;
16/06/2019 01:09:55;117;0;320.45;17;15.67;3.82;9.1;11.00;69565;5122.438;-12841.101;339;150;158.4;57;57.1;-1;-0.9;28.8;-1.0;
16/06/2019 01:10:05;110;0;321.87;17;15.69;2.73;8.2;11.10;69579;5122.438;-12841.101;339;-300;-55.4;73;73.3;0;1.4;28.8;-1.0;
16/06/2019 01:10:15;110;0;335.67;17;-8.78;4.31;7.7;11.10;70067;5122.438;-12841.101;339;-300;-303.0;73;72.9;0;0.9;28.7;-1.0;
16/06/2019 01:10:25;110;0;327.31;17;-22.04;4.51;8.5;11.10;70368;5122.438;-12841.101;339;-300;-303.0;73;73.0;0;1.4;28.8;-1.0;
16/06/2019 01:10:35;100;0;325.18;17;-26.96;4.14;10.0;11.10;70368;5122.438;-12841.101;339;-300;-305.0;73;73.0;0;0.9;28.8;-1.0;
16/06/2019 01:10:55;100;0;313.61;17;-26.94;4.31;14.1;11.20;70382;5122.438;-12841.101;339;-300;-305.0;73;73.0;-3;-3.2;28.8;0.0;
16/06/2019 01:11:15;100;0;306.84;17;-26.71;1.85;18.6;11.20;70363;5122.438;-12841.101;339;-300;-305.0;73;72.9;-7;-7.2;28.8;0.0;
16/06/2019 01:11:35;100;0;307.65;17;-26.66;0.04;23.2;11.30;70343;5122.438;-12841.101;339;-300;-306.9;73;72.9;-5;-5.0;28.8;0.0;
16/06/2019 01:11:55;100;0;305.35;17;-25.96;1.72;27.9;11.30;70339;5122.438;-12841.101;339;-300;-305.0;73;73.0;-6;-6.3;28.8;0.0;
16/06/2019 01:12:15;100;0;288.19;17;-25.88;0.60;32.5;11.30;70315;5122.438;-12841.101;339;-300;-306.9;73;72.9;-16;-16.2;28.8;0.0;
16/06/2019 01:12:35;100;0;286.77;17;-25.65;-4.03;36.9;11.40;70281;5122.438;-12841.101;339;-300;-305.0;73;72.9;-14;-14.0;28.8;0.0;
16/06/2019 01:12:55;100;0;285.67;17;-25.88;-2.76;41.1;11.40;70253;5122.438;-12841.101;339;-300;-306.9;73;73.0;-13;-13.1;28.8;0.0;
16/06/2019 01:13:15;100;0;292.44;17;-25.59;-2.52;45.4;11.40;70216;5122.438;-12841.101;339;-300;-305.0;73;72.9;-9;-9.0;28.8;0.0;
16/06/2019 01:13:35;100;0;288.87;17;-24.93;-0.45;49.7;11.40;70185;5122.438;-12841.101;339;-300;-305.0;73;72.9;-12;-12.2;28.8;0.0;
16/06/2019 01:13:55;100;0;286.34;17;-24.47;-2.26;53.7;11.40;70154;5122.438;-12841.101;339;-300;-305.0;73;73.0;-13;-13.1;28.8;0.0;
16/06/2019 01:14:15;100;0;276.81;17;-25.02;-2.83;57.6;11.40;70131;5122.438;-12841.101;339;-300;-305.0;73;73.0;-20;-19.9;28.8;0.0;
16/06/2019 01:14:35;100;0;275.69;17;-25.26;-5.78;61.5;11.40;70095;5122.438;-12841.101;339;-300;-305.0;73;72.9;-21;-21.2;28.8;0.0;
16/06/2019 01:14:55;100;0;275.06;17;-25.20;-6.54;65.5;11.30;70086;5122.438;-12841.101;339;-300;-305.0;73;73.0;-21;-22.1;28.8;0.0;
16/06/2019 01:15:15;100;0;271.74;17;-25.00;-6.62;69.4;11.30;70072;5122.438;-12841.101;339;-300;-305.0;73;72.9;-25;-24.8;28.8;0.0;
16/06/2019 01:15:35;100;0;276.23;17;-24.28;-8.11;73.4;11.30;70041;5122.438;-12841.101;339;-300;-306.9;73;73.0;-23;-23.0;28.8;0.0;
16/06/2019 01:15:55;100;0;276.16;17;-24.84;-6.68;76.9;11.30;70022;5122.438;-12841.101;339;-300;-306.9;73;72.9;-23;-22.1;28.8;0.0;
16/06/2019 01:16:15;100;0;269.33;17;-24.97;-6.59;80.3;11.30;69995;5122.438;-12841.101;339;-300;-305.0;73;72.9;-27;-27.5;28.8;0.0;
16/06/2019 01:16:35;100;0;268.46;17;-24.39;-9.44;83.9;11.30;69984;5122.438;-12841.101;339;-300;-305.0;73;72.9;-27;-28.0;28.8;0.0;
16/06/2019 01:16:55;100;0;277.80;17;-23.59;-9.52;87.3;11.20;69966;5122.438;-12841.101;339;-300;-306.9;73;73.0;-21;-21.2;28.8;0.0;
16/06/2019 01:17:15;100;0;283.69;17;-23.36;-6.06;90.4;11.20;69934;5122.438;-12841.101;339;-300;-306.9;73;72.9;-19;-19.0;28.8;0.0;
16/06/2019 01:17:35;100;0;286.66;17;-22.94;-4.89;93.4;11.20;69920;5122.438;-12841.101;339;-300;-306.9;73;73.0;-19;-18.1;28.8;0.0;
16/06/2019 01:17:55;100;0;286.84;17;-22.01;-4.85;96.2;11.10;69903;5122.438;-12841.101;339;-300;-305.0;73;72.9;-20;-20.3;28.8;0.0;
16/06/2019 01:18:15;100;0;289.65;17;-21.61;-5.89;99.0;11.10;69888;5122.438;-12841.101;339;-300;-305.0;73;72.9;-19;-19.0;28.8;0.0;
16/06/2019 01:18:35;100;0;291.85;17;-21.54;-5.00;101.7;11.10;69868;5122.438;-12841.101;339;-300;-306.9;73;73.0;-19;-18.5;28.8;0.0;
16/06/2019 01:18:55;100;0;291.03;17;-21.70;-4.91;104.2;11.10;69853;5122.438;-12841.101;339;-300;-305.0;73;73.0;-20;-19.9;28.8;0.0;
16/06/2019 01:19:15;100;0;292.64;17;-21.19;-5.97;107.0;11.00;69851;5122.438;-12841.101;339;-300;-305.0;73;73.0;-20;-20.3;28.8;0.0;
16/06/2019 01:19:35;100;0;293.46;17;-21.62;-5.90;109.5;11.00;69832;5122.438;-12841.101;339;-300;-305.0;73;72.9;-19;-18.5;28.8;0.0;
16/06/2019 01:19:55;100;0;297.81;17;-20.49;-4.67;112.2;11.00;69820;5122.438;-12841.101;339;-300;-306.9;73;72.9;-17;-16.7;28.8;0.0;
16/06/2019 01:20:15;100;0;288.89;17;-20.73;-3.84;114.8;11.00;69799;5122.438;-12841.101;339;-300;-305.0;73;72.9;-24;-24.4;28.8;0.0;
16/06/2019 01:20:35;100;0;282.83;17;-20.89;-7.93;117.3;10.90;69785;5122.438;-12841.101;339;-300;-306.9;73;72.9;-26;-26.2;28.8;0.0;
16/06/2019 01:20:55;100;0;275.59;17;-21.30;-9.25;119.8;10.90;69782;5122.438;-12841.101;339;-300;-305.0;73;73.0;-28;-28.0;28.8;0.0;
16/06/2019 01:21:15;100;0;284.68;17;-19.83;-9.98;122.3;10.90;69772;5122.438;-12841.101;339;-300;-305.0;73;72.9;-21;-21.2;28.8;0.0;
16/06/2019 01:21:35;100;0;288.34;17;-20.13;-6.16;124.5;10.80;69753;5122.438;-12841.101;339;-300;-305.0;73;73.0;-19;-19.0;28.8;0.0;
16/06/2019 01:21:55;100;0;294.46;17;-20.19;-5.10;126.6;10.80;69749;5122.438;-12841.101;339;-300;-306.9;73;72.9;-17;-17.1;28.8;0.0;
16/06/2019 01:22:15;100;0;297.73;17;-20.41;-4.23;128.8;10.80;69726;5122.438;-12841.101;339;-300;-305.0;73;73.0;-17;-16.2;28.8;0.0;
16/06/2019 01:22:35;100;0;294.06;17;-19.71;-4.03;131.0;10.80;69740;5122.438;-12841.101;339;-300;-305.0;73;72.9;-20;-19.9;28.8;0.0;
16/06/2019 01:22:55;100;0;294.55;17;-19.81;-6.04;133.2;10.70;69722;5122.438;-12841.101;339;-300;-305.0;73;73.0;-20;-20.3;28.8;0.0;
16/06/2019 01:23:15;100;0;297.89;17;-19.30;-6.02;135.6;10.70;69714;5122.438;-12841.101;339;-300;-306.9;73;72.9;-18;-18.1;28.8;0.0;
16/06/2019 01:23:35;100;0;299.01;17;-19.18;-4.65;137.8;10.60;69698;5122.438;-12841.101;339;-300;-305.0;73;72.9;-18;-17.1;28.8;0.0;
16/06/2019 01:23:55;100;0;301.37;17;-19.28;-4.49;140.2;10.60;69697;5122.438;-12841.101;339;-300;-306.9;73;72.9;-17;-17.1;28.8;0.0;
16/06/2019 01:24:15;100;0;301.06;17;-18.94;-4.58;142.5;10.60;69679;5122.438;-12841.101;339;-300;-305.0;73;73.0;-18;-18.1;28.8;0.0;
16/06/2019 01:24:35;100;0;300.24;17;-19.19;-5.09;144.6;10.60;69695;5122.438;-12841.101;339;-300;-306.9;73;72.9;-19;-19.0;28.8;0.0;
16/06/2019 01:24:55;100;0;299.46;17;-19.36;-5.57;146.8;10.50;69680;5122.438;-12841.101;339;-300;-305.0;73;73.0;-19;-19.4;28.8;0.0;
16/06/2019 01:25:15;100;0;298.09;17;-19.42;-5.63;148.9;10.50;69669;5122.438;-12841.101;339;-300;-305.0;73;72.9;-20;-19.9;28.8;0.0;
16/06/2019 01:25:35;100;0;298.27;17;-19.41;-6.05;151.1;10.50;69674;5122.438;-12841.101;339;-300;-305.0;73;72.9;-19;-19.0;28.8;0.0;
16/06/2019 01:25:55;100;0;299.26;17;-19.49;-5.07;153.4;10.40;69661;5122.438;-12841.101;339;-300;-306.9;73;73.0;-19;-18.1;28.8;0.0;
16/06/2019 01:26:15;100;0;303.42;17;-19.59;-5.12;155.5;10.40;69655;5122.438;-12841.101;339;-300;-305.0;73;72.9;-16;-15.8;28.8;0.0;
16/06/2019 01:26:35;100;0;305.18;17;-18.80;-3.54;157.8;10.40;69652;5122.438;-12841.101;339;-300;-305.0;73;72.9;-16;-14.9;28.8;0.0;
16/06/2019 01:26:55;100;0;304.14;17;-18.85;-3.53;160.1;10.30;69641;5122.438;-12841.101;339;-300;-306.9;73;72.9;-17;-17.1;28.8;0.0;
16/06/2019 01:27:15;100;0;300.83;17;-19.33;-4.70;162.3;10.30;69627;5122.438;-12841.101;339;-300;-305.0;73;72.9;-20;-19.9;28.8;0.0;
16/06/2019 01:27:35;100;0;300.76;17;-19.08;-5.92;164.5;10.30;69627;5122.438;-12841.101;339;-300;-306.9;73;72.9;-19;-19.0;28.8;0.0;
16/06/2019 01:27:55;100;0;298.49;17;-18.98;-5.23;166.9;10.30;69615;5122.438;-12841.101;339;-300;-305.0;73;72.9;-20;-19.9;28.8;0.0;
16/06/2019 01:28:15;100;0;299.17;17;-19.16;-6.10;169.3;10.20;69609;5122.438;-12841.101;339;-300;-306.9;73;72.9;-19;-19.0;28.8;0.0;
16/06/2019 01:28:35;100;0;299.35;17;-18.54;-5.06;171.6;10.20;69608;5122.438;-12841.101;339;-300;-305.0;73;73.0;-19;-18.5;28.8;0.0;
16/06/2019 01:28:55;100;0;301.01;17;-18.92;-5.12;173.8;10.20;69595;5122.438;-12841.101;339;-300;-305.0;73;73.0;-18;-18.1;28.8;44.9;
16/06/2019 01:29:15;100;0;301.63;17;-18.88;-5.13;176.1;10.10;69590;5122.438;-12841.101;339;-300;-305.0;73;73.0;-18;-18.1;28.8;42.6;
16/06/2019 01:29:35;100;0;302.41;17;-18.67;-5.10;178.3;10.10;69584;5122.438;-12841.101;339;-300;-305.0;73;72.9;-18;-18.5;28.8;40.3;
16/06/2019 01:29:55;100;0;303.91;17;-18.90;-5.07;180.5;10.10;69591;5122.438;-12841.101;339;-300;-305.0;73;73.0;-17;-16.7;28.8;38.2;
16/06/2019 01:30:15;100;0;305.44;17;-18.87;-4.18;182.5;10.00;69569;5122.438;-12841.101;339;-300;-305.0;73;72.9;-17;-16.2;28.8;36.1;
16/06/2019 01:30:35;100;0;308.53;17;-18.89;-4.27;184.6;10.00;69575;5122.438;-12841.101;339;-300;-305.0;73;73.0;-15;-14.4;28.8;34.0;
16/06/2019 01:30:55;100;0;311.16;17;-18.82;-3.28;186.7;10.00;69568;5122.438;-12841.101;339;-300;-306.9;73;72.9;-15;-14.0;28.8;31.9;
16/06/2019 01:31:15;100;0;311.20;17;-18.50;-3.12;188.9;9.90;69557;5122.438;-12841.101;339;-300;-306.9;73;72.9;-16;-15.8;28.8;29.7;
16/06/2019 01:31:35;100;0;312.65;17;-18.33;-4.36;190.9;9.90;69542;5122.438;-12841.101;339;-300;-305.0;73;73.0;-15;-14.9;28.8;27.5;
16/06/2019 01:31:55;100;0;313.18;17;-18.39;-3.31;193.0;9.90;69531;5122.438;-12841.101;339;-300;-305.0;73;72.9;-15;-14.4;28.8;25.3;
16/06/2019 01:32:15;100;0;312.77;17;-18.37;-3.27;195.2;9.90;69524;5122.438;-12841.101;339;-300;-306.9;73;72.9;-16;-16.2;28.8;23.1;
16/06/2019 01:32:35;100;0;313.59;17;-18.48;-4.33;197.3;9.80;69533;5122.438;-12841.101;339;-300;-305.0;73;72.9;-16;-16.7;28.8;21.0;
16/06/2019 01:32:55;100;0;312.62;17;-18.43;-4.29;199.4;9.80;69523;5122.438;-12841.101;339;-300;-305.0;73;72.9;-16;-16.7;28.8;18.7;
16/06/2019 01:33:15;118;0;312.21;17;-18.39;-4.38;201.6;9.80;69514;5122.438;-12841.101;339;150;-295.0;57;56.8;0;0.5;28.8;16.6;
16/06/2019 01:33:25;118;0;6.13;17;2.26;3.82;202.4;9.80;69432;5122.438;-12841.101;339;150;-134.7;57;57.1;0;0.5;28.2;16.6;
16/06/2019 01:33:35;118;0;359.71;17;19.29;3.46;202.2;9.80;69222;5122.438;-12841.101;339;150;19.8;57;57.1;0;0.5;28.2;-1.0;
16/06/2019 01:33:45;118;0;354.71;17;23.85;3.62;201.3;9.70;68967;5122.438;-12841.101;339;150;156.4;57;57.1;0;0.5;28.2;-1.0;
16/06/2019 01:33:55;118;0;287.19;17;24.59;4.36;200.1;9.70;68761;5122.438;-12841.101;339;150;156.4;57;57.1;0;0.5;28.8;-1.0;
16/06/2019 01:34:05;118;0;286.93;17;26.96;3.65;198.5;9.70;68765;5122.438;-12841.101;339;150;158.4;57;57.1;0;0.5;28.8;-1.0;
16/06/2019 01:34:15;117;0;286.91;17;27.79;3.61;196.6;9.70;68773;5122.438;-12841.101;339;150;158.4;57;57.1;0;0.5;28.8;-1.0;
16/06/2019 01:34:35;117;0;283.83;17;28.11;3.86;192.5;9.70;68761;5122.438;-12841.101;339;150;156.4;57;57.1;33;32.9;28.8;-1.0;
16/06/2019 01:34:55;117;0;291.52;17;27.39;19.73;187.8;9.70;68755;5122.438;-12841.101;339;150;158.4;57;57.1;23;22.6;28.8;-1.0;
16/06/2019 01:35:15;117;0;293.88;17;28.29;13.67;183.4;9.60;68750;5122.438;-12841.101;339;150;156.4;57;57.1;21;20.8;28.8;-1.0;
16/06/2019 01:35:36;117;0;297.17;17;28.39;13.39;178.8;9.60;68755;5122.438;-12841.101;339;150;156.4;57;57.1;18;18.1;28.9;-1.0;
16/06/2019 01:35:56;117;0;298.87;17;27.97;11.47;174.1;9.60;68769;5122.438;-12841.101;339;150;158.4;57;57.1;18;17.6;28.8;-1.0;
16/06/2019 01:36:16;117;0;302.55;17;28.17;11.69;169.5;9.50;68758;5122.438;-12841.101;339;150;158.4;57;57.1;16;15.8;28.8;-1.0;
16/06/2019 01:36:36;117;0;308.65;17;27.55;10.16;165.1;9.50;68759;5122.438;-12841.101;339;150;158.4;57;57.1;14;14.0;28.8;-1.0;
16/06/2019 01:36:56;117;0;315.83;17;27.65;9.39;160.9;9.50;68769;5122.438;-12841.101;339;150;156.4;57;57.1;11;10.8;28.8;-1.0;
16/06/2019 01:37:16;117;0;313.19;17;27.39;8.07;156.6;9.50;68772;5122.438;-12841.101;339;150;158.4;57;57.1;15;14.9;28.8;-1.0;
16/06/2019 01:37:36;117;0;317.05;17;27.56;10.54;152.3;9.50;68777;5122.438;-12841.101;339;150;158.4;57;57.1;13;13.1;28.8;-1.0;
16/06/2019 01:37:56;117;0;325.25;17;27.32;9.07;147.8;9.50;68788;5122.438;-12841.101;339;150;158.4;57;57.1;13;12.6;28.8;-1.0;
16/06/2019 01:38:16;117;0;332.34;17;27.22;8.96;143.5;9.40;68786;5122.438;-12841.101;339;150;158.4;57;57.1;7;7.2;28.8;-1.0;
16/06/2019 01:38:36;117;0;326.00;17;26.95;6.38;138.9;9.40;68800;5122.438;-12841.101;339;150;158.4;57;57.1;13;13.1;28.8;-1.0;
16/06/2019 01:38:56;117;0;321.88;17;27.07;9.55;134.7;9.40;68800;5122.438;-12841.101;339;150;158.4;57;57.1;13;13.5;28.8;-1.0;
16/06/2019 01:39:16;117;0;327.36;17;26.15;9.39;130.3;9.40;68798;5122.438;-12841.101;339;150;158.4;57;57.1;11;10.8;28.8;-1.0;
16/06/2019 01:39:36;117;0;328.81;17;27.10;8.08;125.9;9.40;68810;5122.438;-12841.101;339;150;158.4;57;57.1;11;10.4;28.8;-1.0;
16/06/2019 01:39:56;117;0;332.25;17;26.69;8.06;121.2;9.40;68810;5122.438;-12841.101;339;150;156.4;57;57.1;9;9.0;28.8;-1.0;
16/06/2019 01:40:16;117;0;326.88;17;25.80;7.28;116.8;9.40;68802;5122.438;-12841.101;339;150;158.4;57;57.1;13;13.5;28.8;-1.0;
16/06/2019 01:40:36;117;0;334.21;17;24.55;9.80;112.8;9.40;68816;5122.438;-12841.101;339;150;158.4;57;57.1;8;8.1;28.8;-1.0;
16/06/2019 01:40:56;117;0;338.32;17;24.98;6.60;109.3;9.40;68816;5122.438;-12841.101;339;150;158.4;57;57.1;6;5.9;28.8;-1.0;
16/06/2019 01:41:16;117;0;332.62;17;24.44;5.35;105.5;9.40;68835;5122.438;-12841.101;339;150;156.4;57;57.1;10;9.9;28.8;-1.0;
16/06/2019 01:41:36;117;0;329.63;17;24.89;8.38;101.9;9.40;68831;5122.438;-12841.101;339;150;158.4;57;57.1;11;11.3;28.7;-1.0;
16/06/2019 01:41:56;117;0;335.00;17;23.58;8.74;98.4;9.40;68844;5122.438;-12841.101;339;150;156.4;57;57.1;6;5.9;28.8;-1.0;
16/06/2019 01:42:16;117;0;334.14;17;23.56;5.49;94.8;9.40;68858;5122.438;-12841.101;339;150;156.4;57;57.1;7;7.7;28.8;-1.0;
16/06/2019 01:42:36;117;0;324.96;17;23.19;7.10;91.4;9.40;68872;5122.438;-12841.101;339;150;158.4;57;57.1;13;13.1;28.8;-1.0;
16/06/2019 01:42:56;117;0;323.02;17;22.22;9.78;88.2;9.40;68874;5122.438;-12841.101;339;150;156.4;57;57.1;12;12.2;28.8;-1.0;
16/06/2019 01:43:16;117;0;330.35;17;21.61;8.45;85.0;9.40;68887;5122.438;-12841.101;339;150;156.4;57;57.1;6;5.9;28.8;-1.0;
16/06/2019 01:43:36;117;0;333.24;17;20.76;5.45;82.1;9.40;68904;5122.438;-12841.101;339;150;158.4;57;57.1;5;5.0;28.8;-1.0;
16/06/2019 01:43:56;117;0;326.27;17;20.68;5.16;79.4;9.40;68912;5122.438;-12841.101;339;150;156.4;57;57.1;10;9.9;28.8;-1.0;
16/06/2019 01:44:16;117;0;333.48;17;19.42;8.25;76.9;9.40;68932;5122.438;-12841.101;339;150;158.4;57;57.1;5;5.0;28.8;-1.0;
16/06/2019 01:44:36;117;0;338.86;17;19.52;4.99;74.6;9.40;68946;5122.438;-12841.101;339;150;156.4;57;57.1;2;1.4;28.8;-1.0;
16/06/2019 01:44:56;117;0;339.31;17;19.32;3.30;72.2;9.40;68952;5122.438;-12841.101;339;150;158.4;57;57.1;2;0.9;28.8;-1.0;
16/06/2019 01:45:16;117;0;343.89;17;19.75;3.33;70.1;9.40;68968;5122.438;-12841.101;339;150;158.4;57;57.1;0;-0.5;28.8;-1.0;
16/06/2019 01:45:36;117;0;344.52;17;19.17;2.57;67.7;9.40;68985;5122.438;-12841.101;339;150;158.4;57;57.1;0;-0.9;28.8;-1.0;
16/06/2019 01:45:56;117;0;341.39;17;19.14;2.59;65.4;9.50;69007;5122.438;-12841.101;339;150;156.4;57;57.1;2;1.8;28.8;-1.0;
16/06/2019 01:46:16;117;0;340.55;17;18.85;4.24;63.1;9.50;69019;5122.438;-12841.101;339;150;158.4;57;57.1;2;2.7;28.8;-1.0;
16/06/2019 01:46:36;117;0;338.95;17;19.00;4.16;60.9;9.50;69030;5122.438;-12841.101;339;150;158.4;57;57.1;2;2.3;28.8;-1.0;
16/06/2019 01:46:56;117;0;342.00;17;18.34;4.22;58.9;9.50;69043;5122.438;-12841.101;339;150;156.4;57;57.1;0;0.0;28.8;-1.0;
16/06/2019 01:47:16;117;0;344.18;17;18.58;2.55;56.8;9.60;69058;5122.438;-12841.101;339;150;158.4;57;57.1;-2;-2.3;28.8;-1.0;
16/06/2019 01:47:36;117;0;347.39;17;18.35;1.82;54.8;9.60;69076;5122.438;-12841.101;339;150;156.4;57;57.1;-3;-3.2;28.8;-1.0;
16/06/2019 01:47:56;117;0;346.91;17;18.30;1.13;52.9;9.60;69077;5122.438;-12841.101;339;150;158.4;57;57.1;-2;-1.4;28.8;-1.0;
16/06/2019 01:48:16;117;0;344.73;17;18.26;2.67;51.0;9.60;69089;5122.438;-12841.101;339;150;158.4;57;57.1;-2;-0.9;28.8;-1.0;
16/06/2019 01:48:36;117;0;345.07;17;18.05;2.77;48.9;9.60;69109;5122.438;-12841.101;339;150;158.4;57;57.1;-3;-3.2;28.8;-1.0;
16/06/2019 01:48:56;117;0;346.45;17;18.23;1.32;47.0;9.70;69111;5122.438;-12841.101;339;150;156.4;57;57.1;-4;-4.5;28.8;-1.0;
16/06/2019 01:49:16;117;0;341.31;17;17.81;0.71;45.1;9.70;69131;5122.438;-12841.101;339;150;158.4;57;57.1;-2;-1.8;28.8;-1.0;
16/06/2019 01:49:36;117;0;333.66;17;17.87;2.43;43.1;9.70;69146;5122.438;-12841.101;339;150;158.4;57;57.1;1;0.9;28.8;-1.0;
16/06/2019 01:49:56;117;0;330.34;17;17.84;3.99;41.2;9.80;69166;5122.438;-12841.101;339;150;158.4;57;57.1;0;0.0;28.8;-1.0;
16/06/2019 01:50:16;117;0;329.86;17;17.52;2.79;39.2;9.80;69191;5122.438;-12841.101;339;150;158.4;57;57.1;0;-0.9;28.8;-1.0;
16/06/2019 01:50:36;117;0;333.43;17;17.41;2.79;37.2;9.80;69200;5122.438;-12841.101;339;150;158.4;57;57.1;-4;-4.5;28.8;-1.0;
16/06/2019 01:50:56;117;0;334.54;17;17.20;0.78;35.2;9.90;69223;5122.438;-12841.101;339;150;158.4;57;57.1;-4;-5.0;28.8;-1.0;
16/06/2019 01:51:16;117;0;325.07;17;17.11;0.65;33.3;9.90;69230;5122.438;-12841.101;339;150;158.4;57;57.1;0;0.5;28.8;-1.0;
16/06/2019 01:51:36;117;0;321.42;17;16.93;3.71;31.5;9.90;69242;5122.438;-12841.101;339;150;158.4;57;57.1;0;0.9;28.8;-1.0;
16/06/2019 01:51:56;117;0;329.03;17;16.53;3.89;29.8;9.90;69254;5122.438;-12841.101;339;150;158.4;57;57.1;-4;-4.5;28.8;-1.0;
16/06/2019 01:52:16;117;0;332.89;17;16.62;1.02;28.2;10.00;69280;5122.438;-12841.101;339;150;158.4;57;57.1;-6;-5.9;28.8;-1.0;
16/06/2019 01:52:36;117;0;333.14;17;15.53;0.42;26.5;10.00;69311;5122.438;-12841.101;339;150;158.4;57;57.1;-6;-5.9;28.8;-1.0;
16/06/2019 01:52:56;117;0;329.18;17;16.12;0.28;24.9;10.10;69336;5122.438;-12841.101;339;150;158.4;57;57.1;-3;-3.2;28.8;-1.0;
16/06/2019 01:53:16;117;0;324.44;17;15.96;2.05;23.4;10.10;69364;5122.438;-12841.101;339;150;158.4;57;57.1;-1;-0.9;28.8;-1.0;
16/06/2019 01:53:36;117;0;320.59;17;16.11;3.36;21.8;10.20;69382;5122.438;-12841.101;339;150;158.4;57;57.1;-1;0.0;28.8;-1.0;
16/06/2019 01:53:56;117;0;318.11;17;16.10;3.26;20.3;10.20;69395;5122.438;-12841.101;339;150;158.4;57;57.1;0;0.0;28.8;-1.0;
16/06/2019 01:54:16;117;0;317.97;17;16.23;3.44;18.6;10.30;69422;5122.438;-12841.101;339;150;158.4;57;57.2;-1;-1.4;28.8;-1.0;
16/06/2019 01:54:36;117;0;314.15;17;16.12;2.51;17.0;10.30;69428;5122.438;-12841.101;339;150;158.4;57;57.1;0;0.0;28.8;-1.0;
16/06/2019 01:54:56;117;0;312.59;17;16.05;3.89;15.3;10.30;69431;5122.438;-12841.101;339;150;158.4;57;57.1;0;0.9;28.8;-1.0;
16/06/2019 01:55:16;117;0;314.01;17;16.13;3.86;13.6;10.40;69466;5122.438;-12841.101;339;150;158.4;57;57.1;0;0.9;28.8;-1.0;
16/06/2019 01:55:36;117;0;316.09;17;15.79;3.84;11.9;10.50;69472;5122.438;-12841.101;339;150;158.4;57;57.1;-1;-0.9;28.8;-1.0;
16/06/2019 01:55:56;117;0;317.48;17;16.00;2.66;10.2;10.50;69494;5122.438;-12841.101;339;150;158.4;57;57.1;-1;-1.8;28.8;-1.0;
