Timestamp;NavState;SecurityLevel;Heading;Declination;Pitch;Roll;Depth;Temperature;Pa;Lat;Lon;DesiredH;BallastCmd;BallastPos;LinCmd;LinPos;AngCmd;AngPos;Voltage;Altitude;
12/07/2018 16:22:29;105;0;146.48;0;-0.07;6.79;1.0;17.40;70193;0.000;0.000;-9999;500;499.0;100;100.1;0;-0.5;29.4;0.0;
12/07/2018 16:22:39;105;0;145.99;0;0.86;6.74;1.1;17.40;70216;0.000;0.000;-9999;500;499.0;100;100.1;0;-0.5;29.4;-1.0;
12/07/2018 16:22:49;115;0;145.67;0;0.16;6.68;1.0;17.40;70204;0.000;0.000;-9999;500;499.0;100;100.1;0;-0.5;29.3;-1.0;
12/07/2018 16:22:59;115;0;149.49;0;-0.04;6.67;1.0;17.40;70207;0.000;0.000;-9999;500;501.0;100;100.1;0;-0.5;29.4;-1.0;
13/06/2019 16:33:13;116;0;149.16;17;0.01;6.88;1.1;17.40;70213;5139.272;-12807.587;-9999;500;499.0;100;100.1;0;-0.5;29.3;-1.0;
13/06/2019 16:33:33;116;0;151.60;17;0.55;7.04;1.0;17.40;70210;5139.273;-12807.571;-9999;500;501.0;100;100.1;0;-0.5;29.4;-1.0;
13/06/2019 16:33:53;116;0;154.58;17;0.45;7.01;1.1;17.40;70213;5139.278;-12807.504;-9999;500;499.0;100;100.1;0;-0.5;29.4;-1.0;
13/06/2019 16:34:13;116;0;158.81;17;0.31;6.78;1.0;17.40;70207;5139.278;-12807.490;-9999;500;497.0;100;100.1;0;-0.5;29.3;-1.0;
13/06/2019 16:34:33;116;0;162.97;17;0.72;6.99;1.0;17.40;70208;5139.278;-12807.452;-9999;500;497.0;100;100.1;0;-0.5;29.4;-1.0;
13/06/2019 16:34:53;116;0;164.21;17;0.30;6.99;1.0;17.40;70198;5139.278;-12807.414;-9999;500;499.0;100;100.1;0;-0.5;29.3;-1.0;
13/06/2019 16:35:13;116;0;165.16;17;0.32;8.12;1.1;17.40;70195;5139.277;-12807.376;-9999;500;499.0;100;100.1;0;-0.5;29.4;-1.0;
13/06/2019 16:35:33;116;0;168.68;17;-0.12;13.24;1.0;17.40;70200;5139.274;-12807.323;-9999;500;499.0;100;100.1;0;-0.5;29.4;-1.0;
13/06/2019 16:35:53;116;0;154.92;17;0.28;13.64;1.1;17.40;70194;5139.274;-12807.246;-9999;500;499.0;100;100.0;0;-0.5;29.4;-1.0;
13/06/2019 16:36:13;116;0;162.34;17;-2.52;12.09;1.0;17.40;70197;5139.274;-12807.115;-9999;500;499.0;100;100.0;0;0.0;29.4;-1.0;
13/06/2019 16:36:33;116;0;157.62;17;-1.81;10.74;1.0;17.40;70177;5139.275;-12806.923;-9999;500;499.0;100;100.0;0;0.0;29.4;-1.0;
13/06/2019 16:36:53;116;0;160.62;17;-1.60;11.11;1.0;17.40;70176;5139.270;-12806.723;-9999;500;499.0;100;100.0;0;0.0;29.3;-1.0;
13/06/2019 16:37:13;116;0;158.39;17;-1.38;11.25;1.1;17.40;70167;5139.280;-12806.128;-9999;500;497.0;100;100.0;0;0.0;29.4;-1.0;
13/06/2019 16:37:51;116;0;158.50;17;-2.31;9.05;1.1;17.40;70147;5139.284;-12805.996;-9999;500;499.0;100;100.0;0;0.0;29.4;-1.0;
13/06/2019 16:38:11;116;0;141.16;17;-0.64;10.17;1.1;17.40;70152;5139.300;-12805.879;-9999;500;497.0;100;100.0;0;0.0;29.3;-1.0;
13/06/2019 16:38:31;116;0;78.63;17;-2.00;10.87;1.1;17.50;70139;5139.413;-12805.778;-9999;500;497.0;100;100.0;0;0.0;29.3;-1.0;
13/06/2019 16:38:51;116;0;77.95;17;-2.26;10.92;1.0;17.50;70134;5139.547;-12805.722;-9999;500;499.0;100;100.0;0;0.0;29.3;-1.0;
13/06/2019 16:39:11;116;0;70.69;17;-2.06;10.74;1.0;17.50;70118;5139.681;-12805.686;-9999;500;499.0;100;100.0;0;0.0;29.5;-1.0;
13/06/2019 16:39:31;116;0;73.22;17;-2.25;11.06;1.0;17.50;70123;5139.811;-12805.661;-9999;500;501.0;100;100.1;0;-0.5;29.4;-1.0;
13/06/2019 16:39:51;116;0;74.25;17;-1.72;10.35;1.0;17.50;70106;5139.944;-12805.626;-9999;500;499.0;100;100.0;0;0.0;29.4;-1.0;
13/06/2019 16:40:11;116;0;74.41;17;-1.86;10.68;1.1;17.50;70106;5140.080;-12805.583;-9999;500;499.0;100;100.0;0;0.0;29.4;-1.0;
13/06/2019 16:40:31;116;0;72.32;17;-1.78;10.93;1.1;17.50;70100;5140.215;-12805.543;-9999;500;499.0;100;100.0;0;0.0;29.4;-1.0;
13/06/2019 16:40:51;116;0;80.49;17;-1.79;11.37;1.0;17.50;70094;5140.348;-12805.491;-9999;500;499.0;100;100.1;0;0.0;29.2;-1.0;
13/06/2019 16:41:11;116;0;72.57;17;-2.31;10.56;1.0;17.50;70085;5140.484;-12805.452;-9999;500;499.0;100;100.0;0;0.0;29.4;-1.0;
13/06/2019 16:41:31;116;0;67.12;17;-1.82;9.57;1.1;17.50;70091;5140.621;-12805.430;-9999;500;499.0;100;100.0;0;0.0;29.4;-1.0;
13/06/2019 16:41:51;116;0;63.77;17;-0.94;11.39;1.0;17.50;70075;5140.758;-12805.422;-9999;500;497.0;100;100.1;0;0.0;29.4;-1.0;
13/06/2019 16:42:11;116;0;60.18;17;-1.49;11.08;1.1;17.50;70080;5140.894;-12805.435;-9999;500;499.0;100;100.0;0;-0.5;29.2;-1.0;
13/06/2019 16:42:31;116;0;62.03;17;-1.99;10.38;1.0;17.50;70067;5141.263;-12805.521;-9999;500;499.0;100;100.0;0;0.0;29.3;-1.0;
13/06/2019 16:43:09;116;0;51.96;17;-2.23;8.57;1.1;17.50;70063;5141.289;-12805.530;-9999;500;499.0;100;100.0;0;0.0;29.4;-1.0;
13/06/2019 16:43:29;116;0;10.85;17;-6.37;11.22;1.0;17.50;70060;5141.423;-12805.706;-9999;500;499.0;100;100.0;0;0.0;29.4;-1.0;
13/06/2019 16:43:49;116;0;14.25;17;-1.41;16.28;1.0;17.50;70057;5141.434;-12805.730;-9999;500;497.0;100;100.1;0;0.0;29.4;-1.0;
13/06/2019 16:44:09;116;0;7.57;17;-2.40;12.59;1.0;17.60;70053;5141.475;-12805.859;-9999;500;499.0;100;100.1;0;0.0;29.4;-1.0;
13/06/2019 16:44:29;116;0;7.63;17;-0.28;14.69;1.0;17.60;70041;5141.519;-12805.985;-9999;500;497.0;100;100.1;0;0.0;29.4;-1.0;
13/06/2019 16:44:49;116;0;7.11;17;-3.84;10.92;1.1;17.60;70037;5141.559;-12806.112;-9999;500;497.0;100;100.0;0;0.5;29.4;-1.0;
13/06/2019 16:45:09;116;0;1.11;17;-2.84;9.15;1.0;17.60;70032;5141.606;-12806.233;-9999;500;499.0;100;100.0;0;0.5;29.4;-1.0;
13/06/2019 16:45:29;116;0;13.10;17;0.63;17.22;1.0;17.60;70041;5141.651;-12806.348;-9999;500;497.0;100;100.1;0;0.5;29.2;-1.0;
13/06/2019 16:45:49;116;0;16.84;17;-2.79;16.10;1.0;17.60;70030;5141.690;-12806.442;134;500;497.0;100;100.0;0;0.5;29.4;-1.0;
13/06/2019 16:46:09;116;0;1.64;17;0.51;15.79;1.0;17.60;70035;5141.726;-12806.548;134;500;499.0;100;100.1;0;0.9;29.3;-1.0;
13/06/2019 16:46:29;116;0;4.48;17;0.02;16.28;1.0;17.60;70015;5141.753;-12806.668;134;500;499.0;100;100.3;0;0.9;29.4;-1.0;
13/06/2019 16:46:49;116;0;12.63;17;-0.29;21.56;1.0;17.60;70015;5141.774;-12806.785;134;500;499.0;100;100.1;0;1.4;29.4;-1.0;
13/06/2019 16:47:09;116;0;352.05;17;-2.47;15.08;1.1;17.60;70018;5141.788;-12806.910;134;500;499.0;100;100.1;0;1.4;29.4;-1.0;
13/06/2019 16:47:29;116;0;349.16;17;-0.69;14.10;1.0;17.60;70010;5141.795;-12807.020;134;500;499.0;100;100.1;0;1.4;29.4;-1.0;
13/06/2019 16:47:49;116;0;347.77;17;-3.55;20.73;1.0;17.60;70002;5141.800;-12807.130;134;500;497.0;100;100.1;0;1.4;29.4;-1.0;
13/06/2019 16:48:09;116;0;349.02;17;-2.66;25.51;1.0;17.50;70008;5141.801;-12807.245;134;500;499.0;100;100.1;0;1.8;29.4;-1.0;
13/06/2019 16:48:29;116;0;342.57;17;-4.48;17.65;1.0;17.60;70008;5141.801;-12807.352;134;500;499.0;100;100.0;0;1.8;29.2;-1.0;
13/06/2019 16:48:49;116;0;341.09;17;-1.41;10.13;1.0;17.50;70008;5141.796;-12807.463;247;500;499.0;100;100.0;0;1.8;29.4;-1.0;
13/06/2019 16:49:09;116;0;346.01;17;-3.46;18.67;1.0;17.60;69988;5141.792;-12807.582;247;500;497.0;100;100.0;0;1.8;29.4;-1.0;
13/06/2019 16:49:29;116;0;351.43;17;0.26;14.99;1.0;17.50;69994;5141.787;-12807.710;247;500;499.0;100;100.0;0;1.8;29.4;-1.0;
13/06/2019 16:49:49;116;0;344.84;17;-1.37;16.31;1.1;17.60;70002;5141.788;-12807.837;247;500;497.0;100;100.0;0;1.8;29.4;-1.0;
13/06/2019 16:50:09;116;0;350.25;17;5.94;29.40;1.0;17.60;69988;5141.767;-12808.076;247;500;497.0;100;99.9;0;1.8;29.4;-1.0;
13/06/2019 16:50:34;116;0;344.78;17;-2.29;15.97;1.0;17.60;69982;5141.766;-12808.092;247;500;497.0;100;99.9;0;1.8;29.3;-1.0;
13/06/2019 16:50:54;116;0;342.57;17;-0.18;19.04;1.0;17.60;69979;5141.764;-12808.197;247;500;499.0;100;99.9;0;0.0;29.4;-1.0;
13/06/2019 16:51:14;116;0;342.13;17;-2.02;14.18;1.0;17.50;69976;5141.757;-12808.307;223;500;497.0;100;99.9;0;-0.5;29.3;-1.0;
13/06/2019 16:51:34;116;0;347.62;17;-2.57;17.27;1.0;17.60;69967;5141.750;-12808.427;223;500;497.0;100;99.7;0;0.0;29.4;-1.0;
13/06/2019 16:51:54;116;0;344.77;17;-1.29;19.41;1.0;17.60;69976;5141.746;-12808.533;223;500;497.0;100;99.7;0;0.0;29.4;-1.0;
13/06/2019 16:52:14;116;0;346.60;17;0.56;8.90;1.0;17.60;69973;5141.741;-12808.630;223;500;499.0;100;99.9;0;0.0;29.4;-1.0;
13/06/2019 16:52:34;116;0;1.40;17;-3.73;24.88;1.0;17.60;69959;5141.728;-12808.742;223;500;499.0;100;99.9;0;0.0;29.4;-1.0;
13/06/2019 16:52:54;116;0;352.89;17;0.81;22.06;1.0;17.60;69967;5141.719;-12808.842;223;500;499.0;100;99.7;0;0.0;29.4;-1.0;
13/06/2019 16:53:14;116;0;331.91;17;-3.03;13.86;1.0;17.60;69965;5141.700;-12808.958;223;500;497.0;100;99.7;0;0.0;29.4;-1.0;
13/06/2019 16:53:34;116;0;348.02;17;-2.25;15.59;0.9;17.60;69959;5141.691;-12809.075;223;500;499.0;100;99.9;0;0.0;29.4;-1.0;
13/06/2019 16:53:54;116;0;334.20;17;-1.69;18.18;1.0;17.50;69958;5141.687;-12809.197;223;500;499.0;100;99.7;0;0.5;29.4;-1.0;
13/06/2019 16:54:14;116;0;351.94;17;1.60;14.35;1.1;17.50;69958;5141.672;-12809.508;223;500;497.0;100;99.7;0;0.5;29.4;-1.0;
13/06/2019 16:54:52;116;0;355.15;17;-1.61;16.26;1.0;17.50;69953;5141.670;-12809.584;223;500;497.0;100;99.6;0;0.5;29.3;-1.0;
13/06/2019 16:55:12;116;0;355.04;17;-3.32;23.66;1.1;17.50;69953;5141.666;-12809.650;223;500;497.0;100;99.7;0;0.5;29.4;-1.0;
13/06/2019 16:55:32;116;0;336.54;17;-1.50;11.54;1.0;17.50;69947;5141.661;-12809.776;223;500;499.0;100;99.7;0;0.9;29.4;-1.0;
13/06/2019 16:55:52;116;0;1.30;17;0.90;15.34;1.1;17.50;69953;5141.663;-12809.897;223;500;499.0;100;99.7;0;0.5;29.4;-1.0;
13/06/2019 16:56:12;116;0;350.98;17;-0.86;13.84;1.0;17.50;69947;5141.667;-12810.014;223;500;499.0;100;99.7;0;0.9;29.4;-1.0;
13/06/2019 16:56:32;116;0;345.85;17;-0.25;13.65;1.0;17.50;69935;5141.678;-12810.130;223;500;497.0;100;99.7;0;0.9;29.4;-1.0;
13/06/2019 16:56:52;116;0;342.63;17;2.94;15.63;1.1;17.50;69944;5141.679;-12810.237;223;500;497.0;100;99.7;0;0.9;29.4;-1.0;
13/06/2019 16:57:12;116;0;352.88;17;0.98;13.22;1.0;17.50;69928;5141.681;-12810.350;223;500;497.0;100;99.7;0;0.9;29.4;-1.0;
13/06/2019 16:57:32;116;0;353.08;17;0.99;9.34;1.1;17.50;69931;5141.683;-12810.465;223;500;497.0;100;99.6;0;1.4;29.4;-1.0;
13/06/2019 16:57:52;116;0;357.24;17;3.10;11.92;1.0;17.50;69940;5141.694;-12810.579;223;500;497.0;100;99.6;0;1.4;29.4;-1.0;
13/06/2019 16:58:12;116;0;4.52;17;-1.53;21.36;1.1;17.50;69931;5141.699;-12810.894;223;500;499.0;100;99.6;0;1.4;29.3;-1.0;
13/06/2019 16:58:50;116;0;352.08;17;2.19;17.70;1.0;17.50;69925;5141.699;-12810.915;223;500;497.0;100;99.6;0;1.4;29.3;-1.0;
13/06/2019 16:59:10;116;0;338.72;17;-1.78;13.12;1.1;17.50;69930;5141.696;-12811.039;223;500;499.0;100;99.6;0;1.4;29.4;-1.0;
13/06/2019 16:59:30;116;0;352.56;17;1.07;21.88;1.0;17.50;69919;5141.690;-12811.163;223;500;497.0;100;99.6;0;1.4;29.4;-1.0;
13/06/2019 16:59:50;116;0;22.11;17;-7.61;26.64;1.0;17.50;69914;5141.695;-12811.296;223;500;495.0;100;99.6;0;1.8;29.4;-1.0;
13/06/2019 17:00:10;116;0;358.33;17;0.30;21.44;1.0;17.50;69917;5141.695;-12811.296;223;500;497.0;100;99.6;0;1.8;29.4;-1.0;
13/06/2019 17:00:30;116;0;349.20;17;-1.59;7.10;1.0;17.50;69913;5141.699;-12811.550;223;500;497.0;100;99.6;0;1.8;29.4;-1.0;
13/06/2019 17:00:50;116;0;359.44;17;-1.70;20.00;1.1;17.50;69907;5141.706;-12811.689;223;500;499.0;100;99.6;0;1.8;29.4;-1.0;
13/06/2019 17:01:10;116;0;334.58;17;-2.24;11.25;1.1;17.50;69909;5141.706;-12811.760;223;500;497.0;100;99.6;0;1.8;29.4;-1.0;
13/06/2019 17:01:30;116;0;343.72;17;-2.26;14.81;1.0;17.50;69907;5141.700;-12811.856;223;500;499.0;100;99.6;0;0.0;29.4;-1.0;
13/06/2019 17:01:50;116;0;343.83;17;-1.89;11.26;1.0;17.50;69901;5141.696;-12811.972;223;500;499.0;100;99.6;0;-0.5;29.4;-1.0;
13/06/2019 17:02:10;116;0;344.54;17;-0.29;16.99;1.0;17.50;69897;5141.699;-12812.083;217;500;499.0;100;99.6;0;-0.5;29.4;-1.0;
13/06/2019 17:02:30;116;0;338.69;17;-1.96;16.66;1.1;17.50;69903;5141.692;-12812.191;217;500;497.0;100;99.6;0;0.0;29.3;-1.0;
13/06/2019 17:02:50;116;0;347.90;17;-0.78;17.67;1.0;17.50;69900;5141.682;-12812.295;217;500;497.0;100;99.6;0;0.0;29.2;-1.0;
13/06/2019 17:03:10;116;0;323.84;17;-1.35;19.69;1.0;17.40;69893;5141.673;-12812.396;217;500;497.0;100;99.6;0;0.0;29.4;-1.0;
13/06/2019 17:03:30;116;0;336.12;17;-1.87;17.76;0.9;17.40;69890;5141.668;-12812.505;217;500;497.0;100;99.6;0;0.5;29.3;-1.0;
13/06/2019 17:03:50;116;0;348.39;17;1.73;17.43;1.0;17.40;69886;5141.664;-12812.606;217;500;497.0;100;99.4;0;0.5;29.4;-1.0;
13/06/2019 17:04:10;116;0;351.62;17;0.00;15.32;1.0;17.40;69889;5141.661;-12812.706;217;500;497.0;100;99.6;0;0.5;29.4;-1.0;
13/06/2019 17:04:30;116;0;338.34;17;-1.15;20.26;1.0;17.40;69881;5141.661;-12812.823;217;500;499.0;100;99.6;0;0.9;29.3;-1.0;
13/06/2019 17:04:50;116;0;348.22;17;-3.06;15.67;1.0;17.40;69881;5141.660;-12812.931;217;500;497.0;100;99.6;0;0.9;29.3;-1.0;
13/06/2019 17:05:10;116;0;351.43;17;-1.10;20.16;1.0;17.40;69885;5141.681;-12813.151;217;500;497.0;100;99.6;0;0.9;29.3;-1.0;
13/06/2019 17:05:48;116;0;7.01;17;0.05;11.65;1.0;17.40;69886;5141.682;-12813.163;217;500;499.0;100;99.6;0;0.9;29.4;-1.0;
13/06/2019 17:06:08;116;0;10.46;17;-1.24;10.64;1.0;17.40;69879;5141.696;-12813.221;217;500;501.0;100;99.6;0;0.9;29.3;-1.0;
13/06/2019 17:06:28;116;0;354.86;17;2.73;15.02;1.0;17.40;69883;5141.696;-12813.221;217;500;497.0;100;99.6;0;0.9;29.4;-1.0;
13/06/2019 17:06:48;116;0;351.06;17;0.02;12.78;1.0;17.40;69877;5141.714;-12813.345;217;500;499.0;100;99.6;0;0.9;29.4;-1.0;
13/06/2019 17:07:08;116;0;340.45;17;-1.89;16.31;1.0;17.40;69869;5141.716;-12813.420;217;500;499.0;100;99.4;0;0.9;29.3;-1.0;
13/06/2019 17:07:28;116;0;340.45;17;-3.23;13.70;1.0;17.40;69885;5141.708;-12813.491;217;500;499.0;100;99.6;0;0.9;29.3;-1.0;
13/06/2019 17:07:48;116;0;346.69;17;-2.96;14.06;1.0;17.40;69880;5141.692;-12813.638;217;500;497.0;100;99.6;0;0.9;29.4;-1.0;
13/06/2019 17:08:08;116;0;352.65;17;4.22;15.16;1.0;17.40;69877;5141.690;-12813.733;217;500;497.0;100;99.6;0;1.4;29.4;-1.0;
13/06/2019 17:08:28;116;0;337.43;17;2.91;12.58;1.1;17.40;69869;5141.678;-12813.904;217;500;497.0;100;99.6;0;1.4;29.4;-1.0;
13/06/2019 17:08:56;116;0;349.76;17;0.68;17.75;1.0;17.40;69863;5141.677;-12813.921;217;500;499.0;100;99.6;0;1.4;29.3;-1.0;
13/06/2019 17:09:16;116;0;339.52;17;-3.47;20.72;1.0;17.40;69866;5141.669;-12814.033;217;500;497.0;100;99.6;0;1.4;29.4;-1.0;
13/06/2019 17:09:36;116;0;344.27;17;2.55;14.86;1.1;17.40;69871;5141.668;-12814.136;217;500;497.0;100;99.6;0;1.8;29.3;-1.0;
13/06/2019 17:09:56;116;0;326.83;17;-2.77;25.42;1.1;17.40;69869;5141.663;-12814.229;217;500;499.0;100;99.6;0;1.8;29.3;-1.0;
13/06/2019 17:10:16;116;0;342.96;17;-2.84;19.66;1.0;17.40;69863;5141.659;-12814.319;217;500;497.0;100;99.6;0;1.8;29.4;-1.0;
13/06/2019 17:10:36;116;0;339.72;17;-1.69;12.84;1.0;17.30;69862;5141.660;-12814.411;217;500;497.0;100;99.6;0;1.8;29.4;-1.0;
13/06/2019 17:10:56;116;0;350.00;17;1.91;15.81;1.0;17.30;69850;5141.660;-12814.497;217;500;499.0;100;99.6;0;1.8;29.4;-1.0;
13/06/2019 17:11:16;116;0;322.24;17;0.84;9.97;1.0;17.30;69856;5141.647;-12814.589;217;500;499.0;100;99.6;0;0.0;29.4;-1.0;
13/06/2019 17:11:36;116;0;349.13;17;-2.14;15.15;1.1;17.30;69856;5141.646;-12814.684;217;500;497.0;100;99.6;0;0.0;29.3;-1.0;
13/06/2019 17:11:56;116;0;1.60;17;1.05;22.29;1.0;17.30;69865;5141.649;-12814.962;217;500;499.0;100;99.6;0;0.0;29.4;-1.0;
13/06/2019 17:12:34;116;0;343.66;17;1.74;10.50;1.0;17.30;69852;5141.648;-12815.012;217;500;497.0;100;99.6;0;0.0;29.3;-1.0;
13/06/2019 17:12:54;116;0;359.34;17;2.46;16.80;1.0;17.30;69856;5141.650;-12815.077;217;500;497.0;100;99.6;0;0.5;29.3;-1.0;
13/06/2019 17:13:14;116;0;1.51;17;-0.41;24.54;1.1;17.30;69845;5141.660;-12815.177;217;500;495.0;100;99.7;0;0.5;29.4;-1.0;
13/06/2019 17:13:34;116;0;351.96;17;-2.98;12.76;1.1;17.30;69842;5141.662;-12815.281;217;500;495.0;100;99.6;0;0.5;29.3;-1.0;
13/06/2019 17:13:54;116;0;350.05;17;-6.16;20.19;1.0;17.30;69840;5141.670;-12815.382;217;500;499.0;100;99.6;0;0.9;29.4;-1.0;
13/06/2019 17:14:14;116;0;353.98;17;-2.29;14.54;1.0;17.30;69839;5141.676;-12815.471;211;500;495.0;100;99.4;0;0.9;29.3;-1.0;
13/06/2019 17:14:34;116;0;352.60;17;0.05;20.14;1.1;17.30;69828;5141.675;-12815.555;211;500;497.0;100;99.6;0;0.9;29.4;-1.0;
13/06/2019 17:14:54;116;0;349.13;17;-0.08;15.46;1.0;17.30;69836;5141.672;-12815.638;211;500;497.0;100;99.4;0;1.4;29.4;-1.0;
13/06/2019 17:15:14;116;0;347.84;17;-2.52;12.51;1.0;17.20;69826;5141.673;-12815.726;211;500;497.0;100;99.6;0;1.4;29.4;-1.0;
13/06/2019 17:15:34;116;0;357.57;17;-1.95;15.91;1.0;17.20;69829;5141.673;-12815.804;211;500;497.0;100;99.6;0;1.4;29.4;-1.0;
13/06/2019 17:15:54;116;0;354.06;17;-2.02;18.47;1.1;17.20;69828;5141.678;-12815.883;211;500;495.0;100;99.6;0;1.4;29.4;-1.0;
13/06/2019 17:16:14;116;0;349.09;17;-4.73;17.12;1.0;17.20;69817;5141.681;-12815.962;211;500;499.0;100;99.6;0;1.4;29.4;-1.0;
13/06/2019 17:16:34;116;0;348.15;17;-5.04;18.76;1.0;17.20;69820;5141.680;-12816.043;205;500;497.0;100;99.6;0;1.4;29.3;-1.0;
13/06/2019 17:16:54;116;0;332.94;17;-1.93;7.30;1.0;17.20;69818;5141.679;-12816.159;205;500;497.0;100;99.6;0;1.4;29.4;-1.0;
13/06/2019 17:17:14;116;0;354.00;17;2.44;16.11;1.0;17.20;69810;5141.681;-12816.244;205;500;497.0;100;99.6;0;1.8;29.4;-1.0;
13/06/2019 17:17:34;116;0;352.26;17;-0.03;21.59;1.1;17.20;69810;5141.685;-12816.355;205;500;495.0;100;99.6;0;1.8;29.4;-1.0;
13/06/2019 17:17:55;116;0;4.69;17;0.05;15.01;1.0;17.20;69812;5141.688;-12816.399;205;500;497.0;100;99.6;0;1.8;29.3;-1.0;
13/06/2019 17:18:15;116;0;6.94;17;1.22;19.59;1.1;17.20;69806;5141.708;-12816.594;205;500;497.0;100;99.6;0;1.8;29.4;-1.0;
13/06/2019 17:18:57;116;0;358.63;17;0.44;16.21;1.0;17.20;69801;5141.707;-12816.607;205;500;499.0;100;99.6;0;1.8;29.4;-1.0;
13/06/2019 17:19:17;116;0;343.90;17;0.69;7.59;1.0;17.20;69797;5141.704;-12816.699;205;500;497.0;100;99.6;0;1.8;29.3;-1.0;
13/06/2019 17:19:37;116;0;1.29;17;0.84;16.98;1.0;17.20;69797;5141.707;-12816.776;205;500;497.0;100;99.6;0;1.8;29.4;-1.0;
13/06/2019 17:19:57;116;0;344.83;17;-1.64;11.60;1.0;17.20;69797;5141.711;-12816.851;195;500;497.0;100;99.6;0;1.8;29.4;-1.0;
13/06/2019 17:20:17;116;0;352.11;17;1.70;16.75;1.0;17.20;69793;5141.711;-12816.929;195;500;497.0;100;99.4;0;1.8;29.3;-1.0;
13/06/2019 17:20:37;116;0;353.18;17;-2.05;15.52;1.0;17.20;69790;5141.709;-12817.002;195;500;497.0;100;99.6;0;1.8;29.4;-1.0;
13/06/2019 17:20:57;116;0;359.16;17;2.57;13.86;1.1;17.20;69793;5141.712;-12817.078;195;500;499.0;100;99.6;0;1.8;29.4;-1.0;
13/06/2019 17:21:17;116;0;355.95;17;-1.39;14.63;1.0;17.20;69789;5141.716;-12817.153;195;500;499.0;100;99.6;0;1.8;29.4;-1.0;
13/06/2019 17:21:37;116;0;1.79;17;-0.67;5.75;1.1;17.20;69778;5141.716;-12817.227;195;500;497.0;100;99.7;0;1.8;29.4;-1.0;
13/06/2019 17:21:57;116;0;350.04;17;-4.57;15.75;1.0;17.10;69793;5141.714;-12817.301;195;500;497.0;100;99.7;0;1.8;29.4;-1.0;
13/06/2019 17:22:17;116;0;354.33;17;3.42;16.41;1.1;17.10;69774;5141.707;-12817.374;189;500;499.0;100;99.4;0;0.0;29.4;-1.0;
13/06/2019 17:22:37;116;0;0.82;17;0.97;13.27;1.1;17.10;69771;5141.704;-12817.451;189;500;497.0;100;99.6;0;-0.5;29.4;-1.0;
13/06/2019 17:22:57;116;0;351.47;17;-3.72;15.88;1.0;17.10;69778;5141.703;-12817.522;189;500;497.0;100;99.6;0;-0.5;29.3;-1.0;
13/06/2019 17:23:17;116;0;333.57;17;1.88;11.14;1.0;17.10;69779;5141.698;-12817.585;189;500;497.0;100;99.6;0;-0.5;29.4;-1.0;
13/06/2019 17:23:37;116;0;164.48;17;-3.24;9.79;1.0;17.10;69767;5141.677;-12817.614;73;500;497.0;100;99.6;0;-0.5;29.3;-1.0;
13/06/2019 17:23:57;116;0;162.34;17;-1.71;7.43;1.0;17.10;69767;5141.671;-12817.598;73;500;497.0;100;99.6;0;-0.5;29.3;-1.0;
13/06/2019 17:24:17;116;0;189.14;17;1.79;11.00;1.0;17.10;69773;5141.665;-12817.596;73;500;495.0;100;99.6;0;-0.5;29.3;-1.0;
13/06/2019 17:24:37;116;0;187.65;17;-7.67;9.16;1.0;17.10;69767;5141.660;-12817.593;73;500;499.0;100;99.6;0;-0.5;29.4;-1.0;
13/06/2019 17:24:57;116;0;196.60;17;5.48;10.38;1.0;17.10;69776;5141.655;-12817.596;185;500;499.0;100;99.6;0;-0.5;29.4;-1.0;
13/06/2019 17:25:17;116;0;225.40;17;-3.14;9.82;1.0;17.10;69774;5141.650;-12817.597;185;500;499.0;100;99.6;0;-0.5;29.4;-1.0;
13/06/2019 17:25:37;116;0;198.23;17;-5.42;12.54;1.0;17.10;69768;5141.646;-12817.596;185;500;497.0;100;99.6;0;-0.5;29.4;-1.0;
13/06/2019 17:25:57;116;0;206.96;17;0.42;8.67;1.0;17.00;69769;5141.638;-12817.590;185;500;497.0;100;99.6;0;-0.5;29.3;-1.0;
13/06/2019 17:26:17;116;0;210.50;17;-1.21;10.06;1.0;17.00;69772;5141.636;-12817.591;185;500;499.0;100;99.6;0;-0.5;29.4;-1.0;
13/06/2019 17:26:37;116;0;192.10;17;-1.95;10.22;1.0;17.00;69772;5141.634;-12817.594;185;500;497.0;100;99.6;0;-0.5;29.4;-1.0;
13/06/2019 17:26:57;116;0;217.29;17;-4.87;15.76;1.1;17.00;69772;5141.631;-12817.596;185;500;497.0;100;99.6;0;-0.5;29.3;-1.0;
13/06/2019 17:27:17;116;0;198.56;17;3.62;11.80;1.1;17.00;69776;5141.629;-12817.603;185;500;497.0;100;99.6;0;-0.5;29.4;-1.0;
13/06/2019 17:27:37;116;0;200.30;17;-0.17;13.38;1.0;17.00;69772;5141.626;-12817.606;185;500;495.0;100;99.6;0;-0.5;29.2;-1.0;
13/06/2019 17:27:57;116;0;206.11;17;-2.71;8.16;1.0;17.00;69778;5141.617;-12817.605;185;500;499.0;100;99.6;0;-0.5;29.4;-1.0;
13/06/2019 17:28:37;116;0;195.55;17;0.25;13.96;1.1;17.00;69797;5141.614;-12817.604;185;500;497.0;100;99.6;0;-0.5;29.4;-1.0;
13/06/2019 17:28:57;116;0;197.22;17;-1.60;9.92;1.0;17.00;69778;5141.613;-12817.604;185;500;497.0;100;99.6;0;-0.5;29.4;-1.0;
13/06/2019 17:29:17;116;0;206.78;17;2.65;11.01;1.0;17.00;69786;5141.608;-12817.605;185;500;497.0;100;99.6;0;-0.5;29.4;-1.0;
13/06/2019 17:29:37;116;0;188.55;17;-1.40;7.07;1.0;17.00;69786;5141.603;-12817.602;185;500;497.0;100;99.6;0;-0.5;29.4;-1.0;
13/06/2019 17:29:57;116;0;211.66;17;-5.00;9.54;1.0;17.00;69796;5141.600;-12817.604;185;500;497.0;100;99.6;0;-0.5;29.4;-1.0;
13/06/2019 17:30:17;116;0;185.87;17;-1.79;7.76;1.0;17.00;69799;5141.591;-12817.601;185;500;497.0;100;99.6;0;-0.5;29.3;-1.0;
13/06/2019 17:30:44;116;0;206.20;17;-2.02;13.25;1.0;17.00;69805;5141.588;-12817.604;185;500;497.0;100;99.6;0;-0.5;29.3;-1.0;
13/06/2019 17:31:04;116;0;195.73;17;4.00;10.25;1.1;17.00;69793;5141.587;-12817.604;185;500;497.0;100;99.6;0;-0.5;29.3;-1.0;
13/06/2019 17:31:24;116;0;191.77;17;5.98;8.54;1.0;17.00;69789;5141.584;-12817.606;185;500;497.0;100;99.6;0;-0.5;29.3;-1.0;
13/06/2019 17:31:44;116;0;181.93;17;0.85;10.19;1.0;17.00;69803;5141.581;-12817.607;185;500;497.0;100;99.6;0;-0.5;29.4;-1.0;
13/06/2019 17:32:04;116;0;172.39;17;-3.01;5.32;1.1;17.00;69807;5141.575;-12817.607;185;500;497.0;100;99.6;0;-0.5;29.4;-1.0;
13/06/2019 17:32:24;116;0;188.20;17;1.88;6.60;1.0;17.00;69801;5141.569;-12817.609;185;500;497.0;100;99.6;0;-0.5;29.4;-1.0;
13/06/2019 17:32:44;116;0;178.45;17;-1.09;9.01;1.0;17.00;69807;5141.565;-12817.612;185;500;497.0;100;99.6;0;-0.5;29.4;-1.0;
13/06/2019 17:33:04;116;0;190.49;17;4.75;6.71;1.0;17.00;69812;5141.561;-12817.616;185;500;497.0;100;99.4;0;-0.5;29.4;-1.0;
13/06/2019 17:33:24;116;0;192.37;17;-0.47;9.77;1.0;17.00;69815;5141.557;-12817.618;185;500;495.0;100;99.6;0;-0.5;29.3;-1.0;
13/06/2019 17:33:44;116;0;199.73;17;-2.32;10.45;1.0;17.00;69821;5141.550;-12817.612;185;500;499.0;100;99.6;0;-0.5;29.4;-1.0;
13/06/2019 17:34:04;116;0;213.03;17;-1.17;12.61;1.0;17.00;69812;5141.526;-12817.600;185;500;497.0;100;99.6;0;-0.5;29.3;-1.0;
13/06/2019 17:34:42;116;0;314.70;17;-2.47;9.16;1.0;17.00;69820;5141.517;-12817.603;185;500;497.0;100;99.6;0;-0.5;29.4;-1.0;
13/06/2019 17:35:02;116;0;351.86;17;5.79;9.13;1.1;17.00;69818;5141.512;-12817.603;185;500;497.0;100;99.6;0;-0.5;29.4;-1.0;
13/06/2019 17:35:22;116;0;351.54;17;8.36;8.11;1.0;17.00;69810;5141.503;-12817.611;185;500;497.0;100;99.4;0;-0.5;29.4;-1.0;
13/06/2019 17:35:42;116;0;339.36;17;5.15;11.28;1.0;17.00;69817;5141.491;-12817.621;185;500;497.0;100;99.4;0;-0.5;29.4;-1.0;
13/06/2019 17:36:02;116;0;9.04;17;1.65;12.15;1.1;17.10;69810;5141.489;-12817.624;185;500;495.0;100;99.4;0;-0.5;29.3;-1.0;
13/06/2019 17:36:22;116;0;21.79;17;6.95;12.27;1.0;17.10;69818;5141.484;-12817.633;185;500;497.0;100;99.4;0;-0.5;29.3;-1.0;
13/06/2019 17:36:42;116;0;350.93;17;6.40;6.55;1.0;17.10;69820;5141.481;-12817.642;185;500;499.0;100;99.4;0;-0.5;29.3;-1.0;
13/06/2019 17:37:02;116;0;3.80;17;-3.13;4.57;1.1;17.10;69823;5141.473;-12817.653;185;500;499.0;100;99.4;0;-0.5;29.3;-1.0;
13/06/2019 17:37:22;116;0;1.56;17;8.48;7.30;1.0;17.10;69831;5141.468;-12817.661;185;500;499.0;100;99.6;0;-0.5;29.4;-1.0;
13/06/2019 17:37:42;116;0;7.96;17;-0.98;3.17;1.0;17.10;69841;5141.461;-12817.673;185;500;497.0;100;99.4;0;-0.5;29.3;-1.0;
13/06/2019 17:38:02;116;0;342.68;17;5.66;9.89;1.0;17.20;69840;5141.449;-12817.687;185;500;497.0;100;99.4;0;-0.5;29.4;-1.0;
13/06/2019 17:38:22;116;0;22.19;17;4.57;6.55;1.0;17.20;69847;5141.445;-12817.695;185;500;497.0;100;99.4;0;-0.5;29.4;-1.0;
13/06/2019 17:38:42;116;0;349.00;17;4.48;12.41;1.0;17.20;69857;5141.443;-12817.699;185;500;497.0;100;99.4;0;-0.5;29.3;-1.0;
13/06/2019 17:39:02;116;0;358.06;17;5.57;6.90;1.0;17.20;69858;5141.428;-12817.717;185;500;497.0;100;99.6;0;-0.5;29.4;-1.0;
13/06/2019 17:39:27;116;0;354.92;17;-8.74;19.38;1.1;17.20;69861;5141.422;-12817.729;185;500;497.0;100;100.1;0;0.0;29.3;-1.0;
13/06/2019 17:39:50;116;0;338.48;17;-7.39;6.73;1.0;17.30;69874;5141.418;-12817.738;185;500;495.0;100;100.6;0;-0.5;29.3;-1.0;
13/06/2019 17:40:10;116;0;2.44;17;-70.58;34.04;2.2;17.30;69862;5141.417;-12817.739;185;500;495.0;100;100.6;0;-0.5;29.4;-1.0;
13/06/2019 17:40:30;116;0;335.84;17;-10.58;5.18;1.1;17.30;69840;5141.408;-12817.740;185;500;495.0;100;100.4;0;-0.5;29.3;-1.0;
13/06/2019 17:40:56;116;0;323.69;17;-9.50;4.04;1.1;17.30;69810;5141.408;-12817.740;185;500;495.0;100;100.4;0;-0.5;29.3;-1.0;
13/06/2019 17:41:16;116;0;327.77;17;-4.84;5.84;1.1;17.30;69803;5141.405;-12817.742;185;500;495.0;100;100.4;0;-0.5;29.3;-1.0;
13/06/2019 17:41:36;116;0;305.31;17;-7.03;4.23;1.0;17.30;69784;5141.403;-12817.743;185;500;497.0;100;100.4;0;-0.5;29.3;-1.0;
13/06/2019 17:41:56;116;0;319.63;17;-13.54;3.60;1.1;17.20;69783;5141.401;-12817.747;185;500;497.0;100;100.4;0;-0.5;29.4;-1.0;
13/06/2019 17:42:16;116;0;334.59;17;-9.84;3.29;1.0;17.20;69783;5141.400;-12817.747;185;500;495.0;100;100.4;0;-0.5;29.3;-1.0;
13/06/2019 17:42:36;116;0;330.73;17;-7.96;3.89;1.1;17.20;69779;5141.397;-12817.750;185;500;497.0;100;100.3;0;-0.5;29.4;-1.0;
13/06/2019 17:42:56;116;0;304.55;17;-25.98;0.39;1.2;17.20;69770;5141.396;-12817.750;185;500;497.0;100;100.4;0;-0.5;29.4;-1.0;
13/06/2019 17:43:16;110;0;330.52;17;-14.86;2.27;1.1;17.20;69771;5141.396;-12817.750;185;-250;394.1;100;100.3;0;-0.5;29.4;-1.0;
13/06/2019 17:43:26;110;0;317.10;17;-11.93;3.39;1.1;17.20;70024;5141.396;-12817.750;185;-250;249.5;100;100.4;0;0.0;29.3;-1.0;
13/06/2019 17:43:36;110;0;308.43;17;-19.45;0.35;1.1;17.20;70205;5141.396;-12817.750;185;-250;103.0;100;100.4;0;0.0;29.3;-1.0;
13/06/2019 17:43:46;110;0;338.73;17;-27.08;6.05;1.4;17.10;70438;5141.396;-12817.750;185;-250;-61.4;100;100.6;0;-0.5;29.3;-1.0;
13/06/2019 17:43:56;110;0;340.63;17;-56.33;3.41;2.4;17.10;70717;5141.396;-12817.750;185;-250;-249.5;92;91.8;0;-0.5;29.3;-1.0;
13/06/2019 17:44:06;110;0;333.42;17;-53.40;7.39;4.1;17.10;71024;5141.396;-12817.750;185;-250;-249.5;72;72.0;0;-0.5;29.4;-1.0;
13/06/2019 17:44:16;100;0;328.17;17;-37.04;4.26;6.4;17.10;70991;5141.396;-12817.750;185;-250;-249.5;71;70.9;0;0.0;29.4;-1.0;
13/06/2019 17:44:36;100;0;319.55;17;-22.70;4.38;10.1;17.10;70972;5141.396;-12817.750;185;-250;-247.5;71;70.6;0;-0.5;29.3;0.0;
13/06/2019 17:44:56;100;0;317.04;17;-20.92;4.00;13.3;17.00;70956;5141.396;-12817.750;185;-250;-245.5;71;70.6;45;45.1;29.3;0.0;
13/06/2019 17:45:16;100;0;303.11;17;-18.23;25.44;16.0;16.90;70928;5141.396;-12817.750;185;-250;-243.6;71;70.8;45;45.6;29.3;0.0;
13/06/2019 17:45:36;100;0;289.21;17;-18.87;25.90;18.5;16.80;70907;5141.396;-12817.750;185;-250;-243.6;71;70.8;44;43.8;29.4;0.0;
13/06/2019 17:45:56;100;0;271.99;17;-19.09;24.41;21.0;16.80;70902;5141.396;-12817.750;185;-250;-243.6;71;70.6;31;31.1;29.3;0.0;
13/06/2019 17:46:16;100;0;255.36;17;-19.50;17.74;23.4;16.70;70892;5141.396;-12817.750;185;-250;-245.5;71;70.6;24;23.9;29.3;0.0;
13/06/2019 17:46:36;100;0;235.39;17;-19.46;14.41;25.9;16.60;70859;5141.396;-12817.750;185;-250;-243.6;71;70.6;16;15.8;29.3;0.0;
13/06/2019 17:46:56;100;0;227.42;17;-19.90;10.40;28.5;16.50;70807;5141.396;-12817.750;185;-250;-243.6;71;70.6;18;18.1;29.4;0.0;
13/06/2019 17:47:16;118;0;213.50;17;-18.93;12.15;31.2;16.40;70773;5141.396;-12817.750;185;150;-227.7;49;48.9;0;-0.5;29.3;0.0;
13/06/2019 17:47:26;118;0;175.10;17;4.19;3.61;32.0;16.40;70669;5141.396;-12817.750;185;150;-67.3;49;49.3;0;-0.5;29.1;0.0;
13/06/2019 17:47:36;118;0;176.27;17;25.81;3.12;31.5;16.30;70444;5141.396;-12817.750;185;150;85.1;49;49.2;0;-0.5;29.1;-1.0;
13/06/2019 17:47:46;118;0;174.01;17;33.30;3.23;30.3;16.30;70184;5141.396;-12817.750;185;150;156.4;49;49.3;0;-0.5;29.1;-1.0;
13/06/2019 17:47:56;118;0;200.36;17;35.04;3.24;28.8;16.20;70080;5141.396;-12817.750;185;150;158.4;49;49.3;0;-0.5;29.3;-1.0;
13/06/2019 17:48:06;117;0;202.15;17;34.24;3.39;27.1;16.20;70068;5141.396;-12817.750;185;150;158.4;49;49.2;0;-0.5;29.3;-1.0;
13/06/2019 17:48:26;117;0;202.52;17;36.80;3.21;23.5;16.10;70088;5141.396;-12817.750;185;150;158.4;49;49.2;-8;-8.1;29.3;-1.0;
13/06/2019 17:48:46;117;0;200.97;17;35.42;-0.77;18.9;16.00;70100;5141.396;-12817.750;185;150;158.4;49;49.2;-13;-13.1;29.3;-1.0;
13/06/2019 17:49:06;117;0;191.33;17;35.06;-3.52;14.5;16.00;70120;5141.396;-12817.750;185;150;160.4;49;49.2;-12;-12.2;29.3;-1.0;
13/06/2019 17:49:26;117;0;197.20;17;36.00;-1.46;10.4;15.90;70145;5141.396;-12817.750;185;150;158.4;49;49.2;-19;-19.0;29.3;-1.0;
