Timestamp;NavState;SecurityLevel;Heading;Declination;Pitch;Roll;Depth;Temperature;Pa;Lat;Lon;DesiredH;BallastCmd;BallastPos;LinCmd;LinPos;AngCmd;AngPos;Voltage;Altitude;
16/06/2019 13:10:38;117;0;20.84;17;15.59;4.82;9.8;10.60;69479;5124.971;-12838.415;52;150;158.4;57;57.1;0;-0.5;28.7;-1.0;
16/06/2019 13:10:48;110;0;19.98;17;15.42;3.04;9.0;10.60;69494;5124.971;-12838.415;52;-300;-63.4;73;73.3;0;-0.9;28.6;-1.0;
16/06/2019 13:10:58;110;0;27.54;17;-9.25;3.26;8.6;10.70;70010;5124.971;-12838.415;52;-300;-301.0;73;73.0;0;-0.9;28.6;-1.0;
16/06/2019 13:11:08;110;0;15.78;17;-21.99;3.43;9.3;10.70;70285;5124.971;-12838.415;52;-300;-305.0;73;73.0;0;-0.9;28.7;-1.0;
16/06/2019 13:11:18;100;0;12.67;17;-26.99;3.38;11.0;10.70;70277;5124.971;-12838.415;52;-300;-303.0;73;73.0;0;-0.9;28.7;-1.0;
16/06/2019 13:11:38;100;0;11.54;17;-27.31;3.11;15.0;10.80;70283;5124.971;-12838.415;52;-300;-305.0;73;73.0;-5;-5.4;28.7;0.0;
16/06/2019 13:11:58;100;0;12.11;17;-26.78;1.09;19.5;10.80;70282;5124.971;-12838.415;52;-300;-305.0;73;72.9;-4;-4.1;28.7;0.0;
16/06/2019 13:12:18;100;0;3.74;17;-25.90;2.06;23.8;10.90;70264;5124.971;-12838.415;52;-300;-305.0;73;73.0;-9;-9.5;28.7;0.0;
16/06/2019 13:12:38;100;0;357.71;17;-26.16;-1.09;28.1;10.90;70248;5124.971;-12838.415;52;-300;-306.9;73;73.0;-11;-10.8;28.7;0.0;
16/06/2019 13:12:58;100;0;351.51;17;-26.13;-1.82;32.4;10.90;70229;5124.971;-12838.415;52;-300;-303.0;73;73.2;-13;-13.1;28.7;0.0;
16/06/2019 13:13:19;100;0;351.31;17;-24.91;-2.80;36.6;10.90;70167;5124.971;-12838.415;52;-300;-305.0;73;73.0;-11;-10.8;28.7;0.0;
16/06/2019 13:13:39;100;0;344.74;17;-24.76;-1.21;40.4;11.00;70130;5124.971;-12838.415;52;-300;-305.0;73;73.0;-16;-15.8;28.7;0.0;
16/06/2019 13:13:59;100;0;341.14;17;-25.42;-3.98;44.2;10.90;70100;5124.971;-12838.415;52;-300;-305.0;73;73.0;-18;-18.1;28.7;0.0;
16/06/2019 13:14:19;100;0;343.07;17;-24.98;-4.95;48.0;10.90;70078;5124.971;-12838.415;52;-300;-305.0;73;73.0;-18;-18.5;28.7;0.0;
16/06/2019 13:14:39;100;0;344.60;17;-24.81;-4.93;51.7;10.90;70049;5124.971;-12838.415;52;-300;-305.0;73;73.0;-19;-19.0;28.7;0.0;
16/06/2019 13:14:59;100;0;343.45;17;-24.97;-5.42;55.6;10.90;70042;5124.971;-12838.415;52;-300;-305.0;73;73.0;-21;-21.2;28.7;0.0;
16/06/2019 13:15:19;100;0;345.74;17;-24.67;-6.51;59.4;10.90;70027;5124.971;-12838.415;52;-300;-305.0;73;73.0;-22;-22.6;28.7;0.0;
16/06/2019 13:15:39;100;0;349.71;17;-24.76;-7.00;63.2;10.90;70012;5124.971;-12838.415;52;-300;-305.0;73;73.0;-22;-22.6;28.7;0.0;
16/06/2019 13:15:59;100;0;345.71;17;-24.92;-7.12;66.9;10.90;69999;5124.971;-12838.415;52;-300;-305.0;73;73.0;-25;-24.8;28.7;0.0;
16/06/2019 13:16:19;100;0;348.07;17;-24.59;-8.13;70.6;10.90;69967;5124.971;-12838.415;52;-300;-305.0;73;73.0;-23;-22.6;28.7;0.0;
16/06/2019 13:16:39;100;0;349.04;17;-24.31;-6.77;74.3;10.90;69956;5124.971;-12838.415;52;-300;-305.0;73;73.0;-23;-22.1;28.7;0.0;
16/06/2019 13:16:59;100;0;352.42;17;-23.91;-6.62;77.7;10.90;69918;5124.971;-12838.415;52;-300;-305.0;73;73.0;-21;-21.2;28.7;0.0;
16/06/2019 13:17:19;100;0;347.18;17;-23.81;-5.79;81.2;10.90;69905;5124.971;-12838.415;52;-300;-305.0;73;73.0;-25;-24.8;28.7;0.0;
16/06/2019 13:17:39;100;0;342.83;17;-24.52;-8.33;84.5;10.90;69884;5124.971;-12838.415;52;-300;-306.9;73;73.0;-27;-27.1;28.7;0.0;
16/06/2019 13:17:59;100;0;340.52;17;-23.92;-9.28;87.7;10.80;69877;5124.971;-12838.415;52;-300;-305.0;73;73.0;-27;-27.5;28.7;0.0;
16/06/2019 13:18:19;100;0;340.58;17;-23.38;-9.41;91.0;10.80;69862;5124.971;-12838.415;52;-300;-305.0;73;73.0;-26;-26.2;28.7;0.0;
16/06/2019 13:18:39;100;0;342.26;17;-23.30;-8.47;94.4;10.80;69841;5124.971;-12838.415;52;-300;-305.0;73;73.0;-25;-24.8;28.7;0.0;
16/06/2019 13:18:59;100;0;342.34;17;-22.56;-7.56;97.7;10.80;69835;5124.971;-12838.415;52;-300;-306.9;73;73.0;-25;-23.9;28.7;0.0;
16/06/2019 13:19:19;100;0;341.82;17;-23.35;-7.66;100.9;10.70;69833;5124.971;-12838.415;52;-300;-305.0;73;73.0;-25;-23.9;28.7;0.0;
16/06/2019 13:19:39;100;0;340.39;17;-22.98;-7.58;104.1;10.70;69820;5124.971;-12838.415;52;-300;-305.0;73;73.0;-26;-26.2;28.7;0.0;
16/06/2019 13:19:59;100;0;343.59;17;-22.03;-9.05;107.1;10.70;69826;5124.971;-12838.415;52;-300;-305.0;73;73.0;-24;-23.9;28.7;0.0;
16/06/2019 13:20:19;100;0;339.32;17;-22.34;-7.23;110.0;10.70;69801;5124.971;-12838.415;52;-300;-305.0;73;73.0;-27;-27.1;28.7;0.0;
16/06/2019 13:20:39;100;0;344.82;17;-21.18;-9.58;112.9;10.70;69797;5124.971;-12838.415;52;-300;-305.0;73;73.0;-23;-23.0;28.7;0.0;
16/06/2019 13:20:59;100;0;348.13;17;-21.55;-6.92;115.3;10.60;69782;5124.971;-12838.415;52;-300;-306.9;73;73.0;-22;-22.1;28.7;0.0;
16/06/2019 13:21:19;100;0;353.07;17;-21.11;-6.96;117.6;10.60;69768;5124.971;-12838.415;52;-300;-305.0;73;73.0;-20;-19.9;28.7;0.0;
16/06/2019 13:21:39;100;0;358.20;17;-20.73;-5.73;120.1;10.60;69754;5124.971;-12838.415;52;-300;-306.9;73;73.0;-18;-18.1;28.7;0.0;
16/06/2019 13:21:59;100;0;3.01;17;-20.77;-4.73;122.5;10.60;69742;5124.971;-12838.415;52;-300;-306.9;73;73.0;-17;-17.1;28.7;0.0;
16/06/2019 13:22:19;100;0;6.77;17;-20.69;-4.64;124.8;10.50;69733;5124.971;-12838.415;52;-300;-306.9;73;73.0;-17;-17.1;28.7;0.0;
16/06/2019 13:22:39;100;0;9.43;17;-20.11;-4.58;127.2;10.50;69722;5124.971;-12838.415;52;-300;-305.0;73;73.0;-17;-17.1;28.7;0.0;
16/06/2019 13:22:59;100;0;9.38;17;-19.60;-4.49;129.6;10.50;69708;5124.971;-12838.415;52;-300;-305.0;73;73.0;-18;-18.1;28.7;0.0;
16/06/2019 13:23:19;100;0;11.09;17;-19.03;-5.18;132.0;10.50;69692;5124.971;-12838.415;52;-300;-305.0;73;73.0;-18;-18.5;28.7;0.0;
16/06/2019 13:23:39;100;0;7.70;17;-19.88;-5.31;134.2;10.40;69683;5124.971;-12838.415;52;-300;-306.9;73;73.0;-21;-21.2;28.7;0.0;
16/06/2019 13:23:59;100;0;6.92;17;-19.37;-6.52;136.5;10.40;69671;5124.971;-12838.415;52;-300;-306.9;73;73.0;-21;-21.2;28.7;0.0;
16/06/2019 13:24:19;100;0;5.25;17;-19.35;-6.55;138.9;10.40;69662;5124.971;-12838.415;52;-300;-306.9;73;73.0;-21;-21.7;28.7;0.0;
16/06/2019 13:24:39;100;0;2.92;17;-18.89;-6.52;141.1;10.30;69649;5124.971;-12838.415;52;-300;-305.0;73;73.0;-22;-22.1;28.7;0.0;
16/06/2019 13:24:59;100;0;3.95;17;-18.88;-7.08;143.3;10.30;69627;5124.971;-12838.415;52;-300;-305.0;73;73.0;-21;-21.2;28.7;0.0;
16/06/2019 13:25:19;100;0;3.98;17;-18.93;-6.16;145.6;10.30;69625;5124.971;-12838.415;52;-300;-306.9;73;73.0;-21;-20.8;28.7;0.0;
16/06/2019 13:25:39;100;0;4.84;17;-18.77;-6.17;147.8;10.20;69620;5124.971;-12838.415;52;-300;-305.0;73;73.0;-20;-19.4;28.7;0.0;
16/06/2019 13:25:59;100;0;3.70;17;-18.89;-5.36;149.9;10.20;69610;5124.971;-12838.415;52;-300;-305.0;73;73.0;-21;-21.2;28.7;0.0;
16/06/2019 13:26:19;100;0;4.31;17;-19.16;-6.76;152.0;10.20;69586;5124.971;-12838.415;52;-300;-305.0;73;73.0;-20;-19.9;28.7;0.0;
16/06/2019 13:26:39;100;0;3.34;17;-19.09;-5.61;154.0;10.10;69583;5124.971;-12838.415;52;-300;-305.0;73;73.0;-21;-21.2;28.7;0.0;
16/06/2019 13:26:59;100;0;3.71;17;-19.31;-6.70;156.2;10.10;69574;5124.971;-12838.415;52;-300;-306.9;73;73.0;-21;-21.7;28.7;0.0;
16/06/2019 13:27:19;100;0;5.74;17;-18.99;-6.67;158.4;10.10;69568;5124.971;-12838.415;52;-300;-305.0;73;73.0;-20;-19.9;28.7;0.0;
16/06/2019 13:27:39;100;0;6.67;17;-18.85;-5.58;160.5;10.10;69564;5124.971;-12838.415;52;-300;-305.0;73;73.0;-19;-19.0;28.7;0.0;
16/06/2019 13:27:59;100;0;6.18;17;-18.94;-5.65;162.6;10.00;69544;5124.971;-12838.415;52;-300;-305.0;73;73.0;-20;-19.9;28.7;0.0;
16/06/2019 13:28:19;100;0;8.95;17;-19.67;-5.67;164.6;10.00;69543;5124.971;-12838.415;52;-300;-305.0;73;73.0;-19;-19.0;28.7;0.0;
16/06/2019 13:28:39;100;0;10.04;17;-18.10;-5.39;166.7;9.90;69532;5124.971;-12838.415;52;-300;-305.0;73;72.9;-18;-18.1;28.7;0.0;
16/06/2019 13:28:59;100;0;10.38;17;-18.60;-4.45;168.7;9.90;69533;5124.971;-12838.415;52;-300;-306.9;73;73.0;-19;-19.0;28.7;0.0;
16/06/2019 13:29:19;100;0;11.77;17;-19.11;-5.64;170.7;9.90;69517;5124.971;-12838.415;52;-300;-305.0;73;73.0;-18;-17.6;28.7;43.2;
16/06/2019 13:29:39;100;0;10.29;17;-19.18;-4.65;172.8;9.90;69519;5124.971;-12838.415;52;-300;-306.9;73;73.0;-19;-19.0;28.7;41.1;
16/06/2019 13:29:59;100;0;12.49;17;-18.65;-6.07;175.0;9.80;69503;5124.971;-12838.415;52;-300;-305.0;73;73.2;-18;-18.1;28.7;38.9;
16/06/2019 13:30:19;100;0;10.73;17;-19.13;-4.79;177.3;9.80;69504;5124.971;-12838.415;52;-300;-306.9;73;73.0;-20;-19.9;28.7;36.5;
16/06/2019 13:30:39;100;0;12.41;17;-17.63;-6.14;179.5;9.80;69495;5124.971;-12838.415;52;-300;-305.0;73;73.0;-18;-18.1;28.7;34.1;
16/06/2019 13:30:59;100;0;13.11;17;-19.73;-4.64;181.5;9.70;69494;5124.971;-12838.415;52;-300;-305.0;73;73.0;-18;-17.1;28.7;32.0;
16/06/2019 13:31:19;100;0;12.55;17;-18.62;-4.62;183.8;9.70;69493;5124.971;-12838.415;52;-300;-305.0;73;73.0;-19;-19.0;28.7;29.7;
16/06/2019 13:31:39;100;0;13.71;17;-18.72;-5.76;185.8;9.70;69491;5124.971;-12838.415;52;-300;-306.9;73;73.0;-18;-17.6;28.7;27.6;
16/06/2019 13:31:59;100;0;14.34;17;-18.49;-4.59;188.0;9.60;69483;5124.971;-12838.415;52;-300;-306.9;73;73.0;-18;-17.1;28.6;25.3;
16/06/2019 13:32:19;100;0;12.92;17;-19.15;-4.53;190.3;9.60;69486;5124.971;-12838.415;52;-300;-306.9;73;73.0;-19;-19.0;28.7;23.0;
16/06/2019 13:32:39;100;0;12.97;17;-18.86;-5.65;192.3;9.60;69484;5124.971;-12838.415;52;-300;-305.0;73;73.0;-19;-19.4;28.7;20.7;
16/06/2019 13:32:59;100;0;13.69;17;-18.73;-5.60;194.6;9.60;69481;5124.971;-12838.415;52;-300;-305.0;73;73.0;-18;-18.1;28.7;18.4;
16/06/2019 13:33:19;118;0;15.90;17;-16.68;-4.91;196.7;9.50;69476;5124.971;-12838.415;52;150;-293.1;57;56.8;0;0.9;28.7;16.2;
16/06/2019 13:33:29;118;0;47.62;17;1.51;3.99;197.5;9.50;69394;5124.971;-12838.415;52;150;-134.7;57;57.2;0;0.9;28.1;16.2;
16/06/2019 13:33:39;118;0;46.31;17;19.74;3.84;197.2;9.50;69189;5124.971;-12838.415;52;150;19.8;57;57.2;0;0.9;28.1;-1.0;
16/06/2019 13:33:49;118;0;43.99;17;22.90;3.88;196.3;9.50;68920;5124.971;-12838.415;52;150;154.5;57;57.2;0;0.9;28.1;-1.0;
16/06/2019 13:33:59;118;0;10.75;17;23.47;4.18;195.1;9.50;68724;5124.971;-12838.415;52;150;154.5;57;57.2;0;0.9;28.7;-1.0;
16/06/2019 13:34:09;118;0;12.34;17;27.20;4.01;193.5;9.50;68728;5124.971;-12838.415;52;150;156.4;57;57.2;0;0.9;28.7;-1.0;
16/06/2019 13:34:19;117;0;12.60;17;27.49;3.73;191.7;9.50;68736;5124.971;-12838.415;52;150;156.4;57;57.2;0;0.9;28.7;-1.0;
16/06/2019 13:34:39;117;0;10.98;17;28.02;4.24;187.5;9.50;68721;5124.971;-12838.415;52;150;156.4;57;57.2;20;20.3;28.7;-1.0;
16/06/2019 13:34:59;117;0;15.55;17;28.13;13.66;182.6;9.40;68722;5124.971;-12838.415;52;150;156.4;57;57.2;17;17.1;28.7;-1.0;
16/06/2019 13:35:19;117;0;20.65;17;27.76;11.56;178.0;9.40;68709;5124.971;-12838.415;52;150;156.4;57;57.1;15;14.9;28.7;-1.0;
16/06/2019 13:35:39;117;0;25.24;17;27.20;9.80;173.4;9.40;68710;5124.971;-12838.415;52;150;156.4;57;57.1;13;13.1;28.7;-1.0;
16/06/2019 13:35:59;117;0;26.96;17;28.41;9.65;168.8;9.30;68693;5124.971;-12838.415;52;150;158.4;57;57.1;14;14.0;28.7;-1.0;
16/06/2019 13:36:19;117;0;30.83;17;28.01;10.53;164.1;9.30;68695;5124.971;-12838.415;52;150;156.4;57;57.1;13;13.1;28.7;-1.0;
16/06/2019 13:36:39;117;0;34.96;17;27.99;9.18;159.6;9.30;68699;5124.971;-12838.415;52;150;156.4;57;57.1;13;12.6;28.7;-1.0;
16/06/2019 13:36:59;117;0;38.68;17;27.86;9.32;154.9;9.30;68698;5124.971;-12838.415;52;150;156.4;57;57.1;11;10.8;28.7;-1.0;
16/06/2019 13:37:19;117;0;46.91;17;27.25;8.00;150.4;9.20;68706;5124.971;-12838.415;52;150;156.4;57;57.1;7;7.2;28.7;-1.0;
16/06/2019 13:37:39;117;0;45.21;17;27.25;6.43;146.1;9.20;68712;5124.971;-12838.415;52;150;158.4;57;57.1;10;9.9;28.7;-1.0;
16/06/2019 13:37:59;117;0;49.10;17;26.72;8.22;141.9;9.20;68729;5124.971;-12838.415;52;150;158.4;57;57.2;8;8.1;28.7;-1.0;
16/06/2019 13:38:19;117;0;50.71;17;26.39;6.88;138.0;9.20;68728;5124.971;-12838.415;52;150;156.4;57;57.2;8;7.7;28.7;-1.0;
16/06/2019 13:38:39;117;0;50.65;17;26.41;6.92;134.3;9.20;68735;5124.971;-12838.415;52;150;156.4;57;57.2;8;7.7;28.7;-1.0;
16/06/2019 13:38:59;117;0;49.95;17;25.63;6.93;130.2;9.20;68749;5124.971;-12838.415;52;150;158.4;57;57.2;8;7.7;28.7;-1.0;
16/06/2019 13:39:19;117;0;45.37;17;26.13;7.08;126.6;9.20;68757;5124.971;-12838.415;52;150;156.4;57;57.2;10;9.9;28.7;-1.0;
16/06/2019 13:39:39;117;0;41.42;17;26.60;8.40;122.8;9.20;68764;5124.971;-12838.415;52;150;158.4;57;57.2;12;12.2;28.7;-1.0;
16/06/2019 13:39:59;117;0;38.51;17;26.41;9.49;118.6;9.20;68785;5124.971;-12838.415;52;150;156.4;57;57.2;12;13.1;28.7;-1.0;
16/06/2019 13:40:19;117;0;40.80;17;26.44;10.12;114.2;9.20;68790;5124.971;-12838.415;52;150;158.4;57;57.2;10;9.9;28.7;-1.0;
16/06/2019 13:40:39;117;0;44.95;17;24.19;7.95;110.0;9.20;68806;5124.971;-12838.415;52;150;156.4;57;57.1;7;6.8;28.7;-1.0;
16/06/2019 13:40:59;117;0;47.68;17;23.23;6.40;106.6;9.20;68812;5124.971;-12838.415;52;150;156.4;57;57.1;5;4.5;28.7;-1.0;
16/06/2019 13:41:19;117;0;49.64;17;22.25;5.18;103.4;9.20;68822;5124.971;-12838.415;52;150;158.4;57;57.1;4;3.6;28.7;-1.0;
16/06/2019 13:41:39;117;0;45.21;17;22.22;4.51;100.4;9.20;68838;5124.971;-12838.415;52;150;156.4;57;57.2;7;7.7;28.7;-1.0;
16/06/2019 13:41:59;117;0;46.58;17;21.84;7.19;97.7;9.20;68849;5124.971;-12838.415;52;150;156.4;57;57.1;6;5.9;28.7;-1.0;
16/06/2019 13:42:19;117;0;47.81;17;22.21;5.79;94.8;9.20;68849;5124.971;-12838.415;52;150;156.4;57;57.1;5;5.0;28.7;-1.0;
16/06/2019 13:42:39;117;0;48.00;17;21.72;5.32;91.8;9.20;68859;5124.971;-12838.415;52;150;158.4;57;57.2;4;4.1;28.7;-1.0;
16/06/2019 13:42:59;117;0;53.39;17;21.30;5.01;89.0;9.20;68862;5124.971;-12838.415;52;150;158.4;57;57.2;1;0.9;28.7;-1.0;
16/06/2019 13:43:19;117;0;56.61;17;21.67;3.26;86.4;9.20;68869;5124.971;-12838.415;52;150;158.4;57;57.2;0;-0.5;28.7;-1.0;
16/06/2019 13:43:39;117;0;57.04;17;21.66;2.71;83.8;9.20;68884;5124.971;-12838.415;52;150;156.4;57;57.2;0;-1.4;28.7;-1.0;
16/06/2019 13:43:59;117;0;61.69;17;20.53;2.79;81.3;9.20;68882;5124.971;-12838.415;52;150;158.4;57;57.1;-2;-1.8;28.7;-1.0;
16/06/2019 13:44:19;117;0;62.82;17;20.22;2.10;79.2;9.20;68905;5124.971;-12838.415;52;150;158.4;57;57.2;-2;-2.3;28.7;-1.0;
16/06/2019 13:44:39;117;0;62.46;17;20.37;1.97;77.0;9.20;68897;5124.971;-12838.415;52;150;158.4;57;57.2;-2;-2.3;28.7;-1.0;
16/06/2019 13:45:00;117;0;57.36;17;20.19;2.06;74.8;9.20;68918;5124.971;-12838.415;52;150;158.4;57;57.2;0;0.5;28.7;-1.0;
16/06/2019 13:45:20;117;0;59.29;17;19.90;3.62;72.6;9.30;68918;5124.971;-12838.415;52;150;158.4;57;57.2;-2;-1.8;28.7;-1.0;
16/06/2019 13:45:40;117;0;59.82;17;19.62;1.97;70.4;9.30;68938;5124.971;-12838.415;52;150;158.4;57;57.2;-2;-2.3;28.7;-1.0;
16/06/2019 13:46:00;117;0;58.30;17;19.87;1.98;68.3;9.30;68944;5124.971;-12838.415;52;150;160.4;57;57.1;-2;-2.7;28.7;-1.0;
16/06/2019 13:46:20;117;0;57.19;17;19.42;1.99;66.1;9.30;68962;5124.971;-12838.415;52;150;158.4;57;57.2;-2;-2.7;28.7;-1.0;
16/06/2019 13:46:40;117;0;57.10;17;19.55;2.03;63.9;9.30;68977;5124.971;-12838.415;52;150;158.4;57;57.2;-3;-3.2;28.7;-1.0;
16/06/2019 13:47:00;117;0;57.74;17;19.34;1.44;61.8;9.30;68979;5124.971;-12838.415;52;150;158.4;57;57.2;-4;-4.5;28.7;-1.0;
16/06/2019 13:47:20;117;0;59.30;17;18.96;0.94;59.5;9.40;69001;5124.971;-12838.415;52;150;156.4;57;57.2;-6;-5.9;28.7;-1.0;
16/06/2019 13:47:40;117;0;57.17;17;18.75;-0.08;57.3;9.40;69004;5124.971;-12838.415;52;150;158.4;57;57.2;-5;-5.0;28.7;-1.0;
16/06/2019 13:48:00;117;0;53.21;17;19.21;1.24;55.0;9.40;69017;5124.971;-12838.415;52;150;156.4;57;57.2;-3;-3.2;28.7;-1.0;
16/06/2019 13:48:20;117;0;51.01;17;19.51;1.68;52.6;9.40;69022;5124.971;-12838.415;52;150;156.4;57;57.1;-4;-4.1;28.7;-1.0;
16/06/2019 13:48:40;117;0;47.52;17;19.82;0.82;50.0;9.40;69043;5124.971;-12838.415;52;150;158.4;57;57.1;-3;-3.2;28.7;-1.0;
16/06/2019 13:49:00;117;0;47.31;17;18.51;2.20;47.5;9.50;69047;5124.971;-12838.415;52;150;158.4;57;57.2;-4;-4.1;28.7;-1.0;
16/06/2019 13:49:20;117;0;47.58;17;18.58;1.00;45.1;9.50;69060;5124.971;-12838.415;52;150;158.4;57;57.2;-5;-5.4;28.7;-1.0;
16/06/2019 13:49:40;117;0;45.81;17;18.33;0.37;42.9;9.50;69062;5124.971;-12838.415;52;150;160.4;57;57.2;-5;-5.9;28.7;-1.0;
16/06/2019 13:50:00;117;0;43.87;17;18.56;0.40;40.8;9.50;69074;5124.971;-12838.415;52;150;158.4;57;57.2;-5;-5.4;28.7;-1.0;
16/06/2019 13:50:20;117;0;42.23;17;18.40;0.46;38.5;9.60;69102;5124.971;-12838.415;52;150;156.4;57;57.2;-5;-5.9;28.7;-1.0;
16/06/2019 13:50:40;117;0;41.23;17;18.48;0.47;36.3;9.60;69095;5124.971;-12838.415;52;150;158.4;57;57.2;-5;-5.9;28.7;-1.0;
16/06/2019 13:51:00;117;0;39.67;17;18.20;0.40;34.2;9.60;69106;5124.971;-12838.415;52;150;156.4;57;57.1;-5;-5.9;28.7;-1.0;
16/06/2019 13:51:20;117;0;34.58;17;17.89;0.47;32.1;9.60;69119;5124.971;-12838.415;52;150;158.4;57;57.2;-5;-5.9;28.7;-1.0;
16/06/2019 13:51:40;117;0;26.32;17;16.81;0.50;29.9;9.70;69144;5124.971;-12838.415;52;150;158.4;57;57.1;0;0.0;28.7;-1.0;
16/06/2019 13:52:00;117;0;23.73;17;16.54;3.73;28.0;9.70;69164;5124.971;-12838.415;52;150;156.4;57;57.2;0;0.9;28.7;-1.0;
16/06/2019 13:52:20;117;0;26.00;17;16.75;3.84;26.4;9.70;69191;5124.971;-12838.415;52;150;158.4;57;57.1;-2;-2.3;28.7;-1.0;
16/06/2019 13:52:40;117;0;30.17;17;15.43;2.14;24.9;9.80;69216;5124.971;-12838.415;52;150;156.4;57;57.1;-4;-4.5;28.7;-1.0;
16/06/2019 13:53:00;117;0;31.70;17;15.75;0.94;23.4;9.80;69250;5124.971;-12838.415;52;150;156.4;57;57.2;-4;-5.0;28.7;-1.0;
16/06/2019 13:53:20;117;0;32.65;17;15.84;0.81;21.9;9.90;69275;5124.971;-12838.415;52;150;158.4;57;57.2;-4;-5.0;28.7;-1.0;
16/06/2019 13:53:40;117;0;31.89;17;16.02;0.87;20.5;9.90;69301;5124.971;-12838.415;52;150;158.4;57;57.2;-3;-3.2;28.7;-1.0;
16/06/2019 13:54:00;117;0;31.57;17;15.86;2.10;18.8;9.90;69315;5124.971;-12838.415;52;150;156.4;57;57.2;-3;-2.7;28.7;-1.0;
16/06/2019 13:54:20;117;0;33.45;17;15.86;2.16;17.3;10.00;69328;5124.971;-12838.415;52;150;158.4;57;57.2;-4;-4.1;28.7;-1.0;
16/06/2019 13:54:40;117;0;33.02;17;15.90;1.00;15.9;10.00;69345;5124.971;-12838.415;52;150;156.4;57;57.2;-3;-3.2;28.7;-1.0;
16/06/2019 13:55:00;117;0;30.18;17;15.73;2.36;14.3;10.10;69370;5124.971;-12838.415;52;150;156.4;57;57.2;-1;-0.9;28.6;-1.0;
16/06/2019 13:55:20;117;0;24.13;17;15.63;3.27;13.0;10.10;69395;5124.971;-12838.415;52;150;158.4;57;57.2;1;0.9;28.7;-1.0;
16/06/2019 13:55:40;117;0;16.86;17;16.05;3.92;11.7;10.20;69407;5124.971;-12838.415;52;150;156.4;57;57.2;5;5.0;28.7;-1.0;
16/06/2019 13:56:00;117;0;16.51;17;15.84;6.23;10.3;10.20;69424;5124.971;-12838.415;52;150;158.4;57;57.2;3;2.7;28.7;-1.0;
