Timestamp;NavState;SecurityLevel;Heading;Declination;Pitch;Roll;Depth;Temperature;Pa;Lat;Lon;DesiredH;BallastCmd;BallastPos;LinCmd;LinPos;AngCmd;AngPos;Voltage;Altitude;
14/06/2019 02:43:19;117;32;194.33;17;65.78;3.35;9.1;11.00;69371;5137.980;-12820.477;208;400;306.9;20;19.7;0;0.5;28.9;-1.0;
14/06/2019 02:43:29;115;32;183.69;17;64.96;6.92;6.9;11.00;69248;5137.980;-12820.477;208;500;382.2;100;59.5;0;0.5;29.0;-1.0;
14/06/2019 02:43:39;115;32;175.66;17;56.75;12.46;3.2;11.00;69144;5137.980;-12820.477;208;500;506.9;100;100.3;0;0.5;29.0;-1.0;
14/06/2019 02:43:49;115;32;193.21;17;1.48;5.85;1.3;11.10;68993;5137.980;-12820.477;208;500;506.9;100;100.1;0;0.9;29.2;-1.0;
14/06/2019 02:43:59;115;32;198.48;17;-41.07;7.72;1.9;11.10;69013;5137.980;-12820.477;208;500;505.0;100;100.0;0;0.9;29.3;-1.0;
14/06/2019 02:44:09;116;32;212.31;17;-59.80;8.32;1.6;11.10;69025;5137.980;-12820.477;208;500;505.0;100;99.6;0;0.9;29.2;-1.0;
14/06/2019 02:44:29;116;32;265.23;17;-11.89;-1.54;1.1;11.10;69040;5137.976;-12820.466;208;500;505.0;100;99.6;0;0.9;29.3;-1.0;
14/06/2019 02:44:49;116;32;297.43;17;-25.74;2.08;1.2;11.20;69045;5137.980;-12820.465;208;500;505.0;100;99.6;0;0.5;29.3;-1.0;
14/06/2019 02:45:10;116;32;293.97;17;-14.44;4.08;1.2;11.30;69058;5137.980;-12820.464;208;500;505.0;100;99.6;0;0.5;29.2;-1.0;
14/06/2019 02:45:30;116;32;293.32;17;-24.14;1.53;1.3;11.40;69073;5137.980;-12820.464;207;500;505.0;100;99.7;0;0.9;29.2;-1.0;
14/06/2019 02:45:50;116;32;321.27;17;-11.56;-0.15;1.1;11.50;69085;5137.986;-12820.467;207;500;505.0;100;99.6;0;0.9;29.3;-1.0;
14/06/2019 02:47:07;116;32;343.48;17;-7.31;6.22;1.1;12.00;69107;5137.987;-12820.466;207;500;506.9;100;99.6;0;0.9;29.2;-1.0;
14/06/2019 02:47:27;116;32;315.20;17;-28.57;6.29;1.2;12.10;69110;5137.989;-12820.468;207;500;506.9;100;99.7;0;0.9;29.2;-1.0;
14/06/2019 02:47:47;116;32;288.39;17;-8.95;-0.83;1.1;12.20;69123;5138.017;-12820.477;207;500;505.0;100;99.6;0;0.9;29.3;-1.0;
14/06/2019 02:53:23;116;32;311.28;17;-11.15;-2.61;1.1;13.50;69188;5138.017;-12820.477;207;500;506.9;100;99.6;0;0.9;29.2;-1.0;
14/06/2019 02:53:43;116;32;325.89;17;-16.51;3.97;1.2;13.50;69183;5138.021;-12820.478;207;500;506.9;100;99.6;0;0.9;29.2;-1.0;
14/06/2019 02:54:03;116;32;304.18;17;-8.57;1.97;1.1;13.50;69182;5138.022;-12820.477;207;500;505.0;100;99.6;0;0.9;29.3;-1.0;
14/06/2019 02:54:23;116;32;324.15;17;-11.73;4.48;1.1;13.60;69183;5138.024;-12820.480;207;500;505.0;100;99.6;0;0.9;29.3;-1.0;
14/06/2019 02:54:43;116;32;297.03;17;-4.71;2.68;1.1;13.60;69200;5138.026;-12820.481;207;500;505.0;100;99.6;0;0.9;29.2;-1.0;
14/06/2019 02:55:03;116;32;312.81;17;-35.24;8.15;1.5;13.70;69187;5138.028;-12820.482;207;500;505.0;100;99.7;0;0.9;29.3;-1.0;
14/06/2019 02:55:23;116;32;301.06;17;-6.42;0.33;1.1;13.70;69202;5138.030;-12820.480;207;500;506.9;100;99.6;0;0.9;29.3;-1.0;
14/06/2019 02:55:43;116;32;303.03;17;-8.58;3.84;1.0;13.80;69189;5138.030;-12820.481;207;500;505.0;100;99.6;0;0.9;29.3;-1.0;
14/06/2019 02:56:03;116;32;315.75;17;-8.95;5.69;1.1;13.80;69200;5138.030;-12820.481;207;500;506.9;100;99.6;0;0.9;29.2;-1.0;
14/06/2019 02:56:23;116;32;303.62;17;-9.62;7.10;1.1;13.80;69202;5138.034;-12820.482;207;500;505.0;100;99.7;0;0.9;29.2;-1.0;
14/06/2019 02:57:04;116;32;327.03;17;-8.21;2.26;1.0;13.90;69211;5138.036;-12820.484;207;500;505.0;100;99.7;0;0.9;29.2;-1.0;
14/06/2019 02:57:26;116;32;299.11;17;-41.93;6.43;1.4;13.90;69212;5138.036;-12820.483;207;500;506.9;100;99.7;0;0.9;29.2;-1.0;
14/06/2019 02:57:46;116;32;300.09;17;-14.87;-11.30;1.1;14.00;69213;5138.039;-12820.484;207;500;503.0;100;99.7;0;0.9;29.2;-1.0;
14/06/2019 02:58:06;116;32;329.48;17;-3.34;-2.03;1.0;14.00;69213;5138.067;-12820.500;207;500;506.9;100;99.7;0;0.9;29.2;-1.0;
14/06/2019 03:02:49;116;32;323.76;17;-6.78;3.98;1.1;14.40;69224;5138.068;-12820.498;207;500;505.0;100;99.7;0;0.9;29.2;-1.0;
14/06/2019 03:03:09;116;32;319.31;17;-12.21;3.06;1.1;14.40;69234;5138.069;-12820.499;207;500;506.9;100;99.6;0;0.9;29.2;-1.0;
14/06/2019 03:03:29;116;32;302.25;17;-7.72;2.96;1.1;14.40;69223;5138.070;-12820.499;207;500;505.0;100;99.6;0;0.5;29.2;-1.0;
14/06/2019 03:03:49;116;32;295.66;17;-7.42;1.14;1.1;14.50;69232;5138.070;-12820.500;207;500;506.9;100;99.6;0;0.9;29.3;-1.0;
14/06/2019 03:04:09;116;32;331.40;17;-25.29;5.71;1.4;14.50;69231;5138.073;-12820.502;207;500;505.0;100;99.7;0;0.9;29.2;-1.0;
14/06/2019 03:04:29;116;32;291.43;17;-7.22;7.37;1.1;14.50;69238;5138.074;-12820.501;207;500;505.0;100;99.7;0;0.9;29.3;-1.0;
14/06/2019 03:04:49;116;32;284.38;17;-8.94;-0.47;1.1;14.60;69231;5138.074;-12820.502;207;500;505.0;100;99.6;0;0.9;29.3;-1.0;
14/06/2019 03:05:09;116;32;312.41;17;-8.50;-5.37;1.1;14.60;69241;5138.076;-12820.505;207;500;505.0;100;99.7;0;0.9;29.2;-1.0;
14/06/2019 03:05:30;116;32;311.41;17;-9.19;0.26;1.1;14.60;69239;5138.076;-12820.506;207;500;506.9;100;99.7;0;0.9;29.2;-1.0;
14/06/2019 03:05:50;116;32;319.99;17;-8.51;8.85;1.1;14.70;69245;5138.077;-12820.506;207;500;505.0;100;99.6;0;0.9;29.3;-1.0;
14/06/2019 03:06:10;116;32;329.33;17;-10.52;2.80;1.1;14.70;69244;5138.081;-12820.509;207;500;505.0;100;99.7;0;0.9;29.3;-1.0;
14/06/2019 03:06:30;116;32;318.24;17;-6.19;12.65;1.1;14.80;69243;5138.083;-12820.507;207;500;505.0;100;99.7;0;0.9;29.2;-1.0;
14/06/2019 03:06:50;116;32;300.08;17;-3.05;6.45;1.1;14.80;69239;5138.085;-12820.508;207;500;505.0;100;99.6;0;0.9;29.3;-1.0;
14/06/2019 03:07:10;116;32;305.35;17;-5.64;2.75;1.1;14.80;69245;5138.088;-12820.510;207;500;505.0;100;99.6;0;0.9;29.3;-1.0;
14/06/2019 03:07:30;116;32;320.32;17;-11.06;7.32;1.1;14.90;69251;5138.090;-12820.512;207;500;505.0;100;99.7;0;0.9;29.2;-1.0;
14/06/2019 03:07:50;116;32;305.90;17;-10.84;-1.46;1.1;14.90;69252;5138.092;-12820.515;207;500;505.0;100;99.6;0;0.9;29.3;-1.0;
14/06/2019 03:08:10;116;32;313.60;17;-15.94;3.36;1.1;14.90;69254;5138.092;-12820.515;207;500;505.0;100;99.6;0;0.9;29.3;-1.0;
14/06/2019 03:08:30;116;32;300.61;17;-6.99;1.22;1.1;14.90;69252;5138.096;-12820.515;207;500;506.9;100;99.7;0;0.9;29.2;-1.0;
14/06/2019 03:08:50;116;32;311.84;17;-6.78;16.73;1.1;15.00;69251;5138.098;-12820.514;207;500;505.0;100;99.6;0;0.9;29.2;-1.0;
14/06/2019 03:09:10;116;32;337.25;17;-7.11;7.75;1.1;15.00;69258;5138.101;-12820.516;207;500;506.9;100;99.6;0;0.9;29.2;-1.0;
14/06/2019 03:09:31;116;32;277.43;17;-10.34;0.11;1.1;15.00;69254;5138.104;-12820.519;207;500;506.9;100;99.6;0;0.9;29.2;-1.0;
14/06/2019 03:09:51;116;32;304.11;17;-9.03;0.24;1.1;15.00;69251;5138.106;-12820.520;207;500;505.0;100;99.6;0;0.9;29.3;-1.0;
14/06/2019 03:10:13;116;32;329.75;17;-15.39;5.65;1.2;15.10;69248;5138.106;-12820.521;207;500;505.0;100;99.6;0;0.9;29.3;-1.0;
14/06/2019 03:10:33;116;32;324.89;17;-7.16;0.30;1.1;15.10;69263;5138.109;-12820.521;207;500;505.0;100;99.7;0;0.9;29.3;-1.0;
14/06/2019 03:10:53;116;32;315.84;17;-6.18;8.32;1.1;15.10;69258;5138.109;-12820.520;207;500;505.0;100;99.6;0;0.9;29.2;-1.0;
14/06/2019 03:11:13;116;32;295.51;17;-4.67;4.08;1.1;15.20;69260;5138.112;-12820.520;207;500;506.9;100;99.6;0;0.9;29.2;-1.0;
14/06/2019 03:11:33;116;32;291.21;17;-9.48;-4.25;1.1;15.20;69266;5138.112;-12820.520;207;500;505.0;100;99.7;0;0.9;29.3;-1.0;
14/06/2019 03:11:53;116;32;286.07;17;-6.84;-1.29;1.0;15.20;69260;5138.113;-12820.519;207;500;505.0;100;99.6;0;0.9;29.3;-1.0;
14/06/2019 03:12:13;116;32;306.24;17;-6.41;3.94;1.1;15.20;69251;5138.116;-12820.520;207;500;506.9;100;99.6;0;0.9;29.2;-1.0;
14/06/2019 03:12:33;116;32;296.42;17;-5.81;3.02;1.1;15.20;69256;5138.118;-12820.522;207;500;506.9;100;99.6;0;0.9;29.2;-1.0;
14/06/2019 03:12:53;116;32;312.97;17;-8.69;1.36;1.1;15.20;69264;5138.121;-12820.524;207;500;505.0;100;99.7;0;0.9;29.3;-1.0;
14/06/2019 03:13:13;116;32;299.19;17;-5.47;-5.44;1.1;15.20;69258;5138.123;-12820.525;207;500;505.0;100;99.6;0;0.9;29.2;-1.0;
14/06/2019 03:13:33;116;32;332.32;17;-4.09;6.85;1.1;15.20;69257;5138.129;-12820.528;207;500;506.9;100;99.7;0;0.9;29.3;-1.0;
14/06/2019 03:14:11;116;32;339.84;17;-11.83;4.55;1.1;15.30;69264;5138.132;-12820.527;207;500;505.0;100;99.7;0;0.9;29.2;-1.0;
14/06/2019 03:14:40;116;32;317.07;17;-23.69;-1.19;1.2;15.30;69266;5138.132;-12820.526;207;500;505.0;100;99.7;0;0.9;29.2;-1.0;
14/06/2019 03:15:00;116;32;286.86;17;-3.76;8.76;1.1;15.30;69263;5138.134;-12820.525;207;500;505.0;100;99.7;0;0.9;29.2;-1.0;
14/06/2019 03:15:20;116;32;308.51;17;-10.62;2.78;1.1;15.30;69264;5138.135;-12820.528;207;500;505.0;100;99.6;0;0.9;29.2;-1.0;
14/06/2019 03:15:40;116;32;289.20;17;-6.56;2.89;1.2;15.30;69264;5138.137;-12820.529;207;500;505.0;100;99.6;0;0.9;29.2;-1.0;
14/06/2019 03:16:00;116;32;303.28;17;-11.75;5.72;1.1;15.30;69267;5138.137;-12820.528;207;500;505.0;100;99.7;0;0.9;29.3;-1.0;
14/06/2019 03:16:20;116;32;296.42;17;-9.68;-0.41;1.0;15.40;69268;5138.140;-12820.527;207;500;506.9;100;99.6;0;0.9;29.2;-1.0;
14/06/2019 03:16:40;116;32;290.38;17;-9.63;3.97;1.1;15.40;69270;5138.145;-12820.533;207;500;505.0;100;99.6;0;0.9;29.2;-1.0;
14/06/2019 03:17:00;116;32;289.30;17;-25.42;6.40;1.2;15.40;69271;5138.146;-12820.532;207;500;505.0;100;99.7;0;0.9;29.2;-1.0;
14/06/2019 03:17:20;116;32;312.87;17;-13.06;0.96;1.1;15.40;69271;5138.146;-12820.534;207;500;505.0;100;99.7;0;0.9;29.2;-1.0;
14/06/2019 03:17:40;116;0;316.09;17;-12.89;5.05;1.1;15.40;69283;5138.148;-12820.534;207;500;505.0;100;99.7;0;0.9;29.2;-1.0;
14/06/2019 03:18:00;116;0;332.55;17;-4.21;1.22;1.1;15.40;69272;5138.149;-12820.536;207;500;505.0;100;99.6;0;0.9;29.2;-1.0;
14/06/2019 03:18:20;110;0;298.95;17;-5.61;8.24;1.1;15.50;69270;5138.149;-12820.536;207;-250;404.0;100;99.6;0;0.9;29.2;-1.0;
14/06/2019 03:18:30;110;0;300.95;17;-9.11;-4.55;1.1;15.50;69514;5138.149;-12820.536;207;-250;263.4;100;99.7;0;0.9;29.2;-1.0;
14/06/2019 03:18:40;110;0;338.98;17;-8.40;3.30;1.1;15.40;69694;5138.149;-12820.536;207;-250;122.8;100;99.7;0;0.9;29.2;-1.0;
14/06/2019 03:18:50;110;0;317.96;17;-14.91;-0.31;1.1;15.40;69921;5138.149;-12820.536;207;-250;-25.7;100;99.7;0;0.9;29.2;-1.0;
14/06/2019 03:19:00;110;0;310.66;17;-37.19;7.35;1.7;15.50;70172;5138.149;-12820.536;207;-250;-207.9;97;97.0;0;0.9;29.2;-1.0;
14/06/2019 03:19:10;110;0;318.72;17;-56.40;4.63;3.4;15.40;70474;5138.149;-12820.536;207;-250;-249.5;76;76.0;0;0.9;29.2;-1.0;
14/06/2019 03:19:20;110;0;309.41;17;-46.30;3.48;6.4;15.40;70505;5138.149;-12820.536;207;-250;-249.5;72;72.0;0;0.9;29.2;-1.0;
14/06/2019 03:19:30;100;0;301.87;17;-34.80;4.90;9.2;15.40;70505;5138.149;-12820.536;207;-250;-247.5;71;70.9;0;0.9;29.2;-1.0;
14/06/2019 03:19:50;100;0;308.37;17;-24.93;4.63;14.2;15.40;70494;5138.149;-12820.536;207;-250;-245.5;71;70.8;45;45.1;29.2;0.0;
14/06/2019 03:20:10;100;0;285.35;17;-18.08;25.50;18.1;15.30;70474;5138.149;-12820.536;207;-250;-245.5;71;70.8;41;41.1;29.2;0.0;
14/06/2019 03:20:30;100;0;273.92;17;-18.27;22.73;21.1;15.30;70435;5138.149;-12820.536;207;-250;-245.5;71;70.8;30;29.8;29.3;0.0;
14/06/2019 03:20:50;100;0;258.75;17;-19.64;17.09;23.9;15.20;70406;5138.149;-12820.536;207;-250;-243.6;71;70.8;23;23.0;29.2;0.0;
14/06/2019 03:21:10;100;0;244.82;17;-20.94;13.86;26.5;15.10;70368;5138.149;-12820.536;207;-250;-243.6;71;70.8;18;18.1;29.2;0.0;
14/06/2019 03:21:30;100;0;235.63;17;-20.43;11.43;29.2;15.00;70329;5138.149;-12820.536;207;-250;-243.6;71;70.8;16;15.8;29.2;0.0;
14/06/2019 03:21:50;100;0;226.64;17;-19.62;10.17;31.8;14.90;70295;5138.149;-12820.536;207;-250;-243.6;71;70.8;15;14.9;29.2;0.0;
14/06/2019 03:22:10;100;0;216.71;17;-19.71;10.19;34.3;14.80;70257;5138.149;-12820.536;207;-250;-243.6;71;70.8;12;12.2;29.3;0.0;
14/06/2019 03:22:30;100;0;209.19;17;-19.75;8.56;36.8;14.70;70234;5138.149;-12820.536;207;-250;-243.6;71;70.8;12;11.7;29.2;0.0;
14/06/2019 03:22:50;100;0;195.65;17;-19.19;8.65;39.3;14.60;70197;5138.149;-12820.536;207;-250;-243.6;71;70.8;7;7.2;29.2;0.0;
14/06/2019 03:23:10;100;0;187.36;17;-19.30;6.09;41.7;14.60;70173;5138.149;-12820.536;207;-250;-243.6;71;70.8;7;6.3;29.3;0.0;
14/06/2019 03:23:30;100;0;177.01;17;-19.60;6.20;44.0;14.50;70140;5138.149;-12820.536;207;-250;-243.6;71;70.8;4;4.1;29.2;0.0;
14/06/2019 03:23:50;100;0;171.30;17;-19.81;4.78;46.2;14.40;70124;5138.149;-12820.536;207;-250;-243.6;71;70.8;4;3.6;29.2;0.0;
14/06/2019 03:24:10;100;0;160.41;17;-19.21;4.88;48.5;14.30;70100;5138.149;-12820.536;207;-250;-243.6;71;70.8;0;-0.5;29.2;0.0;
14/06/2019 03:24:30;100;0;154.74;17;-19.19;2.68;50.8;14.20;70084;5138.149;-12820.536;207;-250;-243.6;71;70.8;0;-0.9;29.2;0.0;
14/06/2019 03:24:50;100;0;151.37;17;-19.39;2.65;53.2;14.10;70070;5138.149;-12820.536;207;-250;-243.6;71;70.8;0;-1.4;29.2;0.0;
14/06/2019 03:25:10;100;0;144.10;17;-18.81;2.69;55.4;14.00;70051;5138.149;-12820.536;207;-250;-243.6;71;70.8;-3;-3.2;29.2;0.0;
14/06/2019 03:25:30;100;0;140.54;17;-19.25;1.64;57.6;14.00;70031;5138.149;-12820.536;207;-250;-243.6;71;70.6;-5;-5.0;29.2;0.0;
14/06/2019 03:25:50;100;0;138.22;17;-18.72;0.78;59.7;13.90;70014;5138.149;-12820.536;207;-250;-243.6;71;70.6;-6;-5.9;29.2;0.0;
14/06/2019 03:26:10;100;0;131.75;17;-18.68;0.41;61.8;13.80;70019;5138.149;-12820.536;207;-250;-243.6;71;70.6;-11;-10.8;29.2;0.0;
14/06/2019 03:26:30;100;0;130.73;17;-18.60;-2.05;64.0;13.70;70004;5138.149;-12820.536;207;-250;-243.6;71;70.6;-12;-12.2;29.2;0.0;
14/06/2019 03:26:50;100;0;130.24;17;-18.49;-2.64;66.1;13.70;69989;5138.149;-12820.536;207;-250;-243.6;71;70.6;-13;-13.5;29.2;0.0;
14/06/2019 03:27:10;100;0;129.04;17;-18.82;-3.15;68.0;13.60;69980;5138.149;-12820.536;207;-250;-241.6;71;70.6;-16;-15.8;29.2;0.0;
14/06/2019 03:27:30;100;0;129.73;17;-18.49;-4.14;70.2;13.50;69965;5138.149;-12820.536;207;-250;-241.6;71;70.6;-18;-18.1;29.2;0.0;
14/06/2019 03:27:50;100;0;129.93;17;-18.08;-5.20;72.3;13.40;69958;5138.149;-12820.536;207;-250;-241.6;71;70.6;-20;-19.9;29.2;0.0;
14/06/2019 03:28:10;100;0;122.63;17;-18.05;-6.06;74.4;13.40;69948;5138.149;-12820.536;207;-250;-241.6;71;70.6;-26;-26.2;29.2;0.0;
14/06/2019 03:28:30;100;0;128.38;17;-17.63;-9.29;76.5;13.30;69936;5138.149;-12820.536;207;-250;-241.6;71;70.6;-24;-23.9;29.2;0.0;
14/06/2019 03:28:50;100;0;129.63;17;-17.18;-7.46;78.3;13.30;69918;5138.149;-12820.536;207;-250;-241.6;71;70.6;-26;-26.2;29.2;0.0;
14/06/2019 03:29:10;100;0;132.53;17;-17.28;-9.16;80.1;13.20;69922;5138.149;-12820.536;207;-250;-243.6;71;70.6;-24;-23.9;29.2;0.0;
14/06/2019 03:29:30;100;0;133.38;17;-17.39;-7.72;81.8;13.10;69904;5138.149;-12820.536;207;-250;-241.6;71;70.6;-25;-24.8;29.2;0.0;
14/06/2019 03:29:50;100;0;133.64;17;-16.62;-8.43;83.6;13.10;69898;5138.149;-12820.536;207;-250;-241.6;71;70.8;-25;-25.3;29.2;0.0;
14/06/2019 03:30:10;100;0;135.55;17;-16.42;-8.48;85.3;13.00;69883;5138.149;-12820.536;207;-250;-241.6;71;70.6;-24;-23.9;29.2;0.0;
14/06/2019 03:30:30;100;0;136.58;17;-16.84;-7.61;87.1;12.90;69884;5138.149;-12820.536;207;-250;-241.6;71;70.6;-24;-23.5;29.2;0.0;
14/06/2019 03:30:50;100;0;140.27;17;-16.26;-7.57;88.8;12.90;69879;5138.149;-12820.536;207;-250;-241.6;71;70.6;-22;-22.1;29.2;0.0;
14/06/2019 03:31:10;100;0;142.26;17;-16.13;-6.63;90.6;12.80;69857;5138.149;-12820.536;207;-250;-241.6;71;70.6;-22;-21.2;29.2;0.0;
14/06/2019 03:31:30;100;0;143.45;17;-16.21;-6.65;92.4;12.70;69852;5138.149;-12820.536;207;-250;-241.6;71;70.6;-22;-21.7;29.2;0.0;
14/06/2019 03:31:51;100;0;140.74;17;-16.05;-6.55;94.0;12.70;69843;5138.149;-12820.536;207;-250;-241.6;71;70.6;-25;-25.3;29.3;0.0;
14/06/2019 03:32:11;100;0;145.41;17;-15.65;-8.75;95.7;12.60;69830;5138.149;-12820.536;207;-250;-241.6;71;70.6;-22;-22.1;29.2;0.0;
14/06/2019 03:32:31;100;0;145.88;17;-15.69;-6.57;97.5;12.60;69829;5138.149;-12820.536;207;-250;-241.6;71;70.8;-22;-21.2;29.3;0.0;
14/06/2019 03:32:51;100;0;147.16;17;-15.50;-6.54;99.0;12.50;69806;5138.149;-12820.536;207;-250;-241.6;71;70.6;-22;-21.2;29.3;0.0;
14/06/2019 03:33:11;100;0;146.96;17;-15.60;-6.54;100.7;12.40;69806;5138.149;-12820.536;207;-250;-239.6;71;70.6;-23;-23.0;29.2;10.5;
14/06/2019 03:33:31;118;0;147.23;17;-15.67;-7.71;102.3;12.40;69799;5138.149;-12820.536;207;50;-223.8;54;53.7;0;0.9;29.2;12.1;
14/06/2019 03:33:41;118;0;128.10;17;9.18;4.14;102.9;12.40;69712;5138.149;-12820.536;207;50;-67.3;54;54.2;0;0.9;28.8;12.1;
14/06/2019 03:33:51;118;0;130.50;17;27.88;3.54;102.5;12.30;69507;5138.149;-12820.536;207;50;55.4;54;54.1;0;0.9;28.8;-1.0;
14/06/2019 03:34:01;118;0;162.33;17;29.46;3.57;101.5;12.30;69309;5138.149;-12820.536;207;50;55.4;54;54.1;0;0.9;29.3;-1.0;
14/06/2019 03:34:11;118;0;163.02;17;30.30;3.75;100.2;12.30;69313;5138.149;-12820.536;207;50;53.5;54;54.1;0;0.9;29.3;-1.0;
14/06/2019 03:34:21;117;0;164.20;17;30.83;3.71;98.7;12.20;69307;5138.149;-12820.536;207;50;55.4;54;54.1;0;0.9;29.2;-1.0;
14/06/2019 03:34:41;117;0;162.86;17;30.60;3.71;95.5;12.20;69311;5138.149;-12820.536;207;50;53.5;54;54.1;14;14.4;29.2;-1.0;
14/06/2019 03:35:01;117;0;169.29;17;30.05;10.61;91.9;12.10;69311;5138.149;-12820.536;207;50;55.4;54;54.1;13;12.6;29.2;-1.0;
14/06/2019 03:35:21;117;0;167.39;17;29.80;9.42;88.6;12.10;69299;5138.149;-12820.536;207;50;55.4;54;54.1;17;17.1;29.2;-1.0;
14/06/2019 03:35:41;117;0;170.72;17;30.17;12.32;85.3;12.00;69302;5138.149;-12820.536;207;50;53.5;54;54.1;16;15.8;29.2;-1.0;
14/06/2019 03:36:01;117;0;175.08;17;29.06;10.63;82.3;12.00;69309;5138.149;-12820.536;207;50;55.4;54;54.1;14;14.0;29.2;-1.0;
14/06/2019 03:36:21;117;0;181.53;17;30.00;10.06;79.2;11.90;69309;5138.149;-12820.536;207;50;57.4;54;54.1;12;12.2;29.2;-1.0;
14/06/2019 03:36:41;117;0;183.25;17;28.49;8.86;76.0;11.90;69320;5138.149;-12820.536;207;50;53.5;54;54.1;13;13.1;29.2;-1.0;
14/06/2019 03:37:01;117;0;184.72;17;27.52;10.30;73.2;11.80;69314;5138.149;-12820.536;207;50;55.4;54;54.1;14;14.0;29.3;-1.0;
14/06/2019 03:37:21;117;0;186.62;17;27.25;10.17;70.8;11.80;69317;5138.149;-12820.536;207;50;55.4;54;54.1;14;14.0;29.2;-1.0;
14/06/2019 03:37:41;117;0;184.39;17;27.46;10.33;68.4;11.80;69318;5138.149;-12820.536;207;50;55.4;54;54.1;15;14.9;29.2;-1.0;
14/06/2019 03:38:01;117;0;187.72;17;27.30;11.05;66.0;11.70;69327;5138.149;-12820.536;207;50;55.4;54;54.1;14;14.0;29.2;-1.0;
14/06/2019 03:38:21;117;0;187.05;17;27.08;9.68;63.6;11.70;69332;5138.149;-12820.536;207;50;55.4;54;54.1;14;13.1;29.2;-1.0;
14/06/2019 03:38:41;117;0;185.76;17;26.87;9.71;61.1;11.60;69340;5138.149;-12820.536;207;50;55.4;54;54.1;16;15.8;29.2;-1.0;
14/06/2019 03:39:01;117;0;193.51;17;26.28;11.57;58.8;11.60;69327;5138.149;-12820.536;207;50;55.4;54;54.1;16;16.2;29.2;-1.0;
14/06/2019 03:39:21;117;0;193.24;17;26.22;11.56;56.7;11.60;69331;5138.149;-12820.536;207;50;55.4;54;54.1;12;12.2;29.2;-1.0;
14/06/2019 03:39:41;117;0;195.41;17;25.94;9.16;54.5;11.50;69328;5138.149;-12820.536;207;50;55.4;54;54.1;12;11.7;29.2;-1.0;
14/06/2019 03:40:01;117;0;197.35;17;25.72;9.06;52.5;11.50;69338;5138.149;-12820.536;207;50;55.4;54;54.1;11;10.4;29.2;-1.0;
14/06/2019 03:40:21;117;0;197.24;17;26.31;8.30;50.5;11.50;69335;5138.149;-12820.536;207;50;55.4;54;54.1;11;9.9;29.2;-1.0;
14/06/2019 03:40:41;117;0;202.58;17;25.73;8.32;48.5;11.40;69326;5138.149;-12820.536;207;50;55.4;54;54.1;8;8.1;29.2;-1.0;
14/06/2019 03:41:01;117;0;208.34;17;25.90;6.99;46.7;11.40;69347;5138.149;-12820.536;207;50;55.4;54;54.1;5;5.0;29.2;-1.0;
14/06/2019 03:41:21;117;0;213.41;17;25.61;5.56;44.7;11.40;69352;5138.149;-12820.536;207;50;55.4;54;54.1;4;4.1;29.2;-1.0;
14/06/2019 03:41:41;117;0;217.72;17;25.92;5.03;42.7;11.40;69355;5138.149;-12820.536;207;50;55.4;54;54.1;3;3.2;29.2;-1.0;
14/06/2019 03:42:01;117;0;219.61;17;25.65;4.70;40.7;11.40;69366;5138.149;-12820.536;207;50;55.4;54;54.1;2;1.8;29.3;-1.0;
14/06/2019 03:42:21;117;0;225.27;17;24.71;3.91;38.7;11.30;69360;5138.149;-12820.536;207;50;55.4;54;54.1;0;0.0;29.2;-1.0;
14/06/2019 03:42:41;117;0;223.31;17;24.90;2.92;36.8;11.30;69386;5138.149;-12820.536;207;50;55.4;54;54.1;2;2.3;29.2;-1.0;
14/06/2019 03:43:01;117;0;224.11;17;25.02;4.79;35.0;11.30;69386;5138.149;-12820.536;207;50;57.4;54;54.1;1;0.9;29.2;-1.0;
14/06/2019 03:43:21;117;0;222.48;17;24.58;3.61;33.1;11.30;69388;5138.149;-12820.536;207;50;55.4;54;54.1;2;1.8;29.2;-1.0;
14/06/2019 03:43:41;117;0;220.98;17;24.42;4.46;31.3;11.30;69402;5138.149;-12820.536;207;50;55.4;54;54.1;3;3.6;29.2;-1.0;
14/06/2019 03:44:01;117;0;215.27;17;24.28;5.36;29.6;11.30;69419;5138.149;-12820.536;207;50;55.4;54;54.1;4;4.1;29.2;-1.0;
14/06/2019 03:44:21;117;0;213.41;17;24.31;5.42;28.1;11.30;69434;5138.149;-12820.536;207;50;55.4;54;54.2;4;4.1;29.2;-1.0;
14/06/2019 03:44:41;117;0;215.50;17;23.80;5.38;26.8;11.30;69454;5138.149;-12820.536;207;50;55.4;54;54.1;1;0.5;29.2;-1.0;
14/06/2019 03:45:01;117;0;203.86;17;23.06;3.35;25.3;11.30;69478;5138.149;-12820.536;207;50;55.4;54;54.1;7;7.2;29.2;-1.0;
14/06/2019 03:45:21;117;0;194.89;17;23.10;7.33;24.1;11.30;69505;5138.149;-12820.536;207;50;55.4;54;54.1;10;10.4;29.2;-1.0;
14/06/2019 03:45:41;117;0;192.25;17;23.17;8.73;22.9;11.30;69519;5138.149;-12820.536;207;50;55.4;54;54.1;8;7.7;29.2;-1.0;
14/06/2019 03:46:01;117;0;181.25;17;22.52;6.88;21.7;11.30;69540;5138.149;-12820.536;207;50;55.4;54;54.1;8;7.2;29.2;-1.0;
14/06/2019 03:46:21;117;0;182.79;17;22.64;7.01;20.6;11.30;69562;5138.149;-12820.536;207;50;55.4;54;54.1;9;9.0;29.2;-1.0;
14/06/2019 03:46:41;117;0;188.65;17;22.23;8.29;19.6;11.30;69578;5138.149;-12820.536;207;50;55.4;54;54.1;5;5.0;29.3;-1.0;
14/06/2019 03:47:01;117;0;186.39;17;22.12;5.55;18.7;11.30;69587;5138.149;-12820.536;207;50;55.4;54;54.1;7;7.2;29.2;-1.0;
14/06/2019 03:47:21;117;0;183.39;17;22.20;7.39;18.0;11.40;69611;5138.149;-12820.536;207;50;55.4;54;54.1;8;8.1;29.2;-1.0;
14/06/2019 03:47:41;117;0;184.30;17;22.17;8.01;17.2;11.40;69630;5138.149;-12820.536;207;50;55.4;54;54.1;7;7.2;29.3;-1.0;
14/06/2019 03:48:01;117;0;195.65;17;22.77;6.84;16.4;11.40;69658;5138.149;-12820.536;207;50;57.4;54;54.1;7;6.8;29.2;-1.0;
14/06/2019 03:48:21;117;0;206.36;17;20.56;6.68;15.8;11.40;69669;5138.149;-12820.536;207;50;57.4;54;54.1;-3;-3.6;29.2;-1.0;
14/06/2019 03:48:41;117;0;218.21;17;20.76;1.08;15.4;11.40;69682;5138.149;-12820.536;207;50;55.4;54;54.1;-7;-7.2;29.2;-1.0;
14/06/2019 03:49:01;117;0;228.09;17;20.42;-0.27;15.3;11.50;69706;5138.149;-12820.536;207;50;57.4;54;54.1;-10;-9.9;29.2;-1.0;
14/06/2019 03:49:21;117;0;235.60;17;20.53;-1.89;15.1;11.50;69720;5138.149;-12820.536;207;50;55.4;54;54.1;-12;-12.2;29.2;-1.0;
14/06/2019 03:49:41;117;2048;241.42;17;20.98;-3.03;15.2;11.50;69730;5138.149;-12820.536;207;400;59.4;20;19.8;0;0.9;29.2;-1.0;
14/06/2019 03:50:01;117;2048;250.80;17;61.22;1.60;15.0;11.50;69747;5138.149;-12820.536;207;400;229.7;20;19.7;0;0.9;29.2;-1.0;
14/06/2019 03:50:21;117;2048;238.46;17;61.73;2.44;13.7;11.50;69405;5138.149;-12820.536;207;400;405.9;20;19.7;0;0.5;28.9;-1.0;
