Timestamp;NavState;SecurityLevel;Heading;Declination;Pitch;Roll;Depth;Temperature;Pa;Lat;Lon;DesiredH;BallastCmd;BallastPos;LinCmd;LinPos;AngCmd;AngPos;Voltage;Altitude;
16/06/2019 23:25:42;117;0;19.08;17;15.42;3.16;4.5;10.50;69437;5127.011;-12834.371;55;150;158.4;57;57.1;2;1.8;28.6;-1.0;
16/06/2019 23:25:52;110;0;21.00;17;15.04;5.46;3.7;10.50;69452;5127.011;-12834.371;55;-300;23.8;73;73.2;0;-0.9;28.6;-1.0;
16/06/2019 23:26:02;110;0;25.18;17;-9.93;3.25;3.2;10.60;69781;5127.011;-12834.371;55;-300;-164.4;73;73.0;0;-0.9;28.5;-1.0;
16/06/2019 23:26:12;110;0;24.40;17;-23.93;3.81;3.9;10.60;70047;5127.011;-12834.371;55;-300;-303.0;73;72.9;0;-0.9;28.6;-1.0;
16/06/2019 23:26:22;110;0;14.23;17;-25.75;3.43;5.3;10.60;70251;5127.011;-12834.371;55;-300;-303.0;73;73.0;0;-0.5;28.6;-1.0;
16/06/2019 23:26:32;100;0;10.64;17;-28.02;3.67;7.2;10.70;70262;5127.011;-12834.371;55;-300;-303.0;73;73.0;0;-0.9;28.6;-1.0;
16/06/2019 23:26:52;100;0;1.98;17;-26.77;3.18;11.5;10.70;70258;5127.011;-12834.371;55;-300;-303.0;73;73.0;-13;-13.1;28.6;0.0;
16/06/2019 23:27:12;100;0;4.52;17;-26.25;-2.94;16.2;10.80;70237;5127.011;-12834.371;55;-300;-305.0;73;72.9;-9;-8.6;28.6;0.0;
16/06/2019 23:27:32;100;0;3.50;17;-25.57;0.18;20.5;10.80;70215;5127.011;-12834.371;55;-300;-303.0;73;73.0;-9;-8.1;28.6;0.0;
16/06/2019 23:27:52;100;0;7.05;17;-25.76;0.12;24.7;10.90;70166;5127.011;-12834.371;55;-300;-303.0;73;72.9;-6;-5.9;28.6;0.0;
16/06/2019 23:28:12;100;0;359.49;17;-24.89;1.20;29.0;10.90;70127;5127.011;-12834.371;55;-300;-303.0;73;72.9;-12;-12.2;28.6;0.0;
16/06/2019 23:28:32;100;0;357.78;17;-24.65;-2.33;33.2;10.90;70094;5127.011;-12834.371;55;-300;-303.0;73;72.9;-12;-12.6;28.6;0.0;
16/06/2019 23:28:52;100;0;353.07;17;-24.45;-2.35;37.3;10.90;70071;5127.011;-12834.371;55;-300;-303.0;73;72.9;-14;-14.0;28.6;0.0;
16/06/2019 23:29:12;100;0;349.37;17;-25.08;-3.23;41.2;10.90;70036;5127.011;-12834.371;55;-300;-303.0;73;72.9;-17;-17.6;28.6;0.0;
16/06/2019 23:29:32;100;0;346.72;17;-24.96;-4.72;45.0;10.90;70008;5127.011;-12834.371;55;-300;-303.0;73;72.9;-19;-19.4;28.6;0.0;
16/06/2019 23:29:52;100;0;343.59;17;-25.14;-5.49;48.9;10.90;69994;5127.011;-12834.371;55;-300;-303.0;73;72.9;-22;-22.1;28.6;0.0;
16/06/2019 23:30:12;100;0;346.39;17;-24.65;-6.83;52.8;10.90;69975;5127.011;-12834.371;55;-300;-305.0;73;73.0;-21;-21.2;28.6;0.0;
16/06/2019 23:30:32;100;0;343.05;17;-24.91;-6.01;56.6;10.80;69959;5127.011;-12834.371;55;-300;-303.0;73;72.9;-25;-25.3;28.6;0.0;
16/06/2019 23:30:52;100;0;346.62;17;-24.64;-8.40;60.3;10.80;69949;5127.011;-12834.371;55;-300;-305.0;73;72.9;-24;-23.9;28.6;0.0;
16/06/2019 23:31:12;100;0;349.47;17;-24.13;-7.07;64.2;10.80;69929;5127.011;-12834.371;55;-300;-303.0;73;72.9;-23;-23.0;28.6;0.0;
16/06/2019 23:31:32;100;0;351.53;17;-23.76;-6.71;67.8;10.80;69898;5127.011;-12834.371;55;-300;-303.0;73;72.9;-22;-22.1;28.6;0.0;
16/06/2019 23:31:52;100;0;350.33;17;-23.87;-6.69;71.1;10.80;69887;5127.011;-12834.371;55;-300;-303.0;73;72.9;-24;-23.9;28.6;0.0;
16/06/2019 23:32:12;100;0;348.98;17;-23.89;-7.84;74.4;10.80;69852;5127.011;-12834.371;55;-300;-305.0;73;73.0;-25;-24.8;28.6;0.0;
16/06/2019 23:32:33;100;0;349.26;17;-23.63;-8.29;77.5;10.80;69840;5127.011;-12834.371;55;-300;-303.0;73;72.9;-24;-23.5;28.6;0.0;
16/06/2019 23:32:53;100;0;352.04;17;-23.29;-7.18;80.8;10.70;69833;5127.011;-12834.371;55;-300;-303.0;73;72.9;-22;-21.7;28.6;0.0;
16/06/2019 23:33:13;100;0;353.31;17;-23.22;-6.26;83.9;10.70;69820;5127.011;-12834.371;55;-300;-303.0;73;73.0;-22;-21.2;28.6;0.0;
16/06/2019 23:33:33;100;0;354.76;17;-22.94;-6.21;86.9;10.70;69811;5127.011;-12834.371;55;-300;-303.0;73;72.9;-22;-21.2;28.6;0.0;
16/06/2019 23:33:53;100;0;355.90;17;-23.24;-6.33;89.9;10.70;69804;5127.011;-12834.371;55;-300;-303.0;73;73.0;-22;-21.2;28.6;0.0;
16/06/2019 23:34:13;100;0;354.56;17;-23.12;-6.28;93.0;10.70;69788;5127.011;-12834.371;55;-300;-305.0;73;72.9;-23;-23.0;28.6;0.0;
16/06/2019 23:34:33;100;0;352.34;17;-22.98;-7.33;96.3;10.60;69782;5127.011;-12834.371;55;-300;-305.0;73;73.0;-24;-23.9;28.6;0.0;
16/06/2019 23:34:53;100;0;351.35;17;-22.71;-7.90;99.5;10.60;69775;5127.011;-12834.371;55;-300;-303.0;73;72.9;-24;-24.4;28.6;0.0;
16/06/2019 23:35:13;100;0;351.18;17;-22.56;-7.85;102.8;10.60;69768;5127.011;-12834.371;55;-300;-306.9;73;73.0;-24;-24.4;28.6;0.0;
16/06/2019 23:35:33;100;0;348.09;17;-22.68;-7.90;105.9;10.60;69755;5127.011;-12834.371;55;-300;-305.0;73;72.9;-26;-26.2;28.6;0.0;
16/06/2019 23:35:53;100;0;345.15;17;-22.67;-8.89;109.1;10.60;69755;5127.011;-12834.371;55;-300;-303.0;73;72.9;-27;-27.5;28.6;0.0;
16/06/2019 23:36:13;100;0;346.03;17;-22.37;-9.50;112.1;10.60;69756;5127.011;-12834.371;55;-300;-303.0;73;72.9;-25;-24.8;28.6;0.0;
16/06/2019 23:36:33;100;0;347.49;17;-22.17;-7.82;115.3;10.50;69752;5127.011;-12834.371;55;-300;-305.0;73;73.0;-24;-23.9;28.6;0.0;
16/06/2019 23:36:53;100;0;347.09;17;-22.31;-7.70;118.6;10.50;69739;5127.011;-12834.371;55;-300;-303.0;73;72.9;-24;-23.9;28.6;0.0;
16/06/2019 23:37:13;100;0;346.15;17;-21.81;-7.74;121.9;10.50;69730;5127.011;-12834.371;55;-300;-305.0;73;72.9;-25;-24.8;28.6;0.0;
16/06/2019 23:37:33;100;0;345.32;17;-21.65;-8.38;125.2;10.50;69734;5127.011;-12834.371;55;-300;-305.0;73;72.9;-25;-25.3;28.6;0.0;
16/06/2019 23:37:53;100;0;347.85;17;-21.43;-8.39;128.3;10.50;69723;5127.011;-12834.371;55;-300;-303.0;73;72.9;-24;-23.9;28.6;0.0;
16/06/2019 23:38:13;100;0;350.47;17;-21.10;-7.45;131.5;10.40;69700;5127.011;-12834.371;55;-300;-305.0;73;72.9;-23;-22.6;28.6;0.0;
16/06/2019 23:38:33;100;0;345.91;17;-20.76;-6.55;134.7;10.40;69701;5127.011;-12834.371;55;-300;-305.0;73;72.9;-26;-26.2;28.6;0.0;
16/06/2019 23:38:53;100;0;347.39;17;-20.49;-8.99;137.7;10.40;69691;5127.011;-12834.371;55;-300;-303.0;73;73.0;-24;-23.9;28.6;0.0;
16/06/2019 23:39:13;100;0;349.69;17;-20.99;-7.55;140.6;10.40;69684;5127.011;-12834.371;55;-300;-303.0;73;72.9;-23;-23.0;28.6;0.0;
16/06/2019 23:39:33;100;0;353.26;17;-20.53;-7.37;143.4;10.40;69671;5127.011;-12834.371;55;-300;-303.0;73;72.9;-21;-21.2;28.6;0.0;
16/06/2019 23:39:53;100;0;356.02;17;-19.89;-5.96;146.1;10.30;69670;5127.011;-12834.371;55;-300;-305.0;73;72.9;-21;-20.3;28.6;0.0;
16/06/2019 23:40:13;100;0;354.19;17;-20.02;-5.91;148.7;10.30;69658;5127.011;-12834.371;55;-300;-305.0;73;72.9;-23;-23.0;28.6;0.0;
16/06/2019 23:40:33;100;0;352.61;17;-20.32;-7.54;151.2;10.30;69650;5127.011;-12834.371;55;-300;-303.0;73;72.9;-24;-24.4;28.6;0.0;
16/06/2019 23:40:53;100;0;357.36;17;-19.27;-8.19;153.5;10.20;69628;5127.011;-12834.371;55;-300;-303.0;73;72.9;-21;-21.2;28.6;0.0;
16/06/2019 23:41:13;100;0;2.92;17;-18.62;-6.01;155.8;10.20;69622;5127.011;-12834.371;55;-300;-305.0;73;72.9;-19;-19.0;28.6;0.0;
16/06/2019 23:41:33;100;0;2.95;17;-18.47;-4.92;157.9;10.20;69598;5127.011;-12834.371;55;-300;-303.0;73;72.9;-20;-19.9;28.6;0.0;
16/06/2019 23:41:53;100;0;5.42;17;-18.60;-6.06;159.9;10.20;69577;5127.011;-12834.371;55;-300;-305.0;73;72.9;-19;-19.0;28.7;0.0;
16/06/2019 23:42:13;100;0;4.75;17;-18.80;-5.23;161.9;10.10;69561;5127.011;-12834.371;55;-300;-303.0;73;72.9;-21;-21.7;28.6;0.0;
16/06/2019 23:42:33;100;0;6.60;17;-18.88;-6.87;163.9;10.10;69546;5127.011;-12834.371;55;-300;-305.0;73;72.9;-20;-19.9;28.6;44.9;
16/06/2019 23:42:53;100;0;6.57;17;-18.75;-5.37;165.6;10.00;69521;5127.011;-12834.371;55;-300;-305.0;73;73.0;-20;-19.0;28.6;42.7;
16/06/2019 23:43:13;100;0;6.49;17;-18.62;-5.37;167.5;10.00;69523;5127.011;-12834.371;55;-300;-305.0;73;72.9;-20;-19.0;28.6;40.8;
16/06/2019 23:43:33;100;0;7.14;17;-18.59;-5.35;169.4;10.00;69517;5127.011;-12834.371;55;-300;-305.0;73;72.9;-20;-19.0;28.6;38.9;
16/06/2019 23:43:53;100;0;7.15;17;-18.62;-5.34;171.2;9.90;69508;5127.011;-12834.371;55;-300;-303.0;73;72.9;-20;-19.0;28.6;36.9;
16/06/2019 23:44:13;100;0;7.58;17;-18.65;-5.36;173.1;9.90;69499;5127.011;-12834.371;55;-300;-305.0;73;73.0;-20;-19.0;28.6;35.0;
16/06/2019 23:44:33;100;0;7.68;17;-18.66;-5.35;175.0;9.90;69500;5127.011;-12834.371;55;-300;-303.0;73;72.9;-20;-19.0;28.6;33.0;
16/06/2019 23:44:53;100;0;7.59;17;-18.73;-5.35;177.0;9.80;69495;5127.011;-12834.371;55;-300;-303.0;73;73.0;-20;-19.0;28.6;31.1;
16/06/2019 23:45:13;100;0;7.79;17;-18.69;-5.35;178.8;9.80;69476;5127.011;-12834.371;55;-300;-303.0;73;72.9;-20;-19.0;28.6;29.0;
16/06/2019 23:45:33;100;0;7.77;17;-18.54;-5.33;180.8;9.80;69468;5127.011;-12834.371;55;-300;-303.0;73;72.9;-20;-19.0;28.6;27.1;
16/06/2019 23:45:53;100;0;8.04;17;-18.69;-5.38;182.7;9.70;69473;5127.011;-12834.371;55;-300;-305.0;73;72.9;-20;-19.0;28.6;25.0;
16/06/2019 23:46:13;100;0;8.05;17;-18.72;-5.32;184.8;9.70;69465;5127.011;-12834.371;55;-300;-303.0;73;72.9;-20;-19.0;28.6;22.9;
16/06/2019 23:46:33;100;0;8.53;17;-18.55;-5.34;186.6;9.70;69464;5127.011;-12834.371;55;-300;-305.0;73;72.9;-20;-19.0;28.6;20.8;
16/06/2019 23:46:53;100;0;8.78;17;-18.67;-5.27;188.7;9.70;69464;5127.011;-12834.371;55;-300;-303.0;73;72.9;-20;-19.0;28.6;18.8;
16/06/2019 23:47:13;118;0;9.29;17;-18.49;-5.32;190.6;9.60;69461;5127.011;-12834.371;55;150;-289.1;57;56.8;0;1.4;28.6;16.9;
16/06/2019 23:47:23;118;0;42.57;17;2.34;4.08;191.4;9.60;69366;5127.011;-12834.371;55;150;-134.7;57;57.1;0;1.4;28.0;16.9;
16/06/2019 23:47:33;118;0;40.41;17;19.76;3.81;191.2;9.60;69157;5127.011;-12834.371;55;150;19.8;57;57.1;0;1.4;28.0;-1.0;
16/06/2019 23:47:43;118;0;39.95;17;24.21;3.97;190.2;9.60;68906;5127.011;-12834.371;55;150;156.4;57;57.1;0;1.4;28.0;-1.0;
16/06/2019 23:47:53;118;0;3.95;17;24.76;4.72;189.0;9.60;68707;5127.011;-12834.371;55;150;156.4;57;57.1;0;1.4;28.6;-1.0;
16/06/2019 23:48:03;118;0;4.74;17;27.00;3.98;187.3;9.60;68710;5127.011;-12834.371;55;150;156.4;57;57.1;0;1.4;28.6;-1.0;
16/06/2019 23:48:13;117;0;4.29;17;27.98;3.89;185.5;9.60;68718;5127.011;-12834.371;55;150;154.5;57;57.1;0;1.4;28.6;-1.0;
16/06/2019 23:48:33;117;0;3.64;17;28.36;3.98;181.0;9.50;68716;5127.011;-12834.371;55;150;158.4;57;57.1;23;23.0;28.6;-1.0;
16/06/2019 23:48:53;117;0;9.85;17;27.83;15.06;176.0;9.50;68714;5127.011;-12834.371;55;150;156.4;57;57.1;19;19.0;28.5;-1.0;
16/06/2019 23:49:13;117;0;16.61;17;28.09;12.14;171.5;9.50;68704;5127.011;-12834.371;55;150;156.4;57;56.9;16;15.8;28.6;-1.0;
16/06/2019 23:49:33;117;0;21.69;17;28.23;10.38;166.9;9.50;68685;5127.011;-12834.371;55;150;156.4;57;57.1;14;13.5;28.6;-1.0;
16/06/2019 23:49:53;117;0;25.44;17;28.28;9.63;162.3;9.40;68685;5127.011;-12834.371;55;150;156.4;57;57.1;14;13.1;28.6;-1.0;
16/06/2019 23:50:13;117;0;30.80;17;28.45;9.73;157.5;9.40;68684;5127.011;-12834.371;55;150;156.4;57;57.1;12;12.2;28.6;-1.0;
16/06/2019 23:50:33;117;0;30.76;17;28.25;8.87;152.7;9.40;68693;5127.011;-12834.371;55;150;156.4;57;57.1;14;14.0;28.6;-1.0;
16/06/2019 23:50:53;117;0;19.93;17;28.92;10.61;147.9;9.40;68711;5127.011;-12834.371;55;150;158.4;57;57.1;21;21.2;28.6;-1.0;
16/06/2019 23:51:13;117;0;24.54;17;26.27;14.15;143.6;9.30;68733;5127.011;-12834.371;55;150;156.4;57;56.9;17;17.1;28.6;-1.0;
16/06/2019 23:51:33;117;0;26.21;17;26.59;11.20;139.5;9.30;68751;5127.011;-12834.371;55;150;156.4;57;56.9;16;15.8;28.6;-1.0;
16/06/2019 23:51:53;117;0;32.38;17;25.80;10.68;135.6;9.30;68755;5127.011;-12834.371;55;150;156.4;57;57.1;13;13.1;28.6;-1.0;
16/06/2019 23:52:13;117;0;44.18;17;24.94;9.22;131.6;9.30;68766;5127.011;-12834.371;55;150;156.4;57;57.1;13;12.6;28.6;-1.0;
16/06/2019 23:52:33;117;0;44.61;17;25.23;9.19;128.1;9.30;68788;5127.011;-12834.371;55;150;158.4;57;57.1;10;9.9;28.6;-1.0;
16/06/2019 23:52:53;117;0;53.00;17;24.20;7.59;124.4;9.30;68794;5127.011;-12834.371;55;150;156.4;57;57.1;6;5.9;28.6;-1.0;
16/06/2019 23:53:13;117;0;52.23;17;24.37;5.68;121.2;9.30;68809;5127.011;-12834.371;55;150;156.4;57;57.1;8;8.6;28.6;-1.0;
16/06/2019 23:53:33;117;0;54.69;17;23.41;7.65;117.9;9.30;68818;5127.011;-12834.371;55;150;156.4;57;57.1;7;7.2;28.6;-1.0;
16/06/2019 23:53:53;117;0;57.73;17;23.57;6.45;114.9;9.30;68809;5127.011;-12834.371;55;150;156.4;57;57.1;6;5.9;28.6;-1.0;
16/06/2019 23:54:13;117;0;61.85;17;23.37;5.64;111.7;9.30;68822;5127.011;-12834.371;55;150;160.4;57;57.1;4;4.1;28.6;-1.0;
16/06/2019 23:54:33;117;0;62.93;17;23.01;4.78;108.6;9.30;68828;5127.011;-12834.371;55;150;158.4;57;57.1;4;3.6;28.6;-1.0;
16/06/2019 23:54:53;117;0;68.93;17;22.73;4.85;105.8;9.30;68848;5127.011;-12834.371;55;150;154.5;57;57.1;1;0.9;28.6;-1.0;
16/06/2019 23:55:13;117;0;64.97;17;23.24;3.04;103.1;9.30;68842;5127.011;-12834.371;55;150;156.4;57;56.9;4;4.1;28.6;-1.0;
16/06/2019 23:55:33;117;0;61.41;17;23.00;5.60;100.2;9.30;68851;5127.011;-12834.371;55;150;156.4;57;57.1;5;5.4;28.6;-1.0;
16/06/2019 23:55:53;117;0;65.75;17;22.23;6.09;97.4;9.30;68862;5127.011;-12834.371;55;150;158.4;57;57.1;2;1.8;28.6;-1.0;
16/06/2019 23:56:13;117;0;67.94;17;21.53;3.50;94.6;9.30;68868;5127.011;-12834.371;55;150;158.4;57;57.1;0;0.0;28.6;-1.0;
16/06/2019 23:56:33;117;0;66.55;17;22.61;2.87;92.0;9.30;68868;5127.011;-12834.371;55;150;156.4;57;57.1;1;1.4;28.6;-1.0;
16/06/2019 23:56:53;117;0;63.55;17;22.14;4.22;89.2;9.30;68862;5127.011;-12834.371;55;150;156.4;57;57.1;2;1.8;28.6;-1.0;
16/06/2019 23:57:13;117;0;66.36;17;22.12;4.11;86.4;9.30;68864;5127.011;-12834.371;55;150;156.4;57;57.1;0;0.0;28.6;-1.0;
16/06/2019 23:57:33;117;0;63.48;17;22.10;3.13;83.5;9.30;68875;5127.011;-12834.371;55;150;156.4;57;57.1;1;0.9;28.6;-1.0;
16/06/2019 23:57:53;117;0;64.02;17;21.74;3.64;80.7;9.30;68884;5127.011;-12834.371;55;150;156.4;57;57.1;0;0.0;28.6;-1.0;
16/06/2019 23:58:13;117;0;63.48;17;21.68;2.92;77.9;9.30;68883;5127.011;-12834.371;55;150;156.4;57;57.1;0;0.0;28.6;-1.0;
16/06/2019 23:58:33;117;0;64.86;17;21.54;2.94;75.2;9.30;68884;5127.011;-12834.371;55;150;156.4;57;57.1;-1;-0.9;28.6;-1.0;
16/06/2019 23:58:53;117;0;69.38;17;21.24;2.33;72.4;9.40;68889;5127.011;-12834.371;55;150;156.4;57;56.9;-5;-5.0;28.6;-1.0;
16/06/2019 23:59:13;117;0;66.60;17;20.92;0.54;69.7;9.30;68896;5127.011;-12834.371;55;150;156.4;57;57.1;-2;-1.4;28.6;-1.0;
16/06/2019 23:59:33;117;0;73.55;17;19.78;2.65;67.2;9.40;68909;5127.011;-12834.371;55;150;156.4;57;57.1;-7;-7.2;28.5;-1.0;
16/06/2019 23:59:53;117;0;71.16;17;19.85;-0.27;64.7;9.40;68928;5127.011;-12834.371;55;150;158.4;57;57.1;-5;-5.0;28.6;-1.0;
17/06/2019 00:00:13;117;0;69.30;17;19.63;1.27;62.2;9.40;68938;5127.011;-12834.371;55;150;156.4;57;57.1;-4;-4.1;28.6;-1.0;
17/06/2019 00:00:33;117;0;71.41;17;19.21;1.93;59.9;9.40;68956;5127.011;-12834.371;55;150;158.4;57;57.1;-6;-6.3;28.6;-1.0;
17/06/2019 00:00:53;117;0;70.09;17;19.28;0.20;57.7;9.40;68962;5127.011;-12834.371;55;150;156.4;57;57.1;-6;-6.8;28.6;-1.0;
17/06/2019 00:01:13;117;0;70.17;17;19.66;0.21;55.4;9.40;68971;5127.011;-12834.371;55;150;158.4;57;57.1;-7;-7.2;28.6;-1.0;
17/06/2019 00:01:33;117;0;68.48;17;19.65;-0.36;53.1;9.40;68999;5127.011;-12834.371;55;150;158.4;57;57.1;-6;-5.9;28.6;-1.0;
17/06/2019 00:01:53;117;0;66.88;17;19.25;0.91;51.0;9.50;68997;5127.011;-12834.371;55;150;158.4;57;57.1;-6;-5.4;28.6;-1.0;
17/06/2019 00:02:13;117;0;67.26;17;18.94;0.91;48.8;9.50;69005;5127.011;-12834.371;55;150;158.4;57;57.1;-8;-8.1;28.6;-1.0;
17/06/2019 00:02:33;117;0;68.31;17;18.78;-0.84;46.8;9.50;69021;5127.011;-12834.371;55;150;158.4;57;57.1;-9;-9.0;28.6;-1.0;
17/06/2019 00:02:53;117;0;68.27;17;18.93;-1.21;44.8;9.50;69026;5127.011;-12834.371;55;150;156.4;57;57.1;-10;-9.9;28.6;-1.0;
17/06/2019 00:03:13;117;0;68.61;17;18.67;-1.79;42.9;9.50;69045;5127.011;-12834.371;55;150;158.4;57;57.1;-10;-10.4;28.6;-1.0;
17/06/2019 00:03:33;117;0;68.53;17;18.77;-1.74;41.0;9.60;69052;5127.011;-12834.371;55;150;158.4;57;57.1;-11;-10.8;28.6;-1.0;
17/06/2019 00:03:53;117;0;67.07;17;18.46;-2.37;39.0;9.60;69073;5127.011;-12834.371;55;150;158.4;57;57.1;-11;-11.7;28.6;-1.0;
17/06/2019 00:04:14;117;0;61.10;17;18.40;-2.37;37.2;9.60;69092;5127.011;-12834.371;55;150;158.4;57;57.1;-8;-8.1;28.6;-1.0;
17/06/2019 00:04:34;117;0;56.00;17;18.31;-0.26;35.4;9.60;69099;5127.011;-12834.371;55;150;156.4;57;57.1;-6;-5.9;28.6;-1.0;
17/06/2019 00:04:54;117;0;53.33;17;17.80;1.07;33.6;9.60;69099;5127.011;-12834.371;55;150;158.4;57;57.1;-8;-8.1;28.6;-1.0;
17/06/2019 00:05:14;117;0;44.34;17;18.14;-0.73;31.8;9.70;69119;5127.011;-12834.371;55;150;156.4;57;57.1;-4;-3.6;28.6;-1.0;
17/06/2019 00:05:34;117;0;39.58;17;17.93;1.97;30.0;9.70;69135;5127.011;-12834.371;55;150;156.4;57;57.1;-3;-3.2;28.6;-1.0;
17/06/2019 00:05:54;117;0;37.17;17;17.72;2.00;28.3;9.70;69132;5127.011;-12834.371;55;150;158.4;57;57.1;-3;-3.2;28.6;-1.0;
17/06/2019 00:06:14;117;0;38.75;17;17.89;2.06;26.4;9.80;69153;5127.011;-12834.371;55;150;158.4;57;57.1;-3;-3.2;28.6;-1.0;
17/06/2019 00:06:34;117;0;34.66;17;18.12;1.99;24.6;9.80;69155;5127.011;-12834.371;55;150;156.4;57;57.1;-5;-5.0;28.6;-1.0;
17/06/2019 00:06:54;117;0;28.92;17;17.15;0.87;22.4;9.80;69193;5127.011;-12834.371;55;150;156.4;57;57.1;-2;-1.8;28.6;-1.0;
17/06/2019 00:07:14;117;0;24.59;17;16.48;3.00;20.6;9.90;69228;5127.011;-12834.371;55;150;156.4;57;57.1;-1;-0.5;28.6;-1.0;
17/06/2019 00:07:34;117;0;24.42;17;15.73;3.61;18.8;9.90;69265;5127.011;-12834.371;55;150;158.4;57;57.1;-2;-1.8;28.6;-1.0;
17/06/2019 00:07:54;117;0;24.48;17;16.26;2.48;17.3;9.90;69288;5127.011;-12834.371;55;150;158.4;57;57.1;-2;-2.3;28.6;-1.0;
17/06/2019 00:08:14;117;0;22.81;17;16.11;2.30;15.7;10.00;69310;5127.011;-12834.371;55;150;158.4;57;57.1;-1;-0.9;28.6;-1.0;
17/06/2019 00:08:34;117;0;22.50;17;16.11;3.19;14.2;10.00;69338;5127.011;-12834.371;55;150;158.4;57;57.1;-1;-0.9;28.6;-1.0;
17/06/2019 00:08:54;117;0;22.97;17;15.48;3.12;12.7;10.10;69352;5127.011;-12834.371;55;150;158.4;57;57.1;0;0.5;28.7;-1.0;
17/06/2019 00:09:14;117;0;26.57;17;15.66;3.95;11.1;10.10;69377;5127.011;-12834.371;55;150;158.4;57;57.1;-2;-1.8;28.6;-1.0;
