Timestamp;NavState;SecurityLevel;Heading;Declination;Pitch;Roll;Depth;Temperature;Pa;Lat;Lon;DesiredH;BallastCmd;BallastPos;LinCmd;LinPos;AngCmd;AngPos;Voltage;Altitude;
15/06/2019 02:27:56;117;0;231.90;17;14.54;2.89;8.7;9.70;69295;5128.276;-12826.705;266;150;158.4;57;57.1;7;7.2;29.0;-1.0;
15/06/2019 02:28:06;110;0;231.00;17;14.36;7.24;7.9;9.80;69310;5128.276;-12826.705;266;-300;-47.5;73;73.3;0;-0.9;29.0;-1.0;
15/06/2019 02:28:16;110;0;229.13;17;-11.41;3.35;7.6;9.80;69800;5128.276;-12826.705;266;-300;-303.0;73;72.9;0;-0.9;28.9;-1.0;
15/06/2019 02:28:26;110;0;239.83;17;-23.89;3.45;8.4;9.80;70127;5128.276;-12826.705;266;-300;-303.0;73;72.9;0;-0.9;29.0;-1.0;
15/06/2019 02:28:36;100;0;250.93;17;-28.79;3.04;10.1;9.90;70119;5128.276;-12826.705;266;-300;-305.0;73;72.9;0;-0.9;29.0;-1.0;
15/06/2019 02:28:56;100;0;243.59;17;-27.10;3.00;14.2;9.90;70111;5128.276;-12826.705;266;-300;-305.0;73;72.9;1;0.9;29.0;0.0;
15/06/2019 02:29:16;100;0;234.39;17;-26.04;4.43;18.8;10.00;70078;5128.276;-12826.705;266;-300;-305.0;73;73.0;-4;-4.1;29.0;0.0;
15/06/2019 02:29:36;100;0;226.51;17;-25.07;1.40;23.0;10.00;70051;5128.276;-12826.705;266;-300;-305.0;73;72.9;-8;-8.1;29.0;0.0;
15/06/2019 02:29:56;100;0;215.65;17;-25.01;-0.67;27.0;10.00;70008;5128.276;-12826.705;266;-300;-305.0;73;72.9;-13;-13.1;29.0;0.0;
15/06/2019 02:30:16;100;0;216.42;17;-24.57;-2.95;30.9;10.00;69968;5128.276;-12826.705;266;-300;-305.0;73;72.9;-10;-9.9;29.0;0.0;
15/06/2019 02:30:36;100;0;206.14;17;-24.90;-0.79;34.7;10.10;69928;5128.276;-12826.705;266;-300;-303.0;73;73.0;-15;-14.9;29.0;0.0;
15/06/2019 02:30:56;100;0;202.82;17;-24.34;-3.44;38.6;10.00;69878;5128.276;-12826.705;266;-300;-305.0;73;72.9;-17;-17.1;29.0;0.0;
15/06/2019 02:31:16;100;0;199.87;17;-24.20;-4.65;42.3;10.00;69858;5128.276;-12826.705;266;-300;-305.0;73;72.9;-18;-18.1;29.0;0.0;
15/06/2019 02:31:36;100;0;198.12;17;-24.38;-4.57;45.9;10.00;69853;5128.276;-12826.705;266;-300;-305.0;73;72.9;-19;-19.0;29.0;0.0;
15/06/2019 02:31:56;100;0;198.43;17;-24.55;-5.48;49.7;10.00;69830;5128.276;-12826.705;266;-300;-305.0;73;72.9;-20;-20.3;29.0;0.0;
15/06/2019 02:32:16;100;0;194.57;17;-24.56;-5.98;53.4;10.00;69816;5128.276;-12826.705;266;-300;-305.0;73;72.9;-24;-23.9;29.0;0.0;
15/06/2019 02:32:36;100;0;197.80;17;-24.09;-7.89;57.1;10.00;69797;5128.276;-12826.705;266;-300;-305.0;73;72.9;-24;-24.8;29.0;0.0;
15/06/2019 02:32:56;100;0;196.20;17;-24.20;-8.00;60.7;10.00;69792;5128.276;-12826.705;266;-300;-305.0;73;72.9;-25;-24.8;29.0;0.0;
15/06/2019 02:33:16;100;0;192.70;17;-24.07;-7.90;64.4;10.00;69785;5128.276;-12826.705;266;-300;-305.0;73;72.9;-27;-27.1;29.0;0.0;
15/06/2019 02:33:36;100;0;195.61;17;-23.67;-9.24;67.9;10.00;69765;5128.276;-12826.705;266;-300;-305.0;73;72.9;-25;-24.4;29.1;0.0;
15/06/2019 02:33:56;100;0;198.39;17;-23.29;-7.43;71.4;9.90;69764;5128.276;-12826.705;266;-300;-305.0;73;72.9;-23;-22.6;29.0;0.0;
15/06/2019 02:34:16;100;0;188.65;17;-23.37;-6.43;74.7;9.90;69753;5128.276;-12826.705;266;-300;-305.0;73;72.9;-30;-29.8;29.0;0.0;
15/06/2019 02:34:36;100;0;183.41;17;-23.75;-10.44;78.0;9.90;69746;5128.276;-12826.705;266;-300;-305.0;73;72.9;-31;-31.1;29.0;0.0;
15/06/2019 02:34:56;100;0;187.78;17;-22.85;-11.41;81.2;9.90;69741;5128.276;-12826.705;266;-300;-305.0;73;72.9;-27;-27.1;29.0;0.0;
15/06/2019 02:35:16;100;0;188.74;17;-22.72;-8.64;84.3;9.90;69729;5128.276;-12826.705;266;-300;-305.0;73;72.9;-26;-26.2;29.0;0.0;
15/06/2019 02:35:36;100;0;183.54;17;-22.61;-8.63;87.3;9.90;69709;5128.276;-12826.705;266;-300;-305.0;73;72.9;-29;-28.9;29.0;0.0;
15/06/2019 02:35:56;100;0;184.02;17;-22.58;-10.44;90.3;9.90;69704;5128.276;-12826.705;266;-300;-305.0;73;72.9;-28;-28.0;29.0;0.0;
15/06/2019 02:36:16;100;0;190.73;17;-22.08;-9.35;93.4;9.90;69696;5128.276;-12826.705;266;-300;-305.0;73;72.9;-24;-23.5;29.1;0.0;
15/06/2019 02:36:36;100;0;196.94;17;-21.57;-7.05;96.4;9.90;69700;5128.276;-12826.705;266;-300;-303.0;73;73.0;-22;-22.1;29.0;0.0;
15/06/2019 02:36:56;100;0;201.31;17;-21.53;-6.44;99.3;9.90;69693;5128.276;-12826.705;266;-300;-305.0;73;72.9;-20;-19.9;29.0;0.0;
15/06/2019 02:37:16;100;0;207.94;17;-20.82;-5.29;102.2;9.90;69691;5128.276;-12826.705;266;-300;-305.0;73;72.9;-19;-19.0;29.0;0.0;
15/06/2019 02:37:36;100;0;208.77;17;-21.26;-5.32;104.9;9.80;69681;5128.276;-12826.705;266;-300;-305.0;73;72.9;-20;-19.9;29.0;0.0;
15/06/2019 02:37:56;100;0;204.33;17;-21.08;-5.82;107.8;9.80;69677;5128.276;-12826.705;266;-300;-305.0;73;72.9;-24;-24.4;29.0;0.0;
15/06/2019 02:38:16;100;0;201.29;17;-21.13;-8.01;110.5;9.80;69668;5128.276;-12826.705;266;-300;-305.0;73;72.9;-25;-24.8;29.0;0.0;
15/06/2019 02:38:36;100;0;199.63;17;-21.00;-8.07;113.2;9.80;69656;5128.276;-12826.705;266;-300;-305.0;73;72.9;-26;-26.6;29.0;0.0;
15/06/2019 02:38:56;100;0;196.73;17;-21.42;-9.14;115.7;9.80;69659;5128.276;-12826.705;266;-300;-305.0;73;72.9;-27;-27.1;29.0;0.0;
15/06/2019 02:39:16;100;0;198.33;17;-21.06;-9.27;118.3;9.80;69652;5128.276;-12826.705;266;-300;-305.0;73;72.9;-25;-24.8;29.0;0.0;
15/06/2019 02:39:36;100;0;201.86;17;-20.09;-7.96;120.9;9.80;69653;5128.276;-12826.705;266;-300;-305.0;73;72.9;-23;-23.0;29.0;0.0;
15/06/2019 02:39:56;100;0;207.33;17;-20.53;-7.03;123.2;9.70;69640;5128.276;-12826.705;266;-300;-305.0;73;72.9;-20;-19.9;29.0;0.0;
15/06/2019 02:40:16;100;0;213.09;17;-20.27;-5.41;125.6;9.70;69624;5128.276;-12826.705;266;-300;-305.0;73;72.9;-18;-18.1;29.0;0.0;
15/06/2019 02:40:36;100;0;219.54;17;-19.90;-4.70;128.0;9.70;69628;5128.276;-12826.705;266;-300;-306.9;73;72.9;-16;-15.8;29.1;0.0;
15/06/2019 02:40:56;100;0;213.91;17;-20.17;-3.63;130.5;9.70;69611;5128.276;-12826.705;266;-300;-305.0;73;72.9;-22;-22.1;29.0;0.0;
15/06/2019 02:41:16;100;0;208.27;17;-19.78;-7.16;132.9;9.70;69604;5128.276;-12826.705;266;-300;-305.0;73;72.9;-24;-23.9;29.0;0.0;
15/06/2019 02:41:36;100;0;212.27;17;-19.08;-7.96;135.3;9.60;69584;5128.276;-12826.705;266;-300;-305.0;73;72.9;-21;-21.2;29.0;0.0;
15/06/2019 02:41:56;100;0;217.56;17;-18.79;-6.14;137.5;9.60;69583;5128.276;-12826.705;266;-300;-306.9;73;72.9;-19;-19.0;29.0;0.0;
15/06/2019 02:42:16;100;0;217.59;17;-19.02;-5.04;139.7;9.60;69560;5128.276;-12826.705;266;-300;-305.0;73;72.9;-20;-20.3;29.0;0.0;
15/06/2019 02:42:36;100;0;218.15;17;-19.03;-6.16;141.8;9.60;69552;5128.276;-12826.705;266;-300;-305.0;73;72.9;-20;-20.8;29.0;0.0;
15/06/2019 02:42:56;100;0;221.58;17;-19.14;-6.24;144.0;9.50;69535;5128.276;-12826.705;266;-300;-305.0;73;72.9;-18;-17.6;29.0;0.0;
15/06/2019 02:43:16;100;0;223.23;17;-19.13;-4.45;146.1;9.50;69528;5128.276;-12826.705;266;-300;-305.0;73;72.9;-18;-17.1;29.0;0.0;
15/06/2019 02:43:36;100;0;222.80;17;-18.79;-4.43;148.2;9.50;69514;5128.276;-12826.705;266;-300;-303.0;73;72.9;-19;-19.0;29.0;0.0;
15/06/2019 02:43:56;100;0;223.82;17;-18.54;-5.48;150.3;9.50;69514;5128.276;-12826.705;266;-300;-305.0;73;72.9;-19;-19.4;29.0;0.0;
15/06/2019 02:44:16;100;0;225.51;17;-18.83;-5.49;152.4;9.40;69501;5128.276;-12826.705;266;-300;-305.0;73;72.9;-18;-18.1;29.0;43.7;
15/06/2019 02:44:36;100;0;225.33;17;-19.04;-4.64;154.5;9.40;69493;5128.276;-12826.705;266;-300;-305.0;73;72.9;-19;-19.4;29.0;41.5;
15/06/2019 02:44:56;100;0;224.75;17;-18.95;-5.69;156.4;9.40;69484;5128.276;-12826.705;266;-300;-305.0;73;72.9;-19;-19.4;29.0;39.4;
15/06/2019 02:45:16;100;0;224.06;17;-18.82;-5.79;158.5;9.40;69479;5128.276;-12826.705;266;-300;-305.0;73;72.9;-19;-19.4;29.0;37.3;
15/06/2019 02:45:36;100;0;225.97;17;-19.01;-5.79;160.6;9.40;69478;5128.276;-12826.705;266;-300;-305.0;73;72.9;-19;-19.9;29.0;35.3;
15/06/2019 02:45:56;100;0;226.18;17;-18.97;-5.77;162.7;9.30;69477;5128.276;-12826.705;266;-300;-303.0;73;72.9;-18;-17.6;29.0;33.3;
15/06/2019 02:46:16;100;0;226.33;17;-18.65;-4.61;164.8;9.30;69481;5128.276;-12826.705;266;-300;-305.0;73;72.9;-19;-19.0;29.0;31.0;
15/06/2019 02:46:36;100;0;226.54;17;-18.85;-5.68;166.9;9.30;69460;5128.276;-12826.705;266;-300;-305.0;73;72.9;-19;-19.4;29.0;28.9;
15/06/2019 02:46:56;100;0;227.12;17;-18.50;-5.61;169.0;9.20;69442;5128.276;-12826.705;266;-300;-303.0;73;72.9;-18;-18.1;29.0;26.7;
15/06/2019 02:47:16;100;0;226.74;17;-18.63;-4.78;171.2;9.20;69451;5128.276;-12826.705;266;-300;-305.0;73;72.9;-19;-19.0;29.0;24.5;
15/06/2019 02:47:36;100;0;226.35;17;-18.82;-5.63;173.3;9.20;69443;5128.276;-12826.705;266;-300;-305.0;73;72.9;-19;-19.4;29.0;22.5;
15/06/2019 02:47:56;100;0;226.60;17;-18.72;-5.67;175.4;9.20;69445;5128.276;-12826.705;266;-300;-305.0;73;72.9;-19;-19.4;29.0;20.3;
15/06/2019 02:48:16;100;0;226.53;17;-18.72;-5.67;177.6;9.20;69436;5128.276;-12826.705;266;-300;-303.0;73;72.9;-19;-19.4;29.0;18.1;
15/06/2019 02:48:36;118;0;226.86;17;-18.66;-5.63;179.6;9.10;69439;5128.276;-12826.705;266;150;-291.1;57;56.8;0;0.9;29.0;15.9;
15/06/2019 02:48:46;118;0;165.06;17;2.01;4.14;180.5;9.10;69352;5128.276;-12826.705;266;150;-136.6;57;57.1;0;1.4;28.4;15.9;
15/06/2019 02:48:56;118;0;167.79;17;19.11;3.73;180.1;9.10;69139;5128.276;-12826.705;266;150;19.8;57;57.1;0;1.4;28.5;-1.0;
15/06/2019 02:49:06;118;0;168.65;17;24.01;3.90;179.3;9.10;68890;5128.276;-12826.705;266;150;154.5;57;56.9;0;1.4;28.5;-1.0;
15/06/2019 02:49:16;118;0;219.52;17;24.62;4.63;178.1;9.10;68684;5128.276;-12826.705;266;150;156.4;57;57.1;0;1.4;29.0;-1.0;
15/06/2019 02:49:26;118;0;219.03;17;26.89;3.86;176.6;9.10;68679;5128.276;-12826.705;266;150;156.4;57;57.1;0;1.4;29.0;-1.0;
15/06/2019 02:49:36;117;0;219.29;17;27.98;3.82;174.6;9.10;68690;5128.276;-12826.705;266;150;156.4;57;57.1;0;1.4;29.0;-1.0;
15/06/2019 02:49:56;117;0;217.98;17;27.95;3.98;170.5;9.10;68676;5128.276;-12826.705;266;150;156.4;57;56.9;24;23.9;29.0;-1.0;
15/06/2019 02:50:16;117;0;227.91;17;27.58;15.49;165.6;9.10;68686;5128.276;-12826.705;266;150;156.4;57;56.9;17;17.1;29.0;-1.0;
15/06/2019 02:50:36;117;0;230.24;17;27.84;11.28;161.2;9.00;68678;5128.276;-12826.705;266;150;156.4;57;56.9;16;15.8;29.0;-1.0;
15/06/2019 02:50:56;117;0;233.22;17;28.09;10.49;156.8;9.00;68678;5128.276;-12826.705;266;150;158.4;57;56.9;15;14.9;29.0;-1.0;
15/06/2019 02:51:16;117;0;238.37;17;27.97;10.11;152.3;9.00;68677;5128.276;-12826.705;266;150;156.4;57;56.9;14;14.0;29.0;-1.0;
15/06/2019 02:51:36;117;0;240.15;17;27.87;9.51;147.7;9.00;68672;5128.276;-12826.705;266;150;156.4;57;56.9;14;13.1;29.0;-1.0;
15/06/2019 02:51:57;117;0;241.29;17;27.98;9.46;143.3;8.90;68675;5128.276;-12826.705;266;150;156.4;57;57.1;14;13.1;29.0;-1.0;
15/06/2019 02:52:17;117;0;243.55;17;27.78;9.62;138.9;8.90;68678;5128.276;-12826.705;266;150;156.4;57;56.9;14;13.5;29.0;-1.0;
15/06/2019 02:52:37;117;0;244.41;17;27.56;9.46;134.5;8.90;68690;5128.276;-12826.705;266;150;156.4;57;56.9;14;13.1;29.0;-1.0;
15/06/2019 02:52:57;117;0;239.93;17;27.62;9.48;130.3;8.90;68689;5128.276;-12826.705;266;150;156.4;57;56.9;18;18.5;29.1;-1.0;
15/06/2019 02:53:17;117;0;249.86;17;25.78;12.17;126.4;8.90;68712;5128.276;-12826.705;266;150;158.4;57;56.9;18;19.0;29.0;-1.0;
15/06/2019 02:53:37;117;0;244.93;17;26.43;12.48;122.5;8.90;68734;5128.276;-12826.705;266;150;156.4;57;56.9;15;14.9;29.0;-1.0;
15/06/2019 02:53:57;117;0;247.70;17;26.17;10.05;118.7;8.90;68738;5128.276;-12826.705;266;150;156.4;57;56.9;14;14.0;29.0;-1.0;
15/06/2019 02:54:17;117;0;252.54;17;25.24;9.51;114.7;8.90;68757;5128.276;-12826.705;266;150;156.4;57;56.9;14;13.1;29.0;-1.0;
15/06/2019 02:54:37;117;0;262.51;17;24.54;9.51;111.0;8.90;68762;5128.276;-12826.705;266;150;156.4;57;56.9;6;5.9;29.0;-1.0;
15/06/2019 02:54:57;117;0;266.41;17;24.47;5.56;107.6;8.90;68773;5128.276;-12826.705;266;150;156.4;57;56.9;6;5.4;29.0;-1.0;
15/06/2019 02:55:17;117;0;264.49;17;24.46;5.69;104.2;8.90;68775;5128.276;-12826.705;266;150;156.4;57;56.9;8;8.1;29.1;-1.0;
15/06/2019 02:55:37;117;0;264.47;17;25.04;7.46;100.9;8.90;68782;5128.276;-12826.705;266;150;156.4;57;57.1;8;9.0;29.0;-1.0;
15/06/2019 02:55:57;117;0;258.29;17;24.64;7.66;97.2;8.90;68789;5128.276;-12826.705;266;150;156.4;57;56.9;12;12.6;29.0;-1.0;
15/06/2019 02:56:17;117;0;252.25;17;24.67;9.70;93.9;8.90;68798;5128.276;-12826.705;266;150;156.4;57;56.9;14;14.4;29.0;-1.0;
15/06/2019 02:56:37;117;0;255.00;17;23.61;10.51;90.2;8.90;68805;5128.276;-12826.705;266;150;156.4;57;56.9;11;10.8;29.0;-1.0;
15/06/2019 02:56:57;117;0;262.40;17;23.07;7.99;87.0;8.90;68818;5128.276;-12826.705;266;150;156.4;57;56.9;6;5.9;29.0;-1.0;
15/06/2019 02:57:17;117;0;264.73;17;22.59;5.65;83.8;8.90;68806;5128.276;-12826.705;266;150;156.4;57;56.9;5;5.0;29.0;-1.0;
15/06/2019 02:57:37;117;0;266.80;17;22.11;5.07;80.8;8.90;68823;5128.276;-12826.705;266;150;158.4;57;57.1;4;4.1;29.0;-1.0;
15/06/2019 02:57:57;117;0;269.92;17;21.46;5.13;78.0;8.90;68831;5128.276;-12826.705;266;150;156.4;57;56.9;3;3.2;29.0;-1.0;
15/06/2019 02:58:17;117;0;273.76;17;21.59;4.19;75.3;8.90;68839;5128.276;-12826.705;266;150;156.4;57;56.9;1;0.5;29.0;-1.0;
15/06/2019 02:58:37;117;0;275.15;17;21.45;3.23;72.7;8.90;68839;5128.276;-12826.705;266;150;156.4;57;56.9;1;0.0;29.0;-1.0;
15/06/2019 02:58:57;117;0;273.80;17;21.25;3.20;70.2;8.90;68852;5128.276;-12826.705;266;150;156.4;57;56.9;2;1.8;29.0;-1.0;
15/06/2019 02:59:17;117;0;269.33;17;21.31;4.52;67.6;8.90;68841;5128.276;-12826.705;266;150;158.4;57;56.9;4;4.1;29.0;-1.0;
15/06/2019 02:59:37;117;0;271.49;17;20.52;5.35;65.0;8.90;68855;5128.276;-12826.705;266;150;156.4;57;56.9;2;1.8;29.0;-1.0;
15/06/2019 02:59:57;117;0;270.89;17;20.61;3.70;62.6;8.90;68858;5128.276;-12826.705;266;150;158.4;57;56.9;2;1.4;29.0;-1.0;
15/06/2019 03:00:17;117;0;275.00;17;20.27;3.75;60.3;9.00;68869;5128.276;-12826.705;266;150;156.4;57;57.1;-1;-1.4;29.1;-1.0;
15/06/2019 03:00:37;117;0;273.13;17;20.41;2.23;58.1;9.00;68871;5128.276;-12826.705;266;150;156.4;57;56.9;0;0.0;29.0;-1.0;
15/06/2019 03:00:57;117;0;272.55;17;20.47;3.47;55.6;9.00;68875;5128.276;-12826.705;266;150;156.4;57;56.9;0;0.5;29.0;-1.0;
15/06/2019 03:01:17;117;0;272.55;17;20.15;3.47;53.2;9.00;68878;5128.276;-12826.705;266;150;156.4;57;56.9;0;0.9;29.0;-1.0;
15/06/2019 03:01:37;117;0;271.81;17;19.77;3.64;50.8;9.00;68878;5128.276;-12826.705;266;150;156.4;57;56.9;-1;-1.4;29.0;-1.0;
15/06/2019 03:01:57;117;0;269.82;17;20.06;2.40;48.5;9.00;68888;5128.276;-12826.705;266;150;158.4;57;56.9;0;0.0;29.0;-1.0;
15/06/2019 03:02:17;117;0;265.62;17;19.89;3.56;46.1;9.00;68892;5128.276;-12826.705;266;150;156.4;57;56.9;0;0.9;29.0;-1.0;
15/06/2019 03:02:37;117;0;267.54;17;19.43;3.57;43.7;9.00;68902;5128.276;-12826.705;266;150;156.4;57;56.9;-2;-1.8;29.0;-1.0;
15/06/2019 03:02:57;117;0;269.86;17;19.21;2.03;41.3;9.10;68916;5128.276;-12826.705;266;150;156.4;57;56.9;-4;-4.1;29.0;-1.0;
15/06/2019 03:03:17;117;0;265.62;17;19.48;0.89;39.3;9.10;68910;5128.276;-12826.705;266;150;156.4;57;56.9;-2;-1.8;29.0;-1.0;
15/06/2019 03:03:37;117;0;260.74;17;19.06;2.72;37.1;9.10;68917;5128.276;-12826.705;266;150;156.4;57;56.9;0;0.0;29.0;-1.0;
15/06/2019 03:03:57;117;0;260.88;17;18.72;3.54;34.9;9.10;68922;5128.276;-12826.705;266;150;156.4;57;56.9;-1;-0.9;29.0;-1.0;
15/06/2019 03:04:17;117;0;261.23;17;18.82;2.53;32.9;9.10;68945;5128.276;-12826.705;266;150;156.4;57;56.9;-3;-3.2;29.0;-1.0;
15/06/2019 03:04:37;117;0;260.99;17;18.34;1.27;31.0;9.10;68953;5128.276;-12826.705;266;150;156.4;57;56.9;-3;-4.1;29.0;-1.0;
15/06/2019 03:04:57;117;0;254.76;17;18.24;1.27;28.8;9.10;68965;5128.276;-12826.705;266;150;156.4;57;57.1;0;0.5;29.0;-1.0;
15/06/2019 03:05:17;117;0;254.66;17;17.42;3.68;26.9;9.20;68992;5128.276;-12826.705;266;150;156.4;57;56.9;-2;-2.3;29.0;-1.0;
15/06/2019 03:05:37;117;0;254.62;17;17.27;2.06;25.0;9.20;69013;5128.276;-12826.705;266;150;156.4;57;57.1;-2;-2.7;29.0;-1.0;
15/06/2019 03:05:57;117;0;258.48;17;16.85;2.08;23.3;9.20;69037;5128.276;-12826.705;266;150;158.4;57;56.9;-5;-5.0;29.0;-1.0;
15/06/2019 03:06:17;117;0;253.92;17;16.59;0.32;21.7;9.20;69054;5128.276;-12826.705;266;150;156.4;57;56.9;-2;-1.8;29.0;-1.0;
15/06/2019 03:06:37;117;0;252.26;17;16.40;2.59;20.0;9.30;69087;5128.276;-12826.705;266;150;156.4;57;56.9;-2;-1.4;29.0;-1.0;
15/06/2019 03:06:57;117;0;250.70;17;15.99;2.64;18.5;9.30;69115;5128.276;-12826.705;266;150;156.4;57;57.1;-2;-1.4;29.0;-1.0;
15/06/2019 03:07:17;117;0;250.43;17;15.91;2.66;16.9;9.40;69148;5128.276;-12826.705;266;150;156.4;57;57.1;-2;-1.4;29.0;-1.0;
15/06/2019 03:07:37;117;0;250.20;17;16.00;2.71;15.2;9.40;69176;5128.276;-12826.705;266;150;156.4;57;56.9;-3;-3.2;29.0;-1.0;
15/06/2019 03:07:57;117;0;249.79;17;16.24;1.27;13.5;9.40;69206;5128.276;-12826.705;266;150;156.4;57;57.1;-3;-3.6;29.0;-1.0;
15/06/2019 03:08:17;117;0;246.93;17;15.00;1.37;11.8;9.50;69245;5128.276;-12826.705;266;150;156.4;57;56.9;-3;-3.6;29.0;-1.0;
15/06/2019 03:08:37;117;0;237.05;17;15.07;1.28;10.4;9.50;69274;5128.276;-12826.705;266;150;156.4;57;57.1;3;3.2;29.0;-1.0;
