Timestamp;NavState;SecurityLevel;Heading;Declination;Pitch;Roll;Depth;Temperature;Pa;Lat;Lon;DesiredH;BallastCmd;BallastPos;LinCmd;LinPos;AngCmd;AngPos;Voltage;Altitude;
15/06/2019 16:29:17;117;0;300.07;17;15.85;3.35;9.3;11.90;69533;5123.616;-12837.242;277;150;158.4;57;57.1;-1;-0.9;28.9;-1.0;
15/06/2019 16:29:27;110;0;298.36;17;15.12;2.84;8.5;12.00;69538;5123.616;-12837.242;277;-300;-59.4;73;73.3;0;0.9;28.9;-1.0;
15/06/2019 16:29:37;110;0;314.96;17;-10.09;4.33;8.1;12.00;70046;5123.616;-12837.242;277;-300;-305.0;73;73.0;0;0.9;28.7;-1.0;
15/06/2019 16:29:47;110;0;309.38;17;-23.42;4.08;8.8;12.00;70343;5123.616;-12837.242;277;-300;-305.0;73;73.0;0;0.9;28.9;-1.0;
15/06/2019 16:29:57;100;0;306.64;17;-26.79;3.94;10.5;12.00;70338;5123.616;-12837.242;277;-300;-305.0;73;73.0;0;0.9;28.9;-1.0;
15/06/2019 16:30:17;100;0;289.90;17;-26.55;4.27;14.6;12.00;70334;5123.616;-12837.242;277;-300;-306.9;73;73.0;-5;-5.0;28.9;0.0;
15/06/2019 16:30:37;100;0;279.95;17;-26.42;1.20;18.9;12.10;70327;5123.616;-12837.242;277;-300;-306.9;73;73.0;-9;-9.0;28.9;0.0;
15/06/2019 16:30:57;100;0;272.80;17;-26.62;-0.62;22.8;12.10;70291;5123.616;-12837.242;277;-300;-305.0;73;73.0;-10;-10.4;28.9;0.0;
15/06/2019 16:31:17;100;0;270.78;17;-24.72;-1.39;26.8;12.10;70244;5123.616;-12837.242;277;-300;-305.0;73;73.0;-8;-8.1;28.9;0.0;
15/06/2019 16:31:37;100;0;270.96;17;-24.75;0.33;30.6;12.10;70187;5123.616;-12837.242;277;-300;-306.9;73;73.0;-6;-5.4;28.9;0.0;
15/06/2019 16:31:57;100;0;261.63;17;-24.70;1.48;34.2;12.00;70142;5123.616;-12837.242;277;-300;-305.0;73;73.0;-11;-10.8;28.9;0.0;
15/06/2019 16:32:17;100;0;257.88;17;-24.92;-1.54;38.1;12.00;70123;5123.616;-12837.242;277;-300;-305.0;73;73.0;-11;-11.3;28.9;0.0;
15/06/2019 16:32:37;100;0;253.77;17;-24.62;-1.64;42.0;12.00;70079;5123.616;-12837.242;277;-300;-305.0;73;73.0;-11;-10.8;28.9;0.0;
15/06/2019 16:32:57;100;0;249.46;17;-24.64;-1.64;45.7;11.90;70069;5123.616;-12837.242;277;-300;-305.0;73;73.0;-13;-13.1;28.9;0.0;
15/06/2019 16:33:17;100;0;245.04;17;-24.41;-2.69;49.6;11.90;70059;5123.616;-12837.242;277;-300;-305.0;73;73.0;-14;-14.4;28.9;0.0;
15/06/2019 16:33:38;100;0;243.11;17;-24.59;-3.25;53.2;11.90;70043;5123.616;-12837.242;277;-300;-306.9;73;73.0;-14;-14.4;28.9;0.0;
15/06/2019 16:33:58;100;0;239.10;17;-24.67;-3.36;57.0;11.80;70021;5123.616;-12837.242;277;-300;-305.0;73;73.0;-16;-16.2;28.9;0.0;
15/06/2019 16:34:18;100;0;239.66;17;-24.26;-4.11;60.6;11.80;70012;5123.616;-12837.242;277;-300;-305.0;73;73.0;-15;-14.9;28.9;0.0;
15/06/2019 16:34:38;100;0;240.64;17;-24.22;-3.04;64.3;11.80;70008;5123.616;-12837.242;277;-300;-305.0;73;73.0;-15;-14.4;28.9;0.0;
15/06/2019 16:34:58;100;0;237.36;17;-24.20;-3.35;67.9;11.80;69997;5123.616;-12837.242;277;-300;-305.0;73;72.9;-17;-17.6;28.9;0.0;
15/06/2019 16:35:18;100;0;236.45;17;-24.05;-4.66;71.5;11.70;69977;5123.616;-12837.242;277;-300;-305.0;73;73.0;-17;-18.1;28.9;0.0;
15/06/2019 16:35:38;100;0;239.74;17;-24.19;-5.16;74.9;11.70;69969;5123.616;-12837.242;277;-300;-306.9;73;73.0;-16;-15.8;28.9;0.0;
15/06/2019 16:35:58;100;0;250.72;17;-24.15;-3.27;78.4;11.70;69951;5123.616;-12837.242;277;-300;-305.0;73;73.0;-10;-9.9;28.9;0.0;
15/06/2019 16:36:18;100;0;249.77;17;-23.37;-0.62;81.9;11.60;69944;5123.616;-12837.242;277;-300;-305.0;73;72.9;-13;-13.5;28.9;0.0;
15/06/2019 16:36:38;100;0;238.10;17;-23.06;-2.95;85.4;11.60;69921;5123.616;-12837.242;277;-300;-308.9;73;72.9;-21;-21.2;28.9;0.0;
15/06/2019 16:36:58;100;0;224.42;17;-23.52;-6.50;88.9;11.60;69909;5123.616;-12837.242;277;-300;-305.0;73;73.0;-28;-28.0;28.9;0.0;
15/06/2019 16:37:18;100;0;221.65;17;-23.21;-9.56;92.5;11.50;69893;5123.616;-12837.242;277;-300;-306.9;73;73.0;-27;-26.6;28.9;0.0;
15/06/2019 16:37:38;100;0;221.10;17;-21.83;-8.59;96.1;11.50;69882;5123.616;-12837.242;277;-300;-305.0;73;73.0;-24;-23.9;28.9;0.0;
15/06/2019 16:37:58;100;0;217.87;17;-22.10;-7.27;99.4;11.50;69870;5123.616;-12837.242;277;-300;-306.9;73;73.0;-26;-26.6;28.9;0.0;
15/06/2019 16:38:18;100;0;218.30;17;-21.47;-9.02;102.7;11.40;69877;5123.616;-12837.242;277;-300;-305.0;73;73.0;-24;-23.9;28.9;0.0;
15/06/2019 16:38:38;100;0;208.11;17;-21.81;-7.45;105.8;11.40;69855;5123.616;-12837.242;277;-300;-305.0;73;72.9;-29;-28.9;28.9;0.0;
15/06/2019 16:38:58;100;0;208.86;17;-21.53;-10.16;108.6;11.40;69836;5123.616;-12837.242;277;-300;-306.9;73;73.0;-27;-27.1;28.9;0.0;
15/06/2019 16:39:18;100;0;211.24;17;-21.18;-8.76;111.4;11.30;69828;5123.616;-12837.242;277;-300;-306.9;73;73.0;-24;-23.5;28.9;0.0;
15/06/2019 16:39:38;100;0;206.50;17;-20.96;-7.39;114.1;11.30;69827;5123.616;-12837.242;277;-300;-306.9;73;73.0;-27;-27.1;28.9;0.0;
15/06/2019 16:39:58;100;0;207.74;17;-21.65;-9.24;116.7;11.30;69807;5123.616;-12837.242;277;-300;-305.0;73;73.0;-25;-24.4;28.9;0.0;
15/06/2019 16:40:18;100;0;208.75;17;-21.26;-7.92;119.1;11.20;69809;5123.616;-12837.242;277;-300;-306.9;73;73.0;-25;-23.9;28.9;0.0;
15/06/2019 16:40:38;100;0;209.75;17;-21.68;-7.83;121.6;11.20;69797;5123.616;-12837.242;277;-300;-306.9;73;73.0;-24;-23.9;28.9;0.0;
15/06/2019 16:40:58;100;0;216.09;17;-21.05;-7.87;123.9;11.20;69799;5123.616;-12837.242;277;-300;-305.0;73;73.0;-20;-19.9;28.9;0.0;
15/06/2019 16:41:18;100;0;216.67;17;-20.96;-5.28;126.3;11.10;69774;5123.616;-12837.242;277;-300;-305.0;73;73.0;-22;-22.6;28.9;0.0;
15/06/2019 16:41:38;100;0;221.20;17;-19.78;-7.22;128.7;11.10;69759;5123.616;-12837.242;277;-300;-306.9;73;73.0;-20;-19.9;28.9;0.0;
15/06/2019 16:41:58;100;0;224.42;17;-20.25;-5.51;131.0;11.10;69756;5123.616;-12837.242;277;-300;-305.0;73;73.0;-19;-19.0;28.9;0.0;
15/06/2019 16:42:18;100;0;226.89;17;-19.54;-5.41;133.4;11.00;69737;5123.616;-12837.242;277;-300;-306.9;73;72.9;-19;-19.0;28.9;0.0;
15/06/2019 16:42:38;100;0;228.88;17;-20.11;-5.44;135.6;11.00;69728;5123.616;-12837.242;277;-300;-306.9;73;73.0;-19;-19.0;28.8;0.0;
15/06/2019 16:42:58;100;0;232.46;17;-19.83;-5.06;138.0;11.00;69727;5123.616;-12837.242;277;-300;-305.0;73;73.0;-18;-18.1;28.9;0.0;
15/06/2019 16:43:18;100;0;230.78;17;-19.54;-4.63;140.2;10.90;69709;5123.616;-12837.242;277;-300;-305.0;73;72.9;-20;-19.9;28.9;0.0;
15/06/2019 16:43:38;100;0;234.78;17;-20.31;-6.20;142.4;10.90;69707;5123.616;-12837.242;277;-300;-305.0;73;72.9;-18;-18.1;28.9;0.0;
15/06/2019 16:43:58;100;0;237.65;17;-19.23;-4.53;144.8;10.80;69694;5123.616;-12837.242;277;-300;-306.9;73;73.0;-17;-17.1;28.9;0.0;
15/06/2019 16:44:18;100;0;240.94;17;-19.18;-4.43;147.2;10.80;69688;5123.616;-12837.242;277;-300;-305.0;73;73.0;-16;-15.8;28.9;0.0;
15/06/2019 16:44:38;100;0;245.74;17;-18.94;-3.66;149.5;10.80;69679;5123.616;-12837.242;277;-300;-305.0;73;72.9;-14;-13.5;28.9;0.0;
15/06/2019 16:44:58;100;0;243.31;17;-19.08;-2.65;151.9;10.70;69678;5123.616;-12837.242;277;-300;-305.0;73;73.0;-17;-17.1;28.9;0.0;
15/06/2019 16:45:18;100;0;238.68;17;-19.05;-4.70;154.2;10.70;69659;5123.616;-12837.242;277;-300;-305.0;73;72.9;-20;-20.3;28.9;0.0;
15/06/2019 16:45:38;100;0;237.37;17;-18.84;-6.02;156.6;10.70;69655;5123.616;-12837.242;277;-300;-305.0;73;72.9;-20;-20.3;28.9;0.0;
15/06/2019 16:45:58;100;0;236.32;17;-19.10;-6.04;159.1;10.60;69640;5123.616;-12837.242;277;-300;-305.0;73;73.0;-20;-20.3;28.9;0.0;
15/06/2019 16:46:18;100;0;235.68;17;-18.65;-6.05;161.3;10.60;69637;5123.616;-12837.242;277;-300;-305.0;73;73.0;-20;-20.3;28.9;0.0;
15/06/2019 16:46:38;100;0;233.04;17;-18.76;-6.07;163.7;10.50;69617;5123.616;-12837.242;277;-300;-305.0;73;72.9;-21;-21.7;28.9;0.0;
15/06/2019 16:46:58;100;0;230.35;17;-18.86;-6.74;166.0;10.50;69619;5123.616;-12837.242;277;-300;-305.0;73;72.9;-22;-22.1;28.9;0.0;
15/06/2019 16:47:18;100;0;229.33;17;-18.96;-7.12;168.2;10.50;69601;5123.616;-12837.242;277;-300;-305.0;73;72.9;-22;-22.6;28.9;43.0;
15/06/2019 16:47:38;100;0;229.07;17;-19.12;-7.09;170.3;10.40;69596;5123.616;-12837.242;277;-300;-305.0;73;72.9;-21;-21.2;28.9;40.8;
15/06/2019 16:47:58;100;0;228.06;17;-18.98;-6.16;172.4;10.40;69592;5123.616;-12837.242;277;-300;-305.0;73;73.0;-21;-20.8;28.9;38.6;
15/06/2019 16:48:18;100;0;227.57;17;-18.87;-6.20;174.6;10.30;69581;5123.616;-12837.242;277;-300;-306.9;73;72.9;-22;-22.6;28.9;36.4;
15/06/2019 16:48:38;100;0;228.16;17;-18.95;-7.34;176.7;10.30;69572;5123.616;-12837.242;277;-300;-305.0;73;73.0;-21;-21.2;28.9;34.3;
15/06/2019 16:48:58;100;0;228.52;17;-19.01;-6.13;178.8;10.30;69568;5123.616;-12837.242;277;-300;-305.0;73;73.0;-21;-20.3;28.9;32.1;
15/06/2019 16:49:18;100;0;227.91;17;-18.90;-6.13;180.9;10.20;69563;5123.616;-12837.242;277;-300;-305.0;73;73.0;-21;-20.8;28.9;29.9;
15/06/2019 16:49:38;100;0;228.91;17;-18.81;-6.11;183.0;10.20;69559;5123.616;-12837.242;277;-300;-305.0;73;72.9;-21;-20.3;28.9;27.8;
15/06/2019 16:49:58;100;0;230.90;17;-18.70;-6.16;185.0;10.20;69552;5123.616;-12837.242;277;-300;-303.0;73;72.9;-19;-18.5;28.9;25.7;
15/06/2019 16:50:18;100;0;231.56;17;-18.83;-5.09;187.1;10.20;69552;5123.616;-12837.242;277;-300;-305.0;73;73.0;-19;-18.1;28.8;23.6;
15/06/2019 16:50:38;100;0;231.48;17;-18.91;-5.05;189.1;10.10;69547;5123.616;-12837.242;277;-300;-305.0;73;72.9;-20;-19.9;28.9;21.5;
15/06/2019 16:50:58;100;0;232.85;17;-19.18;-6.18;191.2;10.10;69548;5123.616;-12837.242;277;-300;-305.0;73;73.0;-19;-19.0;28.9;19.5;
15/06/2019 16:51:18;118;0;236.06;17;-18.06;-5.08;193.3;10.10;69542;5123.616;-12837.242;277;150;-293.1;57;56.9;0;0.5;28.9;17.3;
15/06/2019 16:51:28;118;0;172.43;17;2.96;3.80;194.1;10.00;69452;5123.616;-12837.242;277;150;-136.6;57;57.1;0;0.5;28.4;17.3;
15/06/2019 16:51:38;118;0;174.38;17;20.18;3.59;193.7;10.00;69245;5123.616;-12837.242;277;150;19.8;57;56.9;0;0.5;28.3;-1.0;
15/06/2019 16:51:48;118;0;173.29;17;22.82;3.79;192.8;10.00;68988;5123.616;-12837.242;277;150;156.4;57;56.9;0;0.5;28.3;-1.0;
15/06/2019 16:51:58;118;0;221.88;17;25.28;4.41;191.6;10.00;68792;5123.616;-12837.242;277;150;156.4;57;57.1;0;0.5;28.9;-1.0;
15/06/2019 16:52:08;118;0;221.21;17;27.08;3.69;190.0;10.00;68793;5123.616;-12837.242;277;150;156.4;57;57.1;0;0.5;28.9;-1.0;
15/06/2019 16:52:18;117;0;221.09;17;28.11;3.62;188.1;10.00;68794;5123.616;-12837.242;277;150;156.4;57;56.9;0;0.5;28.9;-1.0;
15/06/2019 16:52:38;117;0;219.52;17;28.28;3.67;183.6;10.00;68797;5123.616;-12837.242;277;150;156.4;57;56.9;27;27.1;28.9;-1.0;
15/06/2019 16:52:58;117;0;231.02;17;27.73;17.11;178.7;9.90;68789;5123.616;-12837.242;277;150;156.4;57;56.9;18;17.6;28.9;-1.0;
15/06/2019 16:53:18;117;0;237.74;17;27.86;11.69;174.2;9.90;68775;5123.616;-12837.242;277;150;156.4;57;56.9;16;15.3;28.8;-1.0;
15/06/2019 16:53:38;117;0;246.62;17;27.91;10.33;169.6;9.90;68781;5123.616;-12837.242;277;150;156.4;57;56.9;12;11.7;28.9;-1.0;
15/06/2019 16:53:58;117;0;254.07;17;27.79;8.58;165.1;9.80;68778;5123.616;-12837.242;277;150;156.4;57;56.9;10;9.9;28.9;-1.0;
15/06/2019 16:54:18;117;0;257.56;17;27.58;7.74;160.9;9.80;68780;5123.616;-12837.242;277;150;156.4;57;56.9;11;10.8;28.9;-1.0;
15/06/2019 16:54:38;117;0;260.09;17;27.29;8.57;156.5;9.80;68784;5123.616;-12837.242;277;150;156.4;57;56.9;11;11.7;28.9;-1.0;
15/06/2019 16:54:58;117;0;264.03;17;26.94;8.86;152.3;9.70;68790;5123.616;-12837.242;277;150;156.4;57;56.9;11;11.7;28.9;-1.0;
15/06/2019 16:55:18;117;0;260.90;17;27.74;8.94;148.2;9.70;68790;5123.616;-12837.242;277;150;156.4;57;56.9;11;11.7;28.9;-1.0;
15/06/2019 16:55:38;117;0;256.58;17;27.88;9.05;144.0;9.70;68802;5123.616;-12837.242;277;150;156.4;57;56.9;16;15.8;28.9;-1.0;
15/06/2019 16:55:58;117;0;265.18;17;27.41;11.24;139.8;9.70;68792;5123.616;-12837.242;277;150;156.4;57;56.9;16;16.2;28.9;-1.0;
15/06/2019 16:56:18;117;0;265.90;17;26.86;11.15;135.5;9.60;68803;5123.616;-12837.242;277;150;156.4;57;56.9;12;12.2;28.9;-1.0;
15/06/2019 16:56:38;117;0;267.64;17;27.08;8.65;131.3;9.60;68811;5123.616;-12837.242;277;150;156.4;57;56.9;11;10.8;28.8;-1.0;
15/06/2019 16:56:58;117;0;268.12;17;26.74;8.23;127.2;9.60;68829;5123.616;-12837.242;277;150;156.4;57;56.9;11;10.4;28.9;-1.0;
15/06/2019 16:57:18;117;0;281.62;17;25.85;8.74;123.1;9.60;68830;5123.616;-12837.242;277;150;156.4;57;56.9;3;3.2;28.9;-1.0;
15/06/2019 16:57:38;117;0;291.25;17;26.01;4.41;119.1;9.60;68848;5123.616;-12837.242;277;150;156.4;57;56.9;0;0.0;28.9;-1.0;
15/06/2019 16:57:58;117;0;300.09;17;25.14;2.83;115.1;9.60;68848;5123.616;-12837.242;277;150;156.4;57;56.9;-2;-1.8;28.9;-1.0;
15/06/2019 16:58:18;117;0;301.52;17;24.68;2.44;111.5;9.60;68867;5123.616;-12837.242;277;150;156.4;57;56.9;0;0.0;28.9;-1.0;
15/06/2019 16:58:38;117;0;300.36;17;24.79;3.38;108.0;9.60;68867;5123.616;-12837.242;277;150;156.4;57;56.9;1;0.9;28.9;-1.0;
15/06/2019 16:58:58;117;0;293.19;17;24.68;3.50;104.5;9.60;68874;5123.616;-12837.242;277;150;156.4;57;56.9;5;5.0;28.9;-1.0;
15/06/2019 16:59:18;117;0;290.75;17;24.36;5.90;101.1;9.60;68879;5123.616;-12837.242;277;150;158.4;57;56.9;5;5.4;28.9;-1.0;
15/06/2019 16:59:38;117;0;291.02;17;24.00;5.83;97.7;9.60;68887;5123.616;-12837.242;277;150;156.4;57;56.9;3;3.2;28.9;-1.0;
15/06/2019 16:59:58;117;0;288.11;17;24.26;4.42;94.5;9.60;68889;5123.616;-12837.242;277;150;156.4;57;56.9;4;4.1;28.9;-1.0;
15/06/2019 17:00:18;117;0;283.39;17;23.92;5.80;91.2;9.60;68889;5123.616;-12837.242;277;150;156.4;57;56.9;5;5.0;28.9;-1.0;
15/06/2019 17:00:38;117;0;276.41;17;23.62;5.56;88.0;9.60;68895;5123.616;-12837.242;277;150;158.4;57;56.9;8;8.6;28.9;-1.0;
15/06/2019 17:00:58;117;0;267.78;17;23.31;7.68;85.2;9.60;68898;5123.616;-12837.242;277;150;156.4;57;56.9;11;10.8;28.9;-1.0;
15/06/2019 17:01:18;117;0;279.09;17;21.89;9.01;82.4;9.60;68917;5123.616;-12837.242;277;150;156.4;57;57.1;0;-0.5;28.9;-1.0;
15/06/2019 17:01:38;117;0;290.71;17;22.25;2.81;79.7;9.60;68926;5123.616;-12837.242;277;150;156.4;57;56.9;-5;-5.0;28.9;-1.0;
15/06/2019 17:01:58;117;0;282.45;17;21.48;0.51;77.1;9.60;68931;5123.616;-12837.242;277;150;156.4;57;56.9;1;0.9;28.9;-1.0;
15/06/2019 17:02:18;117;0;274.74;17;21.48;4.08;74.4;9.60;68940;5123.616;-12837.242;277;150;156.4;57;56.9;5;5.0;28.9;-1.0;
15/06/2019 17:02:38;117;0;274.16;17;21.23;6.08;71.7;9.60;68934;5123.616;-12837.242;277;150;156.4;57;56.9;2;1.8;28.9;-1.0;
15/06/2019 17:02:58;117;0;271.07;17;20.96;3.80;69.1;9.60;68944;5123.616;-12837.242;277;150;158.4;57;56.9;3;3.6;28.9;-1.0;
15/06/2019 17:03:18;117;0;271.85;17;20.59;5.24;66.6;9.60;68966;5123.616;-12837.242;277;150;156.4;57;56.9;2;1.8;28.9;-1.0;
15/06/2019 17:03:38;117;0;271.92;17;20.51;3.76;64.1;9.60;68969;5123.616;-12837.242;277;150;156.4;57;56.9;1;0.9;28.9;-1.0;
15/06/2019 17:03:58;117;0;270.21;17;20.29;3.44;61.6;9.60;68979;5123.616;-12837.242;277;150;158.4;57;56.9;1;0.9;28.9;-1.0;
15/06/2019 17:04:18;117;0;263.07;17;20.26;3.38;59.3;9.60;68986;5123.616;-12837.242;277;150;156.4;57;56.9;4;4.1;28.9;-1.0;
15/06/2019 17:04:38;117;0;262.62;17;19.99;5.53;56.9;9.60;68997;5123.616;-12837.242;277;150;156.4;57;56.9;3;3.2;28.9;-1.0;
15/06/2019 17:04:58;117;0;260.44;17;20.06;4.32;54.7;9.60;69003;5123.616;-12837.242;277;150;158.4;57;56.9;3;2.3;28.9;-1.0;
15/06/2019 17:05:18;117;0;258.74;17;19.80;4.28;52.5;9.70;69010;5123.616;-12837.242;277;150;158.4;57;56.9;3;2.3;28.9;-1.0;
15/06/2019 17:05:38;117;0;258.30;17;19.79;4.37;50.3;9.70;69020;5123.616;-12837.242;277;150;156.4;57;56.9;3;2.3;28.9;-1.0;
15/06/2019 17:05:59;117;0;259.85;17;19.44;4.37;48.1;9.70;69028;5123.616;-12837.242;277;150;156.4;57;56.9;3;2.3;28.9;-1.0;
15/06/2019 17:06:19;117;0;259.81;17;19.50;4.38;46.0;9.70;69039;5123.616;-12837.242;277;150;154.5;57;56.9;3;2.3;28.9;-1.0;
15/06/2019 17:06:39;117;0;259.29;17;19.60;4.41;43.9;9.70;69044;5123.616;-12837.242;277;150;158.4;57;56.9;3;2.3;28.9;-1.0;
15/06/2019 17:06:59;117;0;259.14;17;19.48;4.37;41.7;9.70;69051;5123.616;-12837.242;277;150;156.4;57;56.9;3;2.3;28.9;-1.0;
15/06/2019 17:07:19;117;0;257.54;17;19.11;4.39;39.8;9.80;69053;5123.616;-12837.242;277;150;156.4;57;56.9;3;2.3;28.9;-1.0;
15/06/2019 17:07:39;117;0;257.03;17;19.22;4.40;37.9;9.80;69061;5123.616;-12837.242;277;150;156.4;57;57.1;3;2.3;28.9;-1.0;
15/06/2019 17:07:59;117;0;257.70;17;18.96;4.33;36.0;9.80;69066;5123.616;-12837.242;277;150;158.4;57;56.9;3;2.7;28.9;-1.0;
15/06/2019 17:08:19;117;0;255.63;17;18.88;4.33;34.0;9.80;69078;5123.616;-12837.242;277;150;158.4;57;56.9;4;4.1;28.9;-1.0;
15/06/2019 17:08:39;117;0;259.13;17;18.85;5.78;32.0;9.80;69093;5123.616;-12837.242;277;150;156.4;57;56.9;4;5.0;28.9;-1.0;
15/06/2019 17:08:59;117;0;261.42;17;18.89;5.78;29.9;9.80;69095;5123.616;-12837.242;277;150;156.4;57;56.9;4;5.0;28.9;-1.0;
15/06/2019 17:09:19;117;0;258.00;17;18.84;5.75;27.8;9.80;69109;5123.616;-12837.242;277;150;156.4;57;57.1;4;5.0;28.9;-1.0;
15/06/2019 17:09:39;117;0;254.75;17;18.83;5.77;25.7;9.90;69122;5123.616;-12837.242;277;150;156.4;57;56.9;5;5.0;28.9;-1.0;
15/06/2019 17:09:59;117;0;248.31;17;17.74;5.70;23.6;9.90;69149;5123.616;-12837.242;277;150;156.4;57;56.9;8;8.1;28.9;-1.0;
15/06/2019 17:10:19;117;0;252.26;17;17.22;7.94;21.8;9.90;69165;5123.616;-12837.242;277;150;158.4;57;56.9;5;5.0;28.9;-1.0;
15/06/2019 17:10:39;117;0;261.36;17;16.73;5.57;20.0;9.90;69211;5123.616;-12837.242;277;150;156.4;57;56.9;5;4.5;28.9;-1.0;
15/06/2019 17:10:59;117;0;262.37;17;16.49;5.41;18.1;10.00;69247;5123.616;-12837.242;277;150;156.4;57;56.9;5;4.5;28.9;-1.0;
15/06/2019 17:11:19;117;0;264.07;17;16.20;5.29;16.2;10.00;69294;5123.616;-12837.242;277;150;156.4;57;56.9;0;-0.5;28.9;-1.0;
15/06/2019 17:11:39;117;0;265.14;17;16.44;2.84;14.2;10.10;69325;5123.616;-12837.242;277;150;156.4;57;56.9;0;-0.9;28.9;-1.0;
15/06/2019 17:11:59;117;0;269.86;17;16.34;2.79;12.3;10.10;69361;5123.616;-12837.242;277;150;156.4;57;57.1;-1;-0.9;28.9;-1.0;
15/06/2019 17:12:19;117;0;270.47;17;15.90;2.78;10.5;10.20;69390;5123.616;-12837.242;277;150;156.4;57;56.9;-1;-0.9;28.9;-1.0;
