Timestamp;NavState;SecurityLevel;Heading;Declination;Pitch;Roll;Depth;Temperature;Pa;Lat;Lon;DesiredH;BallastCmd;BallastPos;LinCmd;LinPos;AngCmd;AngPos;Voltage;Altitude;
16/06/2019 14:59:04;117;0;24.25;17;15.46;3.32;9.7;10.70;69504;5125.135;-12838.779;54;150;156.4;57;57.2;0;0.0;28.7;-1.0;
16/06/2019 14:59:14;110;0;24.90;17;14.95;3.32;9.0;10.70;69500;5125.135;-12838.779;54;-300;-63.4;73;73.3;0;0.0;28.7;-1.0;
16/06/2019 14:59:24;110;0;32.70;17;-9.96;3.70;8.6;10.70;70019;5125.135;-12838.779;54;-300;-305.0;73;73.0;0;0.0;28.6;-1.0;
16/06/2019 14:59:34;110;0;18.10;17;-22.96;4.19;9.4;10.80;70302;5125.135;-12838.779;54;-300;-305.0;73;72.9;0;0.0;28.7;-1.0;
16/06/2019 14:59:44;100;0;16.35;17;-27.29;3.51;11.0;10.80;70295;5125.135;-12838.779;54;-300;-306.9;73;73.0;0;0.0;28.7;-1.0;
16/06/2019 15:00:04;100;0;12.31;17;-27.48;3.64;15.4;10.90;70297;5125.135;-12838.779;54;-300;-306.9;73;73.0;-6;-5.9;28.7;0.0;
16/06/2019 15:00:24;100;0;11.74;17;-25.95;0.81;20.8;10.90;70290;5125.135;-12838.779;54;-300;-306.9;73;73.0;-5;-5.0;28.7;0.0;
16/06/2019 15:00:44;100;0;3.79;17;-25.47;1.67;25.3;11.00;70272;5125.135;-12838.779;54;-300;-306.9;73;73.0;-9;-9.0;28.7;0.0;
16/06/2019 15:01:04;100;0;0.02;17;-26.14;-0.80;29.6;11.00;70250;5125.135;-12838.779;54;-300;-306.9;73;73.0;-9;-9.5;28.7;0.0;
16/06/2019 15:01:24;100;0;358.37;17;-24.60;-0.60;34.1;11.00;70190;5125.135;-12838.779;54;-300;-306.9;73;73.0;-9;-9.5;28.7;0.0;
16/06/2019 15:01:44;100;0;355.73;17;-24.86;-0.80;38.0;11.00;70151;5125.135;-12838.779;54;-300;-305.0;73;73.0;-10;-9.9;28.7;0.0;
16/06/2019 15:02:04;100;0;350.99;17;-24.97;-1.22;41.9;11.00;70115;5125.135;-12838.779;54;-300;-306.9;73;73.0;-13;-13.5;28.7;0.0;
16/06/2019 15:02:24;100;0;346.79;17;-24.96;-2.96;45.8;11.00;70087;5125.135;-12838.779;54;-300;-306.9;73;73.0;-16;-15.8;28.7;0.0;
16/06/2019 15:02:44;100;0;346.16;17;-25.08;-3.91;49.6;11.00;70071;5125.135;-12838.779;54;-300;-305.0;73;73.0;-17;-17.1;28.7;0.0;
16/06/2019 15:03:04;100;0;354.46;17;-24.75;-4.83;53.5;11.00;70051;5125.135;-12838.779;54;-300;-306.9;73;73.0;-12;-11.7;28.6;0.0;
16/06/2019 15:03:24;100;0;352.64;17;-24.46;-1.54;57.1;11.00;70020;5125.135;-12838.779;54;-300;-306.9;73;73.0;-15;-14.9;28.7;0.0;
16/06/2019 15:03:44;100;0;349.63;17;-24.74;-3.48;60.7;11.00;70001;5125.135;-12838.779;54;-300;-306.9;73;73.0;-19;-19.0;28.7;0.0;
16/06/2019 15:04:04;100;0;344.30;17;-25.00;-5.65;64.3;11.00;69983;5125.135;-12838.779;54;-300;-306.9;73;72.9;-23;-23.0;28.7;0.0;
16/06/2019 15:04:24;100;0;345.62;17;-24.56;-7.29;68.0;10.90;69975;5125.135;-12838.779;54;-300;-306.9;73;73.0;-23;-23.5;28.7;0.0;
16/06/2019 15:04:44;100;0;352.43;17;-24.06;-7.48;71.6;10.90;69944;5125.135;-12838.779;54;-300;-306.9;73;73.0;-20;-19.9;28.7;0.0;
16/06/2019 15:05:04;100;0;346.06;17;-24.38;-5.34;75.1;10.90;69917;5125.135;-12838.779;54;-300;-306.9;73;72.9;-26;-26.2;28.7;0.0;
16/06/2019 15:05:24;100;0;346.91;17;-23.34;-9.03;78.8;10.90;69901;5125.135;-12838.779;54;-300;-306.9;73;73.0;-25;-24.8;28.7;0.0;
16/06/2019 15:05:44;100;0;343.52;17;-23.91;-7.63;82.0;10.90;69876;5125.135;-12838.779;54;-300;-306.9;73;73.0;-27;-27.1;28.7;0.0;
16/06/2019 15:06:04;100;0;347.54;17;-22.91;-9.44;85.2;10.90;69861;5125.135;-12838.779;54;-300;-306.9;73;73.0;-24;-23.9;28.7;0.0;
16/06/2019 15:06:24;100;0;352.85;17;-23.23;-7.25;88.3;10.80;69847;5125.135;-12838.779;54;-300;-306.9;73;73.2;-21;-20.8;28.7;0.0;
16/06/2019 15:06:45;100;0;348.05;17;-22.95;-5.78;91.5;10.80;69843;5125.135;-12838.779;54;-300;-308.9;73;72.9;-24;-23.9;28.7;0.0;
16/06/2019 15:07:05;100;0;346.45;17;-22.87;-7.78;94.6;10.80;69835;5125.135;-12838.779;54;-300;-306.9;73;73.0;-25;-24.8;28.7;0.0;
16/06/2019 15:07:25;100;0;345.04;17;-22.53;-8.41;97.7;10.80;69818;5125.135;-12838.779;54;-300;-306.9;73;73.0;-26;-26.2;28.7;0.0;
16/06/2019 15:07:45;100;0;345.31;17;-22.52;-8.78;100.8;10.70;69814;5125.135;-12838.779;54;-300;-306.9;73;72.9;-25;-24.8;28.7;0.0;
16/06/2019 15:08:05;100;0;343.18;17;-22.71;-7.77;103.8;10.70;69806;5125.135;-12838.779;54;-300;-306.9;73;73.0;-26;-26.2;28.7;0.0;
16/06/2019 15:08:25;100;0;353.89;17;-21.14;-9.20;106.7;10.70;69778;5125.135;-12838.779;54;-300;-306.9;73;73.0;-20;-19.9;28.7;0.0;
16/06/2019 15:08:45;100;0;356.90;17;-21.51;-5.32;109.4;10.70;69771;5125.135;-12838.779;54;-300;-308.9;73;72.9;-20;-19.0;28.7;0.0;
16/06/2019 15:09:05;100;0;10.62;17;-20.01;-5.44;112.0;10.70;69764;5125.135;-12838.779;54;-300;-306.9;73;73.0;-13;-12.6;28.7;0.0;
16/06/2019 15:09:25;100;0;8.58;17;-20.37;-2.22;114.5;10.60;69739;5125.135;-12838.779;54;-300;-306.9;73;73.0;-18;-18.5;28.7;0.0;
16/06/2019 15:09:45;100;0;10.92;17;-20.58;-6.09;117.0;10.60;69737;5125.135;-12838.779;54;-300;-306.9;73;73.0;-18;-18.5;28.7;0.0;
16/06/2019 15:10:05;100;0;13.68;17;-20.82;-5.14;119.6;10.60;69723;5125.135;-12838.779;54;-300;-306.9;73;73.0;-17;-17.1;28.7;0.0;
16/06/2019 15:10:25;100;0;17.21;17;-19.63;-4.15;122.4;10.50;69710;5125.135;-12838.779;54;-300;-306.9;73;73.0;-16;-15.3;28.7;0.0;
16/06/2019 15:10:45;100;0;24.12;17;-20.34;-3.44;124.9;10.50;69711;5125.135;-12838.779;54;-300;-306.9;73;73.0;-13;-13.1;28.7;0.0;
16/06/2019 15:11:05;100;0;22.86;17;-19.51;-2.35;127.5;10.50;69695;5125.135;-12838.779;54;-300;-306.9;73;73.0;-16;-16.2;28.7;0.0;
16/06/2019 15:11:25;100;0;16.83;17;-19.63;-4.31;130.2;10.50;69701;5125.135;-12838.779;54;-300;-306.9;73;73.0;-20;-19.9;28.7;0.0;
16/06/2019 15:11:45;100;0;19.51;17;-19.38;-5.98;132.9;10.40;69678;5125.135;-12838.779;54;-300;-308.9;73;73.0;-18;-18.1;28.6;0.0;
16/06/2019 15:12:05;100;0;18.18;17;-19.65;-4.39;135.2;10.40;69680;5125.135;-12838.779;54;-300;-306.9;73;73.0;-18;-17.1;28.7;0.0;
16/06/2019 15:12:25;100;0;13.12;17;-19.64;-4.36;137.7;10.40;69655;5125.135;-12838.779;54;-300;-306.9;73;73.0;-21;-21.2;28.7;0.0;
16/06/2019 15:12:45;100;0;11.25;17;-19.17;-6.62;140.2;10.30;69646;5125.135;-12838.779;54;-300;-306.9;73;73.0;-21;-21.7;28.7;0.0;
16/06/2019 15:13:05;100;0;9.30;17;-19.33;-6.64;142.5;10.30;69638;5125.135;-12838.779;54;-300;-306.9;73;73.0;-22;-22.1;28.7;0.0;
16/06/2019 15:13:25;100;0;7.65;17;-19.24;-7.18;144.7;10.30;69625;5125.135;-12838.779;54;-300;-305.0;73;73.0;-22;-22.6;28.7;0.0;
16/06/2019 15:13:45;100;0;6.81;17;-18.98;-7.17;146.9;10.30;69618;5125.135;-12838.779;54;-300;-306.9;73;72.9;-22;-22.6;28.7;0.0;
16/06/2019 15:14:05;100;0;7.03;17;-19.16;-7.18;149.1;10.20;69598;5125.135;-12838.779;54;-300;-306.9;73;73.0;-21;-21.2;28.7;0.0;
16/06/2019 15:14:25;100;0;9.27;17;-18.88;-6.32;151.2;10.20;69590;5125.135;-12838.779;54;-300;-306.9;73;73.0;-19;-19.0;28.6;0.0;
16/06/2019 15:14:45;100;0;7.99;17;-18.83;-5.21;153.4;10.10;69575;5125.135;-12838.779;54;-300;-305.0;73;72.9;-21;-21.2;28.7;0.0;
16/06/2019 15:15:05;100;0;8.88;17;-18.84;-6.75;155.6;10.10;69568;5125.135;-12838.779;54;-300;-306.9;73;73.0;-20;-19.4;28.7;0.0;
16/06/2019 15:15:25;100;0;8.71;17;-18.79;-5.30;157.7;10.10;69551;5125.135;-12838.779;54;-300;-306.9;73;73.0;-20;-18.5;28.7;0.0;
16/06/2019 15:15:45;100;0;11.46;17;-18.87;-5.33;159.9;10.00;69543;5125.135;-12838.779;54;-300;-306.9;73;73.0;-18;-18.1;28.6;0.0;
16/06/2019 15:16:05;100;0;11.10;17;-18.89;-4.74;162.0;10.00;69541;5125.135;-12838.779;54;-300;-306.9;73;73.0;-19;-19.0;28.7;0.0;
16/06/2019 15:16:25;100;0;11.48;17;-18.78;-5.64;164.3;10.00;69524;5125.135;-12838.779;54;-300;-306.9;73;73.0;-19;-19.4;28.7;0.0;
16/06/2019 15:16:45;100;0;11.35;17;-18.45;-5.63;166.5;9.90;69529;5125.135;-12838.779;54;-300;-306.9;73;73.0;-19;-19.4;28.7;0.0;
16/06/2019 15:17:05;100;0;11.64;17;-18.87;-5.51;168.7;9.90;69510;5125.135;-12838.779;54;-300;-306.9;73;73.0;-19;-19.4;28.7;43.7;
16/06/2019 15:17:25;100;0;12.57;17;-18.28;-5.63;170.9;9.90;69509;5125.135;-12838.779;54;-300;-306.9;73;73.0;-19;-19.4;28.7;41.5;
16/06/2019 15:17:45;100;0;11.68;17;-18.67;-5.65;173.2;9.80;69507;5125.135;-12838.779;54;-300;-306.9;73;72.9;-20;-20.3;28.7;39.2;
16/06/2019 15:18:05;100;0;13.37;17;-18.64;-6.42;175.4;9.80;69502;5125.135;-12838.779;54;-300;-306.9;73;73.0;-18;-17.6;28.7;36.9;
16/06/2019 15:18:25;100;0;13.70;17;-18.85;-4.53;177.6;9.80;69490;5125.135;-12838.779;54;-300;-306.9;73;73.0;-19;-19.0;28.7;34.5;
16/06/2019 15:18:45;100;0;14.78;17;-18.17;-5.81;179.9;9.70;69495;5125.135;-12838.779;54;-300;-306.9;73;72.9;-18;-17.6;28.7;32.3;
16/06/2019 15:19:05;100;0;14.73;17;-18.24;-4.54;181.9;9.70;69491;5125.135;-12838.779;54;-300;-305.0;73;73.0;-19;-19.0;28.7;30.1;
16/06/2019 15:19:25;100;0;15.23;17;-18.86;-5.63;183.9;9.70;69496;5125.135;-12838.779;54;-300;-306.9;73;73.0;-18;-18.1;28.7;28.0;
16/06/2019 15:19:45;100;0;13.41;17;-19.62;-4.72;185.9;9.70;69485;5125.135;-12838.779;54;-300;-306.9;73;73.0;-20;-19.9;28.7;25.9;
16/06/2019 15:20:05;100;0;14.67;17;-18.69;-6.31;188.1;9.60;69480;5125.135;-12838.779;54;-300;-306.9;73;73.0;-19;-19.0;28.7;23.6;
16/06/2019 15:20:25;100;0;14.17;17;-18.87;-5.23;190.1;9.60;69480;5125.135;-12838.779;54;-300;-308.9;73;73.0;-19;-18.5;28.6;21.5;
16/06/2019 15:20:45;100;0;13.80;17;-18.38;-5.14;192.3;9.60;69473;5125.135;-12838.779;54;-300;-306.9;73;73.0;-19;-18.5;28.7;19.4;
16/06/2019 15:21:05;118;0;14.05;17;-18.31;-5.29;194.3;9.50;69466;5125.135;-12838.779;54;150;-293.1;57;56.8;0;0.5;28.7;17.3;
16/06/2019 15:21:15;118;0;45.47;17;1.64;3.78;195.1;9.60;69381;5125.135;-12838.779;54;150;-136.6;57;57.1;0;0.5;28.1;17.3;
16/06/2019 15:21:25;118;0;43.79;17;19.10;3.46;194.9;9.50;69183;5125.135;-12838.779;54;150;17.8;57;57.1;0;0.5;28.1;-1.0;
16/06/2019 15:21:35;118;0;43.75;17;23.87;3.56;194.0;9.50;68926;5125.135;-12838.779;54;150;156.4;57;57.1;0;0.5;28.1;-1.0;
16/06/2019 15:21:45;118;0;10.52;17;25.54;4.65;192.9;9.50;68718;5125.135;-12838.779;54;150;156.4;57;57.1;0;0.5;28.7;-1.0;
16/06/2019 15:21:55;118;0;8.62;17;26.80;3.88;191.1;9.50;68730;5125.135;-12838.779;54;150;156.4;57;57.1;0;0.5;28.7;-1.0;
16/06/2019 15:22:05;117;0;8.21;17;27.68;3.47;189.4;9.50;68730;5125.135;-12838.779;54;150;156.4;57;57.1;0;0.5;28.7;-1.0;
16/06/2019 15:22:25;117;0;5.56;17;28.42;3.72;185.3;9.50;68716;5125.135;-12838.779;54;150;156.4;57;57.1;24;24.4;28.7;-1.0;
16/06/2019 15:22:45;117;0;11.56;17;27.92;15.47;180.5;9.50;68715;5125.135;-12838.779;54;150;158.4;57;56.9;19;19.0;28.7;-1.0;
16/06/2019 15:23:05;117;0;20.16;17;27.86;12.04;176.0;9.40;68717;5125.135;-12838.779;54;150;156.4;57;56.9;14;14.0;28.7;-1.0;
16/06/2019 15:23:25;117;0;24.69;17;28.29;9.78;171.6;9.40;68701;5125.135;-12838.779;54;150;156.4;57;57.1;14;13.5;28.7;-1.0;
16/06/2019 15:23:45;117;0;29.42;17;28.21;9.57;167.0;9.40;68694;5125.135;-12838.779;54;150;156.4;57;56.9;12;12.2;28.7;-1.0;
16/06/2019 15:24:05;117;0;31.74;17;28.09;8.75;162.4;9.40;68699;5125.135;-12838.779;54;150;158.4;57;56.9;13;13.5;28.6;-1.0;
16/06/2019 15:24:25;117;0;33.89;17;28.15;9.98;157.9;9.30;68699;5125.135;-12838.779;54;150;156.4;57;57.1;13;14.0;28.7;-1.0;
16/06/2019 15:24:45;117;0;41.26;17;27.96;9.99;153.3;9.30;68703;5125.135;-12838.779;54;150;158.4;57;57.1;13;14.0;28.7;-1.0;
16/06/2019 15:25:05;117;0;43.96;17;27.68;10.07;148.6;9.30;68705;5125.135;-12838.779;54;150;156.4;57;56.9;10;9.9;28.6;-1.0;
16/06/2019 15:25:25;117;0;52.06;17;27.66;7.70;144.2;9.20;68706;5125.135;-12838.779;54;150;156.4;57;56.9;6;5.9;28.7;-1.0;
16/06/2019 15:25:45;117;0;57.50;17;27.00;5.78;139.9;9.20;68721;5125.135;-12838.779;54;150;158.4;57;57.1;5;5.0;28.7;-1.0;
16/06/2019 15:26:05;117;0;64.79;17;26.19;4.85;135.8;9.20;68728;5125.135;-12838.779;54;150;158.4;57;57.1;2;1.8;28.7;-1.0;
16/06/2019 15:26:25;117;0;63.67;17;26.60;3.66;131.8;9.20;68736;5125.135;-12838.779;54;150;156.4;57;56.9;5;5.0;28.7;-1.0;
16/06/2019 15:26:45;117;0;63.05;17;26.30;5.94;127.8;9.20;68755;5125.135;-12838.779;54;150;156.4;57;57.1;5;5.4;28.7;-1.0;
16/06/2019 15:27:05;117;0;50.07;17;25.38;6.66;123.8;9.20;68766;5125.135;-12838.779;54;150;156.4;57;57.1;12;12.2;28.7;-1.0;
16/06/2019 15:27:25;117;0;49.26;17;26.06;10.39;120.0;9.20;68775;5125.135;-12838.779;54;150;156.4;57;57.1;10;9.5;28.7;-1.0;
16/06/2019 15:27:45;117;0;45.92;17;26.48;8.05;116.1;9.20;68774;5125.135;-12838.779;54;150;156.4;57;56.9;11;10.8;28.7;-1.0;
16/06/2019 15:28:05;117;0;38.54;17;27.31;8.74;112.0;9.20;68775;5125.135;-12838.779;54;150;156.4;57;57.1;14;14.4;28.7;-1.0;
16/06/2019 15:28:25;117;0;32.84;17;27.09;10.70;107.4;9.20;68785;5125.135;-12838.779;54;150;158.4;57;57.1;14;14.9;28.6;-1.0;
16/06/2019 15:28:45;117;0;27.92;17;24.23;10.46;103.3;9.20;68799;5125.135;-12838.779;54;150;158.4;57;57.1;16;15.8;28.7;-1.0;
16/06/2019 15:29:05;117;0;29.27;17;23.48;11.31;99.9;9.20;68816;5125.135;-12838.779;54;150;156.4;57;56.9;13;13.1;28.7;-1.0;
16/06/2019 15:29:25;117;0;37.39;17;22.69;9.28;96.6;9.20;68814;5125.135;-12838.779;54;150;156.4;57;57.1;13;12.6;28.7;-1.0;
16/06/2019 15:29:45;117;0;44.98;17;22.38;9.22;93.6;9.20;68829;5125.135;-12838.779;54;150;156.4;57;56.9;5;4.5;28.7;-1.0;
16/06/2019 15:30:05;117;0;51.20;17;22.37;5.14;90.5;9.20;68837;5125.135;-12838.779;54;150;156.4;57;57.1;2;1.8;28.7;-1.0;
16/06/2019 15:30:25;117;0;54.37;17;22.04;3.65;87.5;9.20;68847;5125.135;-12838.779;54;150;158.4;57;57.1;2;1.4;28.7;-1.0;
16/06/2019 15:30:45;117;0;51.49;17;22.87;3.68;84.4;9.20;68861;5125.135;-12838.779;54;150;158.4;57;57.1;5;5.4;28.7;-1.0;
16/06/2019 15:31:05;117;0;50.84;17;22.13;6.19;81.3;9.20;68863;5125.135;-12838.779;54;150;156.4;57;57.1;6;5.9;28.7;-1.0;
16/06/2019 15:31:25;117;0;55.86;17;21.51;6.06;78.2;9.20;68871;5125.135;-12838.779;54;150;156.4;57;56.9;2;1.8;28.7;-1.0;
16/06/2019 15:31:45;117;0;68.97;17;21.55;3.96;75.5;9.20;68866;5125.135;-12838.779;54;150;156.4;57;56.9;-4;-4.1;28.7;-1.0;
16/06/2019 15:32:05;117;0;66.24;17;20.82;1.11;72.9;9.20;68894;5125.135;-12838.779;54;150;158.4;57;56.9;-1;-0.9;28.7;-1.0;
16/06/2019 15:32:25;117;0;69.44;17;19.52;2.97;70.5;9.20;68900;5125.135;-12838.779;54;150;158.4;57;56.9;-2;-2.3;28.7;-1.0;
16/06/2019 15:32:45;117;0;69.23;17;19.91;1.83;68.4;9.30;68923;5125.135;-12838.779;54;150;156.4;57;57.1;-1;-0.9;28.7;-1.0;
16/06/2019 15:33:05;117;0;68.39;17;19.89;3.07;66.2;9.30;68935;5125.135;-12838.779;54;150;158.4;57;57.1;-1;0.0;28.7;-1.0;
16/06/2019 15:33:25;117;0;68.78;17;19.83;3.08;63.9;9.30;68944;5125.135;-12838.779;54;150;156.4;57;57.1;-1;0.0;28.7;-1.0;
16/06/2019 15:33:45;117;0;68.36;17;19.52;3.07;61.8;9.30;68956;5125.135;-12838.779;54;150;158.4;57;57.1;-2;-2.3;28.7;-1.0;
16/06/2019 15:34:05;117;0;68.97;17;19.75;1.94;59.8;9.30;68962;5125.135;-12838.779;54;150;156.4;57;56.9;-3;-3.2;28.7;-1.0;
16/06/2019 15:34:25;117;0;69.65;17;19.67;1.37;57.6;9.30;68971;5125.135;-12838.779;54;150;156.4;57;57.1;-4;-4.1;28.7;-1.0;
16/06/2019 15:34:45;117;0;70.61;17;19.43;0.91;55.4;9.30;68982;5125.135;-12838.779;54;150;160.4;57;56.9;-5;-5.0;28.7;-1.0;
16/06/2019 15:35:05;117;0;70.67;17;19.36;0.51;53.3;9.40;68985;5125.135;-12838.779;54;150;156.4;57;57.1;-5;-5.4;28.7;-1.0;
16/06/2019 15:35:25;117;0;66.72;17;19.66;0.47;51.1;9.40;69007;5125.135;-12838.779;54;150;158.4;57;57.1;-3;-3.2;28.7;-1.0;
16/06/2019 15:35:45;117;0;59.48;17;19.73;2.12;48.7;9.40;69004;5125.135;-12838.779;54;150;158.4;57;56.9;0;0.0;28.7;-1.0;
16/06/2019 15:36:05;117;0;56.12;17;19.16;3.39;46.3;9.40;69025;5125.135;-12838.779;54;150;156.4;57;57.1;-1;-1.4;28.7;-1.0;
16/06/2019 15:36:25;117;0;51.58;17;18.29;2.37;43.9;9.40;69048;5125.135;-12838.779;54;150;158.4;57;57.1;0;0.0;28.7;-1.0;
16/06/2019 15:36:45;117;0;51.58;17;18.67;3.59;41.8;9.50;69044;5125.135;-12838.779;54;150;156.4;57;57.1;-2;-1.8;28.7;-1.0;
16/06/2019 15:37:05;117;0;52.48;17;18.77;2.04;39.7;9.50;69060;5125.135;-12838.779;54;150;156.4;57;57.1;-4;-4.5;28.7;-1.0;
16/06/2019 15:37:25;117;0;49.82;17;18.77;0.91;37.6;9.50;69064;5125.135;-12838.779;54;150;156.4;57;57.1;-3;-3.2;28.7;-1.0;
16/06/2019 15:37:45;117;0;44.36;17;18.12;2.14;35.7;9.50;69086;5125.135;-12838.779;54;150;158.4;57;57.1;-1;-0.9;28.7;-1.0;
16/06/2019 15:38:05;117;0;42.99;17;18.07;3.10;33.6;9.60;69115;5125.135;-12838.779;54;150;158.4;57;57.1;-2;-1.8;28.7;-1.0;
16/06/2019 15:38:25;117;0;45.41;17;17.91;1.99;31.7;9.60;69115;5125.135;-12838.779;54;150;156.4;57;56.9;-5;-5.0;28.7;-1.0;
16/06/2019 15:38:45;117;0;45.48;17;17.83;0.56;29.8;9.60;69119;5125.135;-12838.779;54;150;158.4;57;57.1;-5;-5.4;28.7;-1.0;
16/06/2019 15:39:05;117;0;43.24;17;17.19;0.64;28.0;9.70;69144;5125.135;-12838.779;54;150;158.4;57;56.9;-4;-4.1;28.7;-1.0;
16/06/2019 15:39:26;117;0;39.18;17;16.81;1.75;26.3;9.70;69175;5125.135;-12838.779;54;150;156.4;57;56.9;-2;-1.8;28.7;-1.0;
16/06/2019 15:39:46;117;0;38.99;17;16.35;2.65;24.7;9.70;69195;5125.135;-12838.779;54;150;158.4;57;57.1;-3;-3.2;28.7;-1.0;
16/06/2019 15:40:06;117;0;40.73;17;16.52;1.43;23.1;9.80;69230;5125.135;-12838.779;54;150;156.4;57;57.1;-4;-4.1;28.7;-1.0;
16/06/2019 15:40:26;117;0;41.61;17;16.43;1.17;21.3;9.80;69252;5125.135;-12838.779;54;150;156.4;57;57.1;-5;-5.0;28.7;-1.0;
16/06/2019 15:40:46;117;0;37.10;17;16.19;0.70;19.4;9.90;69292;5125.135;-12838.779;54;150;158.4;57;57.1;-5;-5.4;28.7;-1.0;
16/06/2019 15:41:06;117;0;33.57;17;16.10;0.59;17.6;9.90;69319;5125.135;-12838.779;54;150;158.4;57;57.1;-1;-0.5;28.7;-1.0;
16/06/2019 15:41:26;117;0;31.46;17;15.89;3.38;16.0;10.00;69341;5125.135;-12838.779;54;150;158.4;57;56.9;-1;0.0;28.7;-1.0;
16/06/2019 15:41:46;117;0;31.26;17;15.59;3.36;14.3;10.00;69372;5125.135;-12838.779;54;150;158.4;57;57.1;-2;-1.8;28.7;-1.0;
16/06/2019 15:42:06;117;0;28.08;17;16.00;2.24;12.7;10.10;69397;5125.135;-12838.779;54;150;158.4;57;57.1;0;0.0;28.7;-1.0;
16/06/2019 15:42:26;117;0;25.80;17;15.65;3.63;11.2;10.10;69415;5125.135;-12838.779;54;150;156.4;57;57.1;0;0.9;28.7;-1.0;
