Timestamp;NavState;SecurityLevel;Heading;Declination;Pitch;Roll;Depth;Temperature;Pa;Lat;Lon;DesiredH;BallastCmd;BallastPos;LinCmd;LinPos;AngCmd;AngPos;Voltage;Altitude;
13/06/2019 17:49:46;117;0;189.49;17;34.73;-6.39;6.2;15.90;70157;5141.396;-12817.750;185;150;158.4;49;49.2;-15;-14.9;29.3;-1.0;
13/06/2019 17:49:56;115;0;184.17;17;33.61;-4.10;4.3;15.80;70165;5141.396;-12817.750;185;500;174.3;100;93.1;0;0.5;29.3;-1.0;
13/06/2019 17:50:06;115;0;161.46;17;8.14;5.27;2.5;15.80;70087;5141.396;-12817.750;185;500;322.8;100;99.7;0;0.9;29.1;-1.0;
13/06/2019 17:50:16;115;0;160.21;17;-41.15;4.36;2.9;15.80;69886;5141.396;-12817.750;185;500;473.3;100;100.0;0;0.9;29.1;-1.0;
13/06/2019 17:50:26;115;0;164.62;17;-64.58;-5.05;3.4;15.80;69638;5141.396;-12817.750;185;500;505.0;100;100.0;0;0.9;29.1;-1.0;
13/06/2019 17:50:36;115;0;199.37;17;-25.79;0.24;1.0;15.80;69610;5141.396;-12817.750;185;500;506.9;100;99.7;0;0.9;29.4;-1.0;
13/06/2019 17:50:46;116;0;211.70;17;-7.47;0.66;1.1;15.80;69628;5141.396;-12817.750;185;500;506.9;100;99.7;0;0.9;29.3;-1.0;
13/06/2019 17:51:06;116;0;296.78;17;-7.10;-1.12;1.1;15.80;69635;5141.396;-12817.750;185;500;506.9;100;99.7;0;0.9;29.3;-1.0;
13/06/2019 17:51:26;116;0;311.61;17;-10.01;-0.15;1.1;15.80;69639;5141.396;-12817.750;185;500;506.9;100;99.7;0;0.9;29.3;-1.0;
13/06/2019 17:51:46;116;0;308.77;17;-4.31;2.95;1.1;15.80;69650;5141.307;-12817.830;185;500;506.9;100;99.7;0;0.9;29.3;-1.0;
13/06/2019 17:52:06;116;0;304.68;17;-5.74;2.99;1.1;15.80;69656;5141.306;-12817.831;185;500;506.9;100;99.7;0;0.9;29.3;-1.0;
13/06/2019 17:52:26;116;0;324.93;17;-4.97;4.37;1.0;15.80;69655;5141.302;-12817.830;182;500;506.9;100;99.9;0;0.9;29.3;-1.0;
13/06/2019 17:52:46;116;0;302.23;17;-8.02;6.72;1.1;15.80;69666;5141.301;-12817.833;182;500;506.9;100;99.7;0;0.9;29.4;-1.0;
13/06/2019 17:53:06;116;0;323.42;17;-17.43;4.26;1.2;15.80;69659;5141.264;-12817.859;182;500;508.9;100;99.7;0;1.4;29.4;-1.0;
13/06/2019 17:57:50;116;0;298.46;17;-8.06;-1.64;1.0;16.00;69678;5141.264;-12817.861;182;500;508.9;100;99.9;0;0.9;29.3;-1.0;
13/06/2019 17:58:10;116;0;309.67;17;-8.69;1.83;1.1;16.00;69675;5141.260;-12817.862;182;500;508.9;100;99.7;0;0.9;29.4;-1.0;
13/06/2019 17:58:30;116;0;337.64;17;-18.20;8.12;1.1;16.10;69682;5141.256;-12817.862;182;500;508.9;100;99.7;0;0.9;29.3;-1.0;
13/06/2019 17:58:50;116;0;307.92;17;-6.92;-6.02;1.1;16.10;69670;5141.253;-12817.866;182;500;508.9;100;99.9;0;1.4;29.3;-1.0;
13/06/2019 17:59:15;116;0;302.07;17;-28.79;1.68;1.3;16.10;69687;5141.252;-12817.865;182;500;508.9;100;99.7;0;1.4;29.3;-1.0;
13/06/2019 17:59:35;116;0;304.55;17;-10.15;6.88;1.0;16.10;69687;5141.249;-12817.866;182;500;508.9;100;99.9;0;1.4;29.4;-1.0;
13/06/2019 17:59:55;116;0;312.33;17;-6.79;3.90;1.0;16.10;69682;5141.249;-12817.866;182;500;506.9;100;99.7;0;1.4;29.4;-1.0;
13/06/2019 18:05:31;116;0;312.79;17;-4.38;6.50;1.1;16.20;69684;5141.200;-12817.903;182;500;508.9;100;99.7;0;1.4;29.3;-1.0;
13/06/2019 18:05:51;116;0;297.27;17;-9.94;4.24;1.0;16.20;69679;5141.198;-12817.907;182;500;508.9;100;99.7;0;1.4;29.3;-1.0;
13/06/2019 18:06:11;116;0;311.88;17;-19.02;0.08;1.1;16.20;69676;5141.195;-12817.909;182;500;508.9;100;99.7;0;1.4;29.4;-1.0;
13/06/2019 18:06:31;116;0;312.04;17;-9.60;2.53;1.1;16.20;69676;5141.193;-12817.912;182;500;508.9;100;99.7;0;1.4;29.3;-1.0;
13/06/2019 18:06:51;116;0;316.07;17;-7.98;2.86;1.1;16.20;69676;5141.191;-12817.913;182;500;508.9;100;99.9;0;1.4;29.4;-1.0;
13/06/2019 18:07:11;116;0;292.58;17;-7.03;2.31;1.0;16.20;69679;5141.188;-12817.914;182;500;506.9;100;99.7;0;1.4;29.4;-1.0;
13/06/2019 18:07:31;116;0;343.28;17;-12.76;9.98;1.1;16.20;69677;5141.184;-12817.916;182;500;508.9;100;99.7;0;1.4;29.4;-1.0;
13/06/2019 18:07:51;116;0;321.97;17;-5.20;7.51;1.0;16.20;69679;5141.180;-12817.917;182;500;506.9;100;99.7;0;1.4;29.4;-1.0;
13/06/2019 18:08:11;116;0;310.13;17;-4.45;7.25;1.0;16.20;69681;5141.177;-12817.920;182;500;508.9;100;99.7;0;1.4;29.4;-1.0;
13/06/2019 18:08:31;116;0;293.34;17;-10.42;8.60;1.0;16.20;69669;5141.171;-12817.926;182;500;508.9;100;99.7;0;1.4;29.3;-1.0;
13/06/2019 18:09:09;116;0;314.81;17;-8.57;4.06;1.0;16.20;69672;5141.171;-12817.928;182;500;508.9;100;99.9;0;1.4;29.3;-1.0;
13/06/2019 18:09:29;116;0;297.13;17;-6.74;4.80;1.1;16.20;69661;5141.165;-12817.928;182;500;508.9;100;99.7;0;1.4;29.4;-1.0;
13/06/2019 18:09:49;116;0;288.96;17;-5.49;-3.58;1.1;16.20;69677;5141.160;-12817.930;182;500;506.9;100;99.7;0;1.4;29.3;-1.0;
13/06/2019 18:10:10;116;0;309.19;17;-7.31;-0.17;1.1;16.20;69676;5141.156;-12817.932;182;500;508.9;100;99.7;0;1.4;29.3;-1.0;
13/06/2019 18:10:38;116;0;307.13;17;-5.13;3.09;1.1;16.20;69669;5141.157;-12817.931;182;500;506.9;100;99.7;0;1.4;29.3;-1.0;
13/06/2019 18:10:58;116;0;315.24;17;-19.03;5.87;1.1;16.20;69670;5141.154;-12817.935;182;500;506.9;100;99.7;0;1.4;29.3;-1.0;
13/06/2019 18:11:18;116;0;307.44;17;-23.74;4.17;1.1;16.20;69672;5141.150;-12817.940;182;500;508.9;100;99.7;0;1.4;29.3;-1.0;
13/06/2019 18:11:38;116;0;312.77;17;-28.60;5.48;1.3;16.20;69668;5141.147;-12817.941;182;500;506.9;100;99.9;0;1.4;29.4;-1.0;
13/06/2019 18:11:58;116;0;301.70;17;-8.06;5.90;1.1;16.20;69666;5141.127;-12817.956;182;500;506.9;100;99.7;0;1.4;29.4;-1.0;
13/06/2019 18:13:49;116;0;324.38;17;-6.98;2.69;1.1;16.40;69671;5141.127;-12817.955;182;500;508.9;100;99.7;0;1.4;29.3;-1.0;
13/06/2019 18:14:09;116;0;301.99;17;-4.04;3.68;1.1;16.40;69673;5141.123;-12817.959;182;500;508.9;100;99.7;0;1.4;29.3;-1.0;
13/06/2019 18:14:29;116;0;306.68;17;-9.15;3.50;1.1;16.40;69672;5141.120;-12817.964;182;500;508.9;100;99.7;0;1.4;29.3;-1.0;
13/06/2019 18:14:49;116;0;285.83;17;-4.98;3.11;1.1;16.40;69677;5141.116;-12817.967;182;500;508.9;100;99.7;0;1.4;29.3;-1.0;
13/06/2019 18:15:09;116;0;298.60;17;-8.31;-1.09;1.1;16.40;69671;5141.109;-12817.974;182;500;508.9;100;99.7;0;1.4;29.3;-1.0;
13/06/2019 18:15:47;116;0;296.84;17;-3.68;9.00;1.1;16.40;69673;5141.108;-12817.973;182;500;508.9;100;99.7;0;1.4;29.3;-1.0;
13/06/2019 18:16:07;116;0;315.85;17;-9.54;2.70;1.1;16.40;69667;5141.099;-12817.982;182;500;508.9;100;99.7;0;1.4;29.3;-1.0;
13/06/2019 18:16:36;116;0;338.02;17;-14.96;4.12;1.1;16.40;69661;5141.098;-12817.982;182;500;506.9;100;99.9;0;1.4;29.3;-1.0;
13/06/2019 18:16:56;116;0;319.74;17;-8.15;3.67;1.0;16.40;69661;5141.096;-12817.984;182;500;506.9;100;99.7;0;1.4;29.4;-1.0;
13/06/2019 18:17:16;116;0;315.79;17;-10.33;4.90;1.1;16.40;69664;5141.092;-12817.988;182;500;508.9;100;99.9;0;1.4;29.3;-1.0;
13/06/2019 18:17:36;116;0;319.99;17;-35.18;6.10;1.4;16.40;69666;5141.089;-12817.991;182;500;506.9;100;99.9;0;1.4;29.3;-1.0;
13/06/2019 18:17:56;116;0;318.38;17;-5.61;7.46;1.0;16.40;69661;5141.085;-12817.992;182;500;508.9;100;99.7;0;0.9;29.4;-1.0;
13/06/2019 18:18:16;116;0;325.75;17;-7.22;-1.00;1.0;16.40;69669;5141.085;-12817.992;182;500;508.9;100;99.7;0;1.4;29.4;-1.0;
13/06/2019 18:18:57;116;0;321.50;17;-30.63;4.88;1.4;16.40;69667;5141.076;-12818.001;182;500;506.9;100;99.7;0;1.4;29.3;-1.0;
13/06/2019 18:19:17;116;0;321.51;17;-5.84;5.29;1.0;16.40;69667;5141.071;-12818.000;182;500;506.9;100;99.9;0;1.4;29.3;-1.0;
13/06/2019 18:19:37;116;0;322.41;17;-8.85;10.84;1.1;16.50;69663;5141.067;-12818.002;182;500;508.9;100;99.7;0;1.4;29.2;-1.0;
13/06/2019 18:19:57;116;0;328.80;17;-3.60;8.03;1.0;16.50;69664;5141.066;-12818.005;182;500;508.9;100;99.7;0;1.4;29.3;-1.0;
13/06/2019 18:20:17;116;0;308.67;17;-16.39;3.98;1.1;16.50;69669;5141.059;-12818.008;182;500;508.9;100;99.7;0;1.4;29.3;-1.0;
13/06/2019 18:20:39;116;0;295.73;17;-29.02;2.41;1.2;16.50;69664;5141.056;-12818.011;182;500;506.9;100;99.9;0;1.4;29.3;-1.0;
13/06/2019 18:20:59;116;0;298.95;17;-16.13;2.07;1.0;16.50;69658;5141.055;-12818.013;182;500;508.9;100;99.7;0;1.4;29.3;-1.0;
13/06/2019 18:21:19;116;0;281.59;17;-8.21;5.59;1.0;16.50;69666;5141.051;-12818.016;182;500;506.9;100;99.7;0;1.4;29.4;-1.0;
13/06/2019 18:21:39;116;0;310.44;17;-11.93;4.91;1.1;16.50;69660;5141.048;-12818.018;182;500;505.0;100;99.7;0;1.4;29.3;-1.0;
13/06/2019 18:21:59;110;0;287.58;17;-10.90;5.07;1.1;16.50;69670;5141.048;-12818.018;182;-250;404.0;100;99.7;0;1.4;29.4;-1.0;
13/06/2019 18:22:09;110;0;330.29;17;-15.30;4.48;1.1;16.50;69902;5141.048;-12818.018;182;-250;263.4;100;99.7;0;1.4;29.3;-1.0;
13/06/2019 18:22:19;110;0;339.05;17;-8.13;-1.79;1.0;16.50;70094;5141.048;-12818.018;182;-250;126.7;100;99.7;0;1.4;29.3;-1.0;
13/06/2019 18:22:29;110;0;331.47;17;-17.65;6.04;1.0;16.50;70321;5141.048;-12818.018;182;-250;-17.8;100;99.9;0;1.4;29.3;-1.0;
13/06/2019 18:22:39;110;0;309.82;17;-29.40;3.13;1.4;16.50;70556;5141.048;-12818.018;182;-250;-188.1;98;97.9;0;1.4;29.3;-1.0;
13/06/2019 18:22:49;110;0;329.17;17;-54.22;11.72;2.9;16.50;70855;5141.048;-12818.018;182;-250;-249.5;78;77.9;0;1.4;29.3;-1.0;
13/06/2019 18:22:59;110;0;321.47;17;-46.10;2.86;5.5;16.50;70914;5141.048;-12818.018;182;-250;-249.5;72;71.8;0;1.4;29.3;-1.0;
13/06/2019 18:23:09;100;0;317.19;17;-32.07;4.18;7.9;16.50;70907;5141.048;-12818.018;182;-250;-247.5;71;70.9;0;1.4;29.3;-1.0;
13/06/2019 18:23:29;100;0;308.13;17;-22.10;4.50;11.6;16.40;70889;5141.048;-12818.018;182;-250;-245.5;71;70.6;45;45.1;29.3;0.0;
13/06/2019 18:23:49;100;0;292.18;17;-18.01;25.09;15.0;16.40;70864;5141.048;-12818.018;182;-250;-245.5;71;70.8;45;45.1;29.3;0.0;
13/06/2019 18:24:09;100;0;280.63;17;-18.32;25.24;17.6;16.30;70844;5141.048;-12818.018;182;-250;-245.5;71;70.8;41;41.1;29.3;0.0;
13/06/2019 18:24:29;100;0;261.65;17;-19.02;22.88;20.1;16.20;70830;5141.048;-12818.018;182;-250;-245.5;71;70.8;28;27.5;29.3;0.0;
13/06/2019 18:24:49;100;0;243.11;17;-19.60;16.20;22.7;16.10;70823;5141.048;-12818.018;182;-250;-243.6;71;70.8;21;21.2;29.3;0.0;
13/06/2019 18:25:09;100;0;230.54;17;-20.18;12.83;25.4;16.00;70782;5141.048;-12818.018;182;-250;-243.6;71;70.8;18;17.6;29.3;0.0;
13/06/2019 18:25:29;100;0;219.32;17;-20.77;11.24;28.0;16.00;70778;5141.048;-12818.018;182;-250;-243.6;71;70.8;16;15.3;29.3;0.0;
13/06/2019 18:25:49;100;0;206.83;17;-19.53;10.10;30.9;15.90;70739;5141.048;-12818.018;182;-250;-243.6;71;70.8;13;13.1;29.3;0.0;
13/06/2019 18:26:09;118;0;195.54;17;-18.45;8.91;33.8;15.80;70689;5141.048;-12818.018;182;100;-225.7;51;50.8;0;-0.5;29.3;0.0;
13/06/2019 18:26:19;118;0;160.89;17;2.75;3.58;34.9;15.80;70592;5141.048;-12818.018;182;100;-67.3;51;51.1;0;-0.5;29.0;0.0;
13/06/2019 18:26:29;118;0;163.40;17;22.09;3.37;34.5;15.80;70372;5141.048;-12818.018;182;100;85.1;51;51.1;0;-0.5;29.0;-1.0;
13/06/2019 18:26:39;118;0;163.80;17;30.22;3.13;33.5;15.70;70101;5141.048;-12818.018;182;100;105.0;51;51.1;0;-0.5;29.0;-1.0;
13/06/2019 18:26:49;118;0;190.54;17;30.60;3.49;32.3;15.70;70076;5141.048;-12818.018;182;100;105.0;51;51.1;0;0.0;29.3;-1.0;
13/06/2019 18:26:59;117;0;194.67;17;32.16;3.28;31.2;15.60;70081;5141.048;-12818.018;182;100;106.9;51;51.1;0;-0.5;29.3;-1.0;
13/06/2019 18:27:19;117;0;199.68;17;31.58;3.11;28.8;15.50;70069;5141.048;-12818.018;182;100;106.9;51;51.1;-14;-14.4;29.3;-1.0;
13/06/2019 18:27:39;117;0;192.59;17;32.74;-3.85;26.1;15.40;70079;5141.048;-12818.018;182;100;106.9;51;51.1;-14;-14.4;29.3;-1.0;
13/06/2019 18:27:59;117;0;186.31;17;31.96;-4.01;23.4;15.40;70091;5141.048;-12818.018;182;100;105.0;51;51.1;-13;-13.1;29.3;-1.0;
13/06/2019 18:28:19;117;0;188.31;17;31.78;-2.56;20.4;15.30;70111;5141.048;-12818.018;182;100;106.9;51;51.1;-17;-17.1;29.3;-1.0;
13/06/2019 18:28:39;117;0;183.08;17;31.42;-5.19;17.4;15.30;70128;5141.048;-12818.018;182;100;106.9;51;51.1;-15;-14.4;29.3;-1.0;
13/06/2019 18:28:59;117;0;178.65;17;30.40;-3.13;14.5;15.20;70132;5141.048;-12818.018;182;100;106.9;51;51.1;-14;-14.0;29.3;-1.0;
13/06/2019 18:29:19;117;0;182.57;17;30.75;-3.21;11.9;15.20;70153;5141.048;-12818.018;182;100;106.9;51;51.1;-18;-18.1;29.3;-1.0;
