Timestamp;NavState;SecurityLevel;Heading;Declination;Pitch;Roll;Depth;Temperature;Pa;Lat;Lon;DesiredH;BallastCmd;BallastPos;LinCmd;LinPos;AngCmd;AngPos;Voltage;Altitude;
15/06/2019 18:52:55;117;0;250.21;17;16.67;6.66;8.7;9.80;69262;5123.648;-12837.494;276;150;156.4;57;56.9;8;8.6;28.9;-1.0;
15/06/2019 18:53:05;115;0;251.73;17;16.45;8.11;7.8;9.80;69284;5123.648;-12837.494;276;500;168.3;100;100.1;0;-0.9;28.8;-1.0;
15/06/2019 18:53:15;115;0;242.55;17;-20.78;3.63;7.2;9.80;69216;5123.648;-12837.494;276;500;320.8;100;99.9;0;-0.9;28.5;-1.0;
15/06/2019 18:53:25;115;0;253.40;17;-58.18;4.16;8.2;9.90;69034;5123.648;-12837.494;276;500;471.3;100;99.9;0;-0.9;28.5;-1.0;
15/06/2019 18:53:35;115;0;247.91;17;-59.25;2.36;7.5;9.90;68779;5123.648;-12837.494;276;500;505.0;100;99.9;0;-0.9;28.5;-1.0;
15/06/2019 18:53:45;115;0;252.11;17;-33.47;3.76;4.8;9.90;68753;5123.648;-12837.494;276;500;506.9;100;99.9;0;-0.9;28.8;-1.0;
15/06/2019 18:53:55;116;0;175.65;17;-65.53;23.47;1.5;10.00;68778;5123.648;-12837.494;276;500;506.9;100;99.9;0;-0.9;28.8;-1.0;
15/06/2019 18:54:15;116;0;166.59;17;-19.09;-0.40;1.3;10.10;68837;5123.446;-12837.738;276;500;508.9;100;99.7;0;-0.9;28.9;-1.0;
15/06/2019 18:54:35;116;0;200.55;17;-8.31;-2.00;1.3;10.20;68865;5123.445;-12837.737;276;500;508.9;100;99.7;0;-0.9;28.8;-1.0;
15/06/2019 18:54:55;116;0;217.84;17;-8.53;4.71;1.3;10.30;68879;5123.443;-12837.738;281;500;508.9;100;99.7;0;-0.9;28.9;-1.0;
15/06/2019 18:55:15;116;0;217.50;17;-9.56;5.52;1.3;10.40;68907;5123.438;-12837.742;281;500;508.9;100;99.7;0;-0.9;28.9;-1.0;
15/06/2019 18:56:37;116;0;194.86;17;-9.90;0.79;1.3;11.10;68974;5123.437;-12837.742;281;500;508.9;100;99.7;0;-0.9;28.8;-1.0;
15/06/2019 18:56:57;116;0;195.68;17;-10.97;1.95;1.3;11.20;68990;5123.437;-12837.743;281;500;508.9;100;99.7;0;-0.9;28.9;-1.0;
15/06/2019 18:57:17;116;0;186.44;17;-12.67;4.08;1.3;11.40;68984;5123.430;-12837.744;281;500;510.9;100;99.7;0;-0.9;28.9;-1.0;
15/06/2019 18:57:44;116;0;199.52;17;-10.26;3.19;1.3;11.50;69002;5123.430;-12837.742;281;500;508.9;100;99.7;0;-0.9;28.8;-1.0;
15/06/2019 18:58:04;116;0;203.07;17;-9.65;2.44;1.3;11.70;69009;5123.427;-12837.743;281;500;508.9;100;99.7;0;-0.9;28.8;-1.0;
15/06/2019 18:58:24;116;0;209.47;17;-6.20;0.76;1.2;11.90;69026;5123.425;-12837.749;281;500;508.9;100;99.9;0;-0.9;28.8;-1.0;
15/06/2019 18:59:42;116;0;205.99;17;-10.77;1.78;1.3;12.60;69064;5123.424;-12837.748;281;500;508.9;100;99.7;0;-0.5;28.8;-1.0;
15/06/2019 19:00:02;116;0;206.28;17;-10.34;1.95;1.3;12.70;69073;5123.424;-12837.748;281;500;508.9;100;99.7;0;-0.9;28.9;-1.0;
15/06/2019 19:00:22;116;0;205.74;17;-7.71;3.16;1.3;12.90;69080;5123.416;-12837.748;281;500;508.9;100;99.7;0;-0.9;28.8;-1.0;
15/06/2019 19:00:55;116;0;191.02;17;-15.64;4.65;1.3;13.10;69093;5123.416;-12837.748;281;500;508.9;100;99.7;0;-0.9;28.8;-1.0;
15/06/2019 19:01:15;116;0;205.87;17;-5.88;3.05;1.3;13.20;69097;5123.415;-12837.748;281;500;508.9;100;99.7;0;-0.9;28.8;-1.0;
15/06/2019 19:01:35;116;0;206.06;17;-10.61;1.76;1.3;13.40;69103;5123.413;-12837.747;281;500;508.9;100;99.7;0;-0.9;28.8;-1.0;
15/06/2019 19:02:06;116;0;196.22;17;-5.95;4.60;1.3;13.60;69112;5123.413;-12837.746;281;500;510.9;100;99.7;0;-0.9;28.8;-1.0;
15/06/2019 19:02:26;116;0;193.07;17;-4.61;1.15;1.3;13.70;69109;5123.412;-12837.742;281;500;508.9;100;99.7;0;-0.9;28.9;-1.0;
15/06/2019 19:02:46;116;0;199.36;17;-9.33;3.19;1.3;13.90;69123;5123.405;-12837.753;281;500;508.9;100;99.7;0;-0.9;28.9;-1.0;
15/06/2019 19:03:41;116;0;192.44;17;-6.09;3.85;1.3;14.20;69143;5123.405;-12837.753;281;500;510.9;100;99.7;0;-0.9;28.9;-1.0;
15/06/2019 19:04:01;116;0;198.93;17;-8.64;2.42;1.3;14.30;69155;5123.403;-12837.754;281;500;510.9;100;99.7;0;-0.9;28.9;-1.0;
15/06/2019 19:04:21;116;0;193.18;17;-7.68;5.95;1.3;14.40;69150;5123.402;-12837.754;281;500;508.9;100;99.9;0;-0.9;28.9;-1.0;
15/06/2019 19:04:41;116;0;193.83;17;-6.80;3.70;1.3;14.40;69161;5123.400;-12837.754;281;500;508.9;100;99.7;0;-0.9;28.9;-1.0;
15/06/2019 19:05:01;110;0;190.55;17;-10.46;5.06;1.3;14.50;69159;5123.400;-12837.754;281;-300;409.9;100;99.7;0;-0.9;28.9;-1.0;
15/06/2019 19:05:11;110;0;176.80;17;-5.48;-0.11;1.3;14.50;69402;5123.400;-12837.754;281;-300;267.3;100;99.7;0;-0.9;28.8;-1.0;
15/06/2019 19:05:21;110;0;176.45;17;-9.57;0.46;1.3;14.50;69583;5123.400;-12837.754;281;-300;132.7;100;99.7;0;-0.9;28.8;-1.0;
15/06/2019 19:05:31;110;0;184.36;17;-15.25;2.75;1.4;14.50;69811;5123.400;-12837.754;281;-300;-21.8;100;99.9;0;-0.9;28.8;-1.0;
15/06/2019 19:05:41;110;0;185.13;17;-45.47;0.00;2.1;14.50;70059;5123.400;-12837.754;281;-300;-207.9;98;98.1;0;-0.9;28.7;-1.0;
15/06/2019 19:05:51;110;0;177.96;17;-60.38;5.79;3.9;14.50;70377;5123.400;-12837.754;281;-300;-301.0;81;80.9;0;-0.9;28.7;-1.0;
15/06/2019 19:06:01;110;0;185.16;17;-48.20;3.91;6.8;14.50;70498;5123.400;-12837.754;281;-300;-303.0;73;72.9;0;-0.9;28.9;-1.0;
15/06/2019 19:06:11;100;0;185.72;17;-36.22;3.67;9.8;14.50;70481;5123.400;-12837.754;281;-300;-301.0;73;72.7;0;-0.9;28.9;-1.0;
15/06/2019 19:06:31;100;0;194.27;17;-27.12;3.50;15.0;14.50;70421;5123.400;-12837.754;281;-300;-297.0;73;72.7;-39;-38.8;28.8;0.0;
15/06/2019 19:06:51;100;0;179.64;17;-27.30;-14.45;19.8;14.40;70351;5123.400;-12837.754;281;-300;-297.0;73;72.7;-40;-40.6;28.8;0.0;
15/06/2019 19:07:11;100;0;180.36;17;-26.75;-15.57;24.1;14.40;70285;5123.400;-12837.754;281;-300;-297.0;73;72.7;-34;-33.4;28.8;0.0;
15/06/2019 19:07:31;100;0;186.72;17;-25.79;-11.53;28.2;14.30;70248;5123.400;-12837.754;281;-300;-295.0;73;72.7;-30;-29.8;28.8;0.0;
15/06/2019 19:07:51;100;0;187.14;17;-24.95;-9.68;32.4;14.20;70198;5123.400;-12837.754;281;-300;-297.0;73;72.7;-30;-28.9;28.8;0.0;
15/06/2019 19:08:11;100;0;187.81;17;-25.16;-9.78;36.3;14.20;70160;5123.400;-12837.754;281;-300;-297.0;73;72.7;-30;-28.9;28.8;0.0;
15/06/2019 19:08:31;100;0;187.56;17;-25.20;-9.68;40.3;14.10;70146;5123.400;-12837.754;281;-300;-295.0;73;72.7;-30;-28.9;28.9;0.0;
15/06/2019 19:08:51;100;0;183.63;17;-25.29;-9.75;44.2;14.00;70120;5123.400;-12837.754;281;-300;-297.0;73;72.7;-32;-32.0;28.8;0.0;
15/06/2019 19:09:11;100;0;185.87;17;-25.17;-11.40;48.1;13.90;70082;5123.400;-12837.754;281;-300;-299.0;73;72.7;-30;-29.3;28.9;0.0;
15/06/2019 19:09:31;100;0;187.32;17;-24.93;-9.57;52.1;13.80;70076;5123.400;-12837.754;281;-300;-295.0;73;72.7;-29;-28.9;28.8;0.0;
15/06/2019 19:09:51;100;0;187.14;17;-24.89;-9.65;56.0;13.70;70049;5123.400;-12837.754;281;-300;-295.0;73;72.7;-29;-28.4;28.9;0.0;
15/06/2019 19:10:11;100;0;188.85;17;-24.68;-9.53;60.0;13.70;70042;5123.400;-12837.754;281;-300;-295.0;73;72.6;-29;-28.9;28.8;0.0;
15/06/2019 19:10:31;100;0;185.35;17;-24.86;-9.66;63.7;13.60;70032;5123.400;-12837.754;281;-300;-297.0;73;72.7;-31;-31.1;28.9;0.0;
15/06/2019 19:10:51;100;0;184.47;17;-24.82;-10.90;67.5;13.50;70023;5123.400;-12837.754;281;-300;-297.0;73;72.7;-31;-31.6;28.9;0.0;
15/06/2019 19:11:11;100;0;183.38;17;-24.40;-10.94;71.1;13.50;69996;5123.400;-12837.754;281;-300;-297.0;73;72.7;-31;-31.6;28.9;0.0;
15/06/2019 19:11:31;100;0;182.79;17;-23.47;-11.01;74.8;13.40;69970;5123.400;-12837.754;281;-300;-295.0;73;72.7;-31;-31.6;28.8;0.0;
15/06/2019 19:11:51;100;0;183.46;17;-23.60;-11.05;78.0;13.30;69942;5123.400;-12837.754;281;-300;-297.0;73;72.7;-31;-31.6;28.9;0.0;
15/06/2019 19:12:11;100;0;187.33;17;-23.40;-11.03;81.3;13.30;69935;5123.400;-12837.754;281;-300;-295.0;73;72.7;-28;-28.0;28.8;0.0;
15/06/2019 19:12:31;100;0;186.32;17;-23.79;-9.01;84.5;13.20;69913;5123.400;-12837.754;281;-300;-295.0;73;72.7;-30;-30.2;28.9;0.0;
15/06/2019 19:12:51;100;0;180.44;17;-23.60;-10.72;87.6;13.10;69907;5123.400;-12837.754;281;-300;-295.0;73;72.7;-33;-32.9;28.9;0.0;
15/06/2019 19:13:11;100;0;181.21;17;-23.57;-12.06;90.7;13.00;69897;5123.400;-12837.754;281;-300;-295.0;73;72.7;-32;-32.0;28.9;0.0;
15/06/2019 19:13:31;100;0;183.38;17;-24.02;-11.14;93.8;12.90;69889;5123.400;-12837.754;281;-300;-295.0;73;72.7;-30;-29.8;28.9;0.0;
15/06/2019 19:13:51;100;0;191.77;17;-22.49;-10.10;97.0;12.90;69878;5123.400;-12837.754;281;-300;-295.0;73;72.7;-26;-26.2;28.8;0.0;
15/06/2019 19:14:11;100;0;197.32;17;-23.04;-8.76;100.0;12.80;69867;5123.400;-12837.754;281;-300;-295.0;73;72.7;-24;-23.9;28.9;0.0;
15/06/2019 19:14:31;100;0;199.54;17;-22.65;-7.44;102.9;12.70;69855;5123.400;-12837.754;281;-300;-295.0;73;72.7;-25;-24.8;28.9;0.0;
15/06/2019 19:14:51;100;0;204.97;17;-22.75;-8.38;105.7;12.70;69841;5123.400;-12837.754;281;-300;-293.1;73;72.7;-23;-23.0;28.9;0.0;
15/06/2019 19:15:11;100;0;207.89;17;-22.30;-6.88;108.4;12.60;69839;5123.400;-12837.754;281;-300;-295.0;73;72.7;-23;-22.1;28.8;0.0;
15/06/2019 19:15:31;100;0;210.06;17;-22.28;-6.81;111.0;12.60;69832;5123.400;-12837.754;281;-300;-297.0;73;72.7;-23;-22.1;28.9;0.0;
15/06/2019 19:15:51;100;0;211.44;17;-22.20;-6.85;113.6;12.50;69823;5123.400;-12837.754;281;-300;-295.0;73;72.7;-23;-22.1;28.9;0.0;
15/06/2019 19:16:11;100;0;208.95;17;-21.97;-6.73;116.2;12.40;69815;5123.400;-12837.754;281;-300;-295.0;73;72.7;-26;-26.2;28.8;0.0;
15/06/2019 19:16:31;100;0;208.45;17;-21.40;-8.99;118.9;12.40;69810;5123.400;-12837.754;281;-300;-295.0;73;72.7;-26;-26.6;28.9;0.0;
15/06/2019 19:16:51;100;0;213.44;17;-20.71;-9.04;121.7;12.30;69799;5123.400;-12837.754;281;-300;-295.0;73;72.7;-23;-23.0;28.9;0.0;
15/06/2019 19:17:11;100;0;221.50;17;-20.05;-6.90;124.3;12.20;69774;5123.400;-12837.754;281;-300;-293.1;73;72.7;-19;-19.0;28.9;0.0;
15/06/2019 19:17:31;100;0;220.77;17;-19.64;-4.84;126.8;12.20;69770;5123.400;-12837.754;281;-300;-293.1;73;72.6;-22;-22.1;28.9;0.0;
15/06/2019 19:17:51;100;0;219.38;17;-19.90;-7.05;129.3;12.10;69742;5123.400;-12837.754;281;-300;-293.1;73;72.7;-23;-23.0;28.9;0.0;
15/06/2019 19:18:11;100;0;218.97;17;-19.76;-7.45;131.6;12.10;69745;5123.400;-12837.754;281;-300;-293.1;73;72.7;-24;-24.4;28.9;0.0;
15/06/2019 19:18:31;100;0;217.51;17;-19.71;-8.00;133.9;12.00;69728;5123.400;-12837.754;281;-300;-295.0;73;72.7;-24;-24.4;28.8;0.0;
15/06/2019 19:18:51;100;0;216.91;17;-19.76;-8.00;136.0;11.90;69714;5123.400;-12837.754;281;-300;-295.0;73;72.7;-25;-24.8;28.8;0.0;
15/06/2019 19:19:11;100;0;216.06;17;-19.68;-8.37;138.3;11.90;69711;5123.400;-12837.754;281;-300;-295.0;73;72.7;-24;-23.9;28.9;0.0;
15/06/2019 19:19:31;100;0;214.45;17;-19.74;-7.41;140.5;11.80;69703;5123.400;-12837.754;281;-300;-295.0;73;72.7;-25;-24.8;28.9;0.0;
15/06/2019 19:19:51;100;0;213.74;17;-19.81;-8.46;142.4;11.80;69698;5123.400;-12837.754;281;-300;-293.1;73;72.7;-25;-25.3;28.8;0.0;
15/06/2019 19:20:11;100;0;211.36;17;-19.90;-8.42;144.4;11.70;69688;5123.400;-12837.754;281;-300;-295.0;73;72.6;-26;-26.2;28.9;0.0;
15/06/2019 19:20:31;100;0;215.11;17;-19.79;-9.28;146.5;11.60;69678;5123.400;-12837.754;281;-300;-293.1;73;72.7;-23;-23.0;28.9;0.0;
15/06/2019 19:20:51;100;0;216.95;17;-19.34;-7.11;148.7;11.60;69674;5123.400;-12837.754;281;-300;-295.0;73;72.7;-23;-22.6;28.9;0.0;
15/06/2019 19:21:11;100;0;216.50;17;-19.56;-7.14;150.8;11.50;69668;5123.400;-12837.754;281;-300;-293.1;73;72.7;-23;-22.6;28.9;0.0;
15/06/2019 19:21:31;100;0;216.70;17;-19.33;-7.13;152.9;11.50;69651;5123.400;-12837.754;281;-300;-295.0;73;72.7;-24;-23.9;28.9;0.0;
15/06/2019 19:21:51;100;0;219.42;17;-19.14;-7.93;154.9;11.40;69645;5123.400;-12837.754;281;-300;-295.0;73;72.7;-22;-22.1;28.8;0.0;
15/06/2019 19:22:11;100;0;223.06;17;-18.93;-6.75;157.0;11.40;69641;5123.400;-12837.754;281;-300;-295.0;73;72.7;-20;-19.4;28.8;0.0;
15/06/2019 19:22:31;100;0;221.52;17;-19.36;-5.24;159.0;11.30;69636;5123.400;-12837.754;281;-300;-293.1;73;72.7;-23;-23.5;28.9;0.0;
15/06/2019 19:22:51;100;0;219.85;17;-19.21;-7.84;161.0;11.30;69627;5123.400;-12837.754;281;-300;-293.1;73;72.7;-24;-23.9;28.9;0.0;
15/06/2019 19:23:11;100;0;221.77;17;-18.91;-7.78;163.0;11.20;69621;5123.400;-12837.754;281;-300;-293.1;73;72.7;-22;-22.1;28.9;0.0;
15/06/2019 19:23:31;100;0;226.21;17;-18.96;-6.75;165.2;11.20;69613;5123.400;-12837.754;281;-300;-293.1;73;72.7;-20;-19.9;28.8;0.0;
15/06/2019 19:23:51;100;0;226.79;17;-18.92;-5.46;167.1;11.10;69600;5123.400;-12837.754;281;-300;-293.1;73;72.7;-21;-21.2;28.9;0.0;
15/06/2019 19:24:11;100;0;228.10;17;-18.99;-6.79;169.3;11.00;69584;5123.400;-12837.754;281;-300;-293.1;73;72.7;-20;-19.4;28.9;0.0;
15/06/2019 19:24:31;100;0;227.92;17;-19.07;-5.40;171.4;11.00;69586;5123.400;-12837.754;281;-300;-293.1;73;72.6;-21;-21.2;28.9;43.2;
15/06/2019 19:24:51;100;0;228.37;17;-18.39;-6.65;173.4;11.00;69586;5123.400;-12837.754;281;-300;-295.0;73;72.6;-21;-21.7;28.8;41.1;
15/06/2019 19:25:11;100;0;232.37;17;-18.55;-6.76;175.4;10.90;69577;5123.400;-12837.754;281;-300;-293.1;73;72.7;-19;-19.0;28.9;39.0;
15/06/2019 19:25:31;100;0;235.47;17;-18.86;-5.25;177.2;10.90;69560;5123.400;-12837.754;281;-300;-295.0;73;72.7;-18;-18.1;28.9;37.1;
15/06/2019 19:25:51;100;0;235.96;17;-18.74;-5.03;179.2;10.80;69552;5123.400;-12837.754;281;-300;-295.0;73;72.7;-19;-19.4;28.8;35.2;
15/06/2019 19:26:11;100;0;236.71;17;-19.75;-6.12;181.0;10.70;69542;5123.400;-12837.754;281;-300;-293.1;73;72.7;-19;-19.9;28.9;33.2;
15/06/2019 19:26:31;100;0;242.48;17;-17.74;-5.77;183.1;10.70;69531;5123.400;-12837.754;281;-300;-293.1;73;72.6;-16;-15.3;28.8;31.2;
15/06/2019 19:26:51;100;0;243.98;17;-17.71;-3.05;185.2;10.70;69534;5123.400;-12837.754;281;-300;-293.1;73;72.6;-17;-17.1;28.8;29.0;
15/06/2019 19:27:11;100;0;245.10;17;-18.72;-4.85;187.1;10.60;69517;5123.400;-12837.754;281;-300;-293.1;73;72.7;-16;-15.8;28.9;27.0;
15/06/2019 19:27:31;100;0;244.50;17;-17.06;-4.47;189.1;10.60;69515;5123.400;-12837.754;281;-300;-293.1;73;72.7;-18;-18.1;28.9;25.0;
15/06/2019 19:27:51;100;0;249.68;17;-18.14;-5.36;191.0;10.50;69515;5123.400;-12837.754;281;-300;-293.1;73;72.7;-15;-14.9;28.9;23.1;
15/06/2019 19:28:11;100;0;247.42;17;-18.79;-3.34;192.9;10.50;69505;5123.400;-12837.754;281;-300;-293.1;73;72.7;-17;-17.1;28.8;21.2;
15/06/2019 19:28:31;100;0;249.65;17;-17.99;-5.01;194.8;10.40;69505;5123.400;-12837.754;281;-300;-293.1;73;72.6;-16;-15.3;28.9;19.2;
15/06/2019 19:28:51;118;0;250.19;17;-18.22;-3.14;196.7;10.40;69496;5123.400;-12837.754;281;150;-277.2;57;56.6;0;0.5;28.8;17.2;
15/06/2019 19:29:01;118;0;174.60;17;3.54;3.98;197.4;10.40;69415;5123.400;-12837.754;281;150;-120.8;57;57.1;0;0.5;28.2;17.2;
15/06/2019 19:29:11;118;0;180.28;17;20.90;3.44;197.1;10.40;69200;5123.400;-12837.754;281;150;35.6;57;56.9;0;0.5;28.3;-1.0;
15/06/2019 19:29:21;118;0;180.20;17;24.01;3.83;196.2;10.30;68949;5123.400;-12837.754;281;150;156.4;57;56.9;0;0.5;28.3;-1.0;
15/06/2019 19:29:31;118;0;232.14;17;25.44;3.37;195.0;10.30;68760;5123.400;-12837.754;281;150;156.4;57;56.9;0;0.5;28.9;-1.0;
15/06/2019 19:29:41;118;0;231.18;17;27.73;3.90;193.3;10.30;68774;5123.400;-12837.754;281;150;156.4;57;56.9;0;0.5;28.9;-1.0;
15/06/2019 19:29:51;117;0;231.97;17;28.03;3.60;191.4;10.30;68770;5123.400;-12837.754;281;150;156.4;57;56.9;0;0.5;28.8;-1.0;
15/06/2019 19:30:11;117;0;224.41;17;29.36;3.73;186.9;10.20;68762;5123.400;-12837.754;281;150;158.4;57;56.9;31;31.1;28.9;-1.0;
15/06/2019 19:30:31;117;0;233.63;17;27.82;18.96;181.8;10.20;68759;5123.400;-12837.754;281;150;156.4;57;56.9;22;22.1;28.8;-1.0;
15/06/2019 19:30:51;117;0;232.66;17;29.00;13.80;177.2;10.20;68757;5123.400;-12837.754;281;150;156.4;57;56.9;22;21.2;28.9;-1.0;
15/06/2019 19:31:11;117;0;235.59;17;28.89;13.77;172.3;10.10;68745;5123.400;-12837.754;281;150;156.4;57;56.9;20;19.4;28.8;-1.0;
15/06/2019 19:31:32;117;0;240.51;17;28.12;12.32;167.6;10.10;68762;5123.400;-12837.754;281;150;158.4;57;56.9;17;17.1;28.8;-1.0;
15/06/2019 19:31:52;117;0;241.71;17;28.12;11.06;162.9;10.00;68764;5123.400;-12837.754;281;150;156.4;57;56.9;17;16.7;28.9;-1.0;
15/06/2019 19:32:12;117;0;245.72;17;27.64;11.01;158.4;10.00;68767;5123.400;-12837.754;281;150;156.4;57;56.9;16;15.8;28.9;-1.0;
15/06/2019 19:32:32;117;0;248.15;17;27.80;10.56;153.9;10.00;68786;5123.400;-12837.754;281;150;156.4;57;56.9;15;14.9;28.9;-1.0;
15/06/2019 19:32:52;117;0;252.22;17;27.28;9.85;149.6;9.90;68790;5123.400;-12837.754;281;150;156.4;57;56.9;14;14.0;28.9;-1.0;
15/06/2019 19:33:12;117;0;253.60;17;27.02;9.25;145.3;9.90;68801;5123.400;-12837.754;281;150;158.4;57;56.9;15;14.9;28.9;-1.0;
15/06/2019 19:33:32;117;0;261.05;17;26.45;10.48;141.1;9.90;68798;5123.400;-12837.754;281;150;156.4;57;56.9;11;10.8;28.9;-1.0;
15/06/2019 19:33:52;117;0;270.29;17;26.41;8.01;137.1;9.90;68802;5123.400;-12837.754;281;150;156.4;57;56.9;11;9.9;28.9;-1.0;
15/06/2019 19:34:12;117;0;273.55;17;26.29;7.80;132.9;9.90;68808;5123.400;-12837.754;281;150;158.4;57;56.9;9;9.0;28.9;-1.0;
15/06/2019 19:34:32;117;0;277.14;17;26.02;6.99;128.9;9.80;68809;5123.400;-12837.754;281;150;158.4;57;56.9;7;7.2;28.9;-1.0;
15/06/2019 19:34:52;117;0;276.98;17;25.85;6.08;124.9;9.80;68806;5123.400;-12837.754;281;150;158.4;57;56.9;9;9.5;28.9;-1.0;
15/06/2019 19:35:12;117;0;273.15;17;26.09;7.98;121.0;9.80;68815;5123.400;-12837.754;281;150;158.4;57;56.9;11;10.8;28.9;-1.0;
15/06/2019 19:35:32;117;0;265.54;17;25.75;8.39;117.1;9.80;68839;5123.400;-12837.754;281;150;158.4;57;56.9;16;15.8;28.8;-1.0;
15/06/2019 19:35:52;117;0;265.11;17;24.47;11.22;113.4;9.80;68838;5123.400;-12837.754;281;150;158.4;57;56.9;14;14.0;28.8;-1.0;
15/06/2019 19:36:12;117;0;269.56;17;24.47;9.37;110.0;9.80;68847;5123.400;-12837.754;281;150;158.4;57;56.9;11;10.8;28.9;-1.0;
15/06/2019 19:36:32;117;0;276.61;17;24.07;8.03;106.4;9.80;68864;5123.400;-12837.754;281;150;156.4;57;56.9;6;5.9;28.9;-1.0;
15/06/2019 19:36:52;117;0;289.64;17;23.65;5.74;103.0;9.70;68864;5123.400;-12837.754;281;150;158.4;57;56.9;0;0.0;28.9;-1.0;
15/06/2019 19:37:12;117;0;297.51;17;23.80;2.74;99.6;9.70;68864;5123.400;-12837.754;281;150;158.4;57;56.9;-1;-1.4;28.9;-1.0;
15/06/2019 19:37:32;117;0;308.82;17;23.50;2.11;96.3;9.80;68891;5123.400;-12837.754;281;150;158.4;57;56.9;-5;-5.0;28.9;-1.0;
15/06/2019 19:37:52;117;0;314.53;17;23.61;0.52;93.2;9.70;68883;5123.400;-12837.754;281;150;158.4;57;56.9;-7;-7.2;28.9;-1.0;
15/06/2019 19:38:12;117;0;318.04;17;22.71;-0.61;90.0;9.70;68890;5123.400;-12837.754;281;150;158.4;57;56.9;-8;-8.6;28.9;-1.0;
15/06/2019 19:38:32;117;0;313.39;17;21.81;-0.76;87.2;9.70;68904;5123.400;-12837.754;281;150;158.4;57;56.9;-5;-5.0;28.8;-1.0;
15/06/2019 19:38:52;117;0;310.81;17;21.67;1.20;84.7;9.70;68904;5123.400;-12837.754;281;150;156.4;57;56.9;-5;-4.1;28.9;-1.0;
15/06/2019 19:39:12;117;0;306.46;17;21.68;1.32;82.0;9.70;68918;5123.400;-12837.754;281;150;158.4;57;56.9;-4;-4.1;28.8;-1.0;
15/06/2019 19:39:32;117;0;298.79;17;21.31;1.36;79.5;9.70;68911;5123.400;-12837.754;281;150;158.4;57;56.9;-1;-0.9;28.8;-1.0;
15/06/2019 19:39:52;117;0;293.44;17;21.07;3.10;77.0;9.70;68922;5123.400;-12837.754;281;150;158.4;57;56.9;-1;-0.5;28.9;-1.0;
15/06/2019 19:40:12;117;0;288.78;17;21.19;3.01;74.6;9.70;68932;5123.400;-12837.754;281;150;160.4;57;56.9;0;0.0;28.8;-1.0;
15/06/2019 19:40:32;117;0;287.46;17;20.44;3.59;72.2;9.80;68942;5123.400;-12837.754;281;150;158.4;57;56.9;-2;-1.8;28.8;-1.0;
15/06/2019 19:40:52;117;0;283.50;17;20.50;2.14;69.9;9.70;68950;5123.400;-12837.754;281;150;158.4;57;57.1;-2;-2.3;28.9;-1.0;
15/06/2019 19:41:12;117;0;279.52;17;20.41;2.11;67.5;9.70;68964;5123.400;-12837.754;281;150;158.4;57;56.9;-1;-0.9;28.9;-1.0;
15/06/2019 19:41:32;117;0;283.71;17;19.72;3.21;65.3;9.80;68974;5123.400;-12837.754;281;150;158.4;57;56.9;-6;-5.9;28.8;-1.0;
15/06/2019 19:41:52;117;0;282.31;17;19.79;0.27;63.2;9.80;68978;5123.400;-12837.754;281;150;158.4;57;56.9;-6;-6.3;28.8;-1.0;
15/06/2019 19:42:12;117;0;277.91;17;19.88;0.21;61.1;9.80;68987;5123.400;-12837.754;281;150;158.4;57;56.9;-3;-3.2;28.8;-1.0;
15/06/2019 19:42:32;117;0;275.23;17;19.85;1.98;58.9;9.80;68997;5123.400;-12837.754;281;150;158.4;57;56.9;-4;-4.5;28.9;-1.0;
15/06/2019 19:42:52;117;0;270.69;17;19.95;0.86;56.7;9.80;69001;5123.400;-12837.754;281;150;158.4;57;56.9;-2;-1.8;28.9;-1.0;
15/06/2019 19:43:12;117;0;266.30;17;19.90;2.63;54.6;9.80;69003;5123.400;-12837.754;281;150;158.4;57;56.9;-1;-0.9;28.9;-1.0;
15/06/2019 19:43:32;117;0;262.50;17;19.67;3.37;52.4;9.80;69017;5123.400;-12837.754;281;150;160.4;57;56.9;-1;0.0;28.9;-1.0;
15/06/2019 19:43:52;117;0;262.41;17;19.59;3.33;50.3;9.80;69025;5123.400;-12837.754;281;150;158.4;57;56.9;-1;0.0;28.9;-1.0;
15/06/2019 19:44:12;117;0;264.32;17;19.36;3.36;48.2;9.80;69028;5123.400;-12837.754;281;150;160.4;57;56.9;-1;0.0;28.8;-1.0;
15/06/2019 19:44:32;117;0;260.41;17;19.39;3.26;46.2;9.80;69038;5123.400;-12837.754;281;150;158.4;57;56.9;-1;0.0;28.8;-1.0;
15/06/2019 19:44:52;117;0;259.65;17;19.27;3.27;44.2;9.80;69047;5123.400;-12837.754;281;150;158.4;57;56.9;-1;0.0;28.9;-1.0;
15/06/2019 19:45:12;117;0;258.04;17;19.18;3.28;42.2;9.90;69050;5123.400;-12837.754;281;150;158.4;57;57.1;-1;0.0;28.8;-1.0;
15/06/2019 19:45:32;117;0;257.65;17;19.31;3.38;40.1;9.90;69060;5123.400;-12837.754;281;150;158.4;57;56.9;-1;0.0;28.9;-1.0;
15/06/2019 19:45:52;117;0;258.61;17;19.38;3.34;38.1;9.90;69064;5123.400;-12837.754;281;150;158.4;57;56.9;-1;0.0;28.9;-1.0;
15/06/2019 19:46:12;117;0;260.16;17;19.19;3.30;36.0;9.90;69076;5123.400;-12837.754;281;150;158.4;57;56.9;-3;-3.2;28.9;-1.0;
15/06/2019 19:46:32;117;0;259.73;17;19.21;1.60;33.8;9.90;69068;5123.400;-12837.754;281;150;158.4;57;56.9;-1;-0.5;28.9;-1.0;
15/06/2019 19:46:52;117;0;261.06;17;19.23;3.31;31.7;9.90;69083;5123.400;-12837.754;281;150;158.4;57;56.9;-3;-3.6;28.8;-1.0;
15/06/2019 19:47:12;117;0;253.98;17;18.72;1.41;29.5;9.90;69100;5123.400;-12837.754;281;150;156.4;57;56.9;2;1.8;28.8;-1.0;
15/06/2019 19:47:32;117;0;250.46;17;18.71;4.57;27.4;10.00;69101;5123.400;-12837.754;281;150;158.4;57;57.1;3;3.2;28.8;-1.0;
15/06/2019 19:47:52;117;0;249.06;17;18.46;5.20;25.3;10.00;69118;5123.400;-12837.754;281;150;158.4;57;56.9;3;4.1;28.9;-1.0;
15/06/2019 19:48:12;117;0;248.69;17;17.79;5.03;23.3;10.00;69124;5123.400;-12837.754;281;150;158.4;57;56.9;3;3.6;28.8;-1.0;
15/06/2019 19:48:32;117;0;253.79;17;18.17;5.33;21.5;10.00;69141;5123.400;-12837.754;281;150;158.4;57;56.9;0;-0.5;28.8;-1.0;
15/06/2019 19:48:52;117;0;254.63;17;18.04;2.99;19.5;10.00;69152;5123.400;-12837.754;281;150;158.4;57;56.9;0;-0.9;28.8;-1.0;
15/06/2019 19:49:12;117;0;259.67;17;17.62;2.97;17.6;10.10;69178;5123.400;-12837.754;281;150;158.4;57;57.1;-1;-0.9;28.8;-1.0;
15/06/2019 19:49:32;117;0;264.15;17;17.79;3.11;15.9;10.10;69196;5123.400;-12837.754;281;150;158.4;57;56.9;-1;-0.9;28.9;-1.0;
15/06/2019 19:49:52;117;0;262.41;17;17.04;2.84;14.1;10.10;69207;5123.400;-12837.754;281;150;158.4;57;56.9;-1;-0.9;28.8;-1.0;
15/06/2019 19:50:12;117;0;253.51;17;17.12;2.76;12.3;10.20;69255;5123.400;-12837.754;281;150;158.4;57;56.9;5;5.0;28.9;-1.0;
15/06/2019 19:50:32;117;0;247.94;17;17.29;6.10;10.5;10.20;69288;5123.400;-12837.754;281;150;156.4;57;56.9;8;8.6;28.8;-1.0;
