Timestamp;NavState;SecurityLevel;Heading;Declination;Pitch;Roll;Depth;Temperature;Pa;Lat;Lon;DesiredH;BallastCmd;BallastPos;LinCmd;LinPos;AngCmd;AngPos;Voltage;Altitude;
14/06/2019 04:33:01;117;0;219.69;17;20.55;5.21;9.3;12.50;69731;5138.216;-12820.533;207;100;106.9;54;53.9;3;3.2;29.2;-1.0;
14/06/2019 04:33:11;115;0;225.00;17;24.42;4.27;8.8;12.50;69740;5138.216;-12820.533;207;500;118.8;100;99.7;0;-0.5;29.2;-1.0;
14/06/2019 04:33:21;115;0;188.98;17;-20.54;4.01;8.2;12.50;69647;5138.216;-12820.533;207;500;269.3;100;99.9;0;-0.5;28.9;-1.0;
14/06/2019 04:33:31;115;0;182.28;17;-63.27;4.45;8.8;12.50;69441;5138.216;-12820.533;207;500;425.7;100;99.9;0;-0.5;28.9;-1.0;
14/06/2019 04:33:41;115;0;185.31;17;-62.25;-0.77;8.2;12.50;69187;5138.216;-12820.533;207;500;505.0;100;99.9;0;-0.5;28.9;-1.0;
14/06/2019 04:33:51;115;0;216.78;17;-37.58;2.74;5.4;12.50;69091;5138.216;-12820.533;207;500;505.0;100;99.9;0;-0.5;29.2;-1.0;
14/06/2019 04:34:01;116;0;233.17;17;-53.51;-0.88;2.4;12.50;69099;5138.216;-12820.533;207;500;506.9;100;99.9;0;-0.5;29.2;-1.0;
14/06/2019 04:34:21;116;0;305.92;17;-26.96;5.88;1.4;12.60;69118;5138.216;-12820.533;207;500;506.9;100;99.9;0;-0.5;29.2;-1.0;
14/06/2019 04:34:41;116;0;264.06;17;-10.90;-0.19;1.2;12.60;69119;5138.216;-12820.533;207;500;508.9;100;99.7;0;-0.5;29.2;-1.0;
14/06/2019 04:35:02;116;0;296.28;17;-14.20;1.68;1.2;12.70;69134;5138.166;-12820.415;207;500;508.9;100;99.7;0;-0.5;29.2;-1.0;
14/06/2019 04:35:22;116;0;286.27;17;-10.83;2.03;1.1;12.70;69145;5138.166;-12820.418;207;500;506.9;100;99.7;0;-0.5;29.2;-1.0;
14/06/2019 04:35:42;116;0;303.02;17;-40.50;16.81;1.6;12.80;69141;5138.168;-12820.415;207;500;508.9;100;99.7;0;-0.5;29.2;-1.0;
14/06/2019 04:36:06;116;0;299.60;17;-4.84;4.53;1.1;12.90;69153;5138.167;-12820.416;207;500;508.9;100;99.7;0;-0.5;29.2;-1.0;
14/06/2019 04:36:26;116;0;311.49;17;-4.38;-1.47;1.1;13.00;69154;5138.169;-12820.416;207;500;506.9;100;99.7;0;-0.5;29.2;-1.0;
14/06/2019 04:36:46;116;0;302.80;17;-9.77;2.27;1.1;13.00;69155;5138.171;-12820.416;207;500;508.9;100;99.7;0;-0.5;29.2;-1.0;
14/06/2019 04:37:06;116;0;297.94;17;-14.91;2.72;1.1;13.10;69165;5138.175;-12820.418;207;500;506.9;100;99.7;0;-0.5;29.2;-1.0;
14/06/2019 04:37:53;116;0;286.61;17;-8.76;0.53;1.1;13.30;69178;5138.175;-12820.419;207;500;506.9;100;99.7;0;-0.5;29.2;-1.0;
14/06/2019 04:38:13;116;0;285.93;17;-6.28;2.06;1.0;13.40;69177;5138.177;-12820.419;207;500;508.9;100;99.9;0;-0.5;29.2;-1.0;
14/06/2019 04:38:33;116;0;293.89;17;-10.47;5.61;1.1;13.40;69186;5138.178;-12820.418;207;500;508.9;100;99.7;0;-0.5;29.2;-1.0;
14/06/2019 04:38:53;116;0;301.45;17;-4.20;6.68;1.1;13.50;69186;5138.179;-12820.417;207;500;506.9;100;99.7;0;-0.5;29.2;-1.0;
14/06/2019 04:39:15;116;0;304.07;17;-9.21;1.24;1.1;13.60;69193;5138.181;-12820.419;207;500;508.9;100;99.7;0;-0.5;29.2;-1.0;
14/06/2019 04:39:35;116;0;329.18;17;-8.87;3.25;1.0;13.70;69194;5138.182;-12820.418;207;500;508.9;100;99.7;0;-0.5;29.2;-1.0;
14/06/2019 04:39:55;116;0;294.89;17;-8.37;4.14;1.1;13.70;69196;5138.182;-12820.419;207;500;506.9;100;99.7;0;-0.5;29.2;-1.0;
14/06/2019 04:40:15;110;0;311.78;17;-10.68;4.48;1.1;13.80;69205;5138.182;-12820.419;207;-250;407.9;100;99.7;0;-0.5;29.2;-1.0;
14/06/2019 04:40:25;110;0;328.37;17;-4.36;3.58;1.1;13.80;69444;5138.182;-12820.419;207;-250;263.4;100;99.7;0;-0.5;29.1;-1.0;
14/06/2019 04:40:35;110;0;321.68;17;-25.25;9.15;1.3;13.80;69619;5138.182;-12820.419;207;-250;101.0;100;99.9;0;-0.5;29.2;-1.0;
14/06/2019 04:40:45;110;0;310.75;17;-60.64;5.13;2.2;13.80;69891;5138.182;-12820.419;207;-250;-81.2;100;99.9;0;-0.5;29.1;-1.0;
14/06/2019 04:40:55;110;0;296.73;17;-68.51;-6.82;3.1;13.90;70192;5138.182;-12820.419;207;-250;-247.5;91;91.1;0;-0.5;29.1;-1.0;
14/06/2019 04:41:05;110;0;302.58;17;-54.93;2.98;4.7;13.90;70470;5138.182;-12820.419;207;-250;-249.5;72;72.0;0;-0.5;29.2;-1.0;
14/06/2019 04:41:15;100;0;298.09;17;-37.90;3.53;7.4;13.90;70452;5138.182;-12820.419;207;-250;-249.5;71;70.9;0;-0.5;29.2;-1.0;
14/06/2019 04:41:35;100;0;280.82;17;-25.80;3.40;12.0;13.90;70459;5138.182;-12820.419;207;-250;-247.5;71;70.8;45;45.1;29.2;0.0;
14/06/2019 04:41:55;100;0;257.95;17;-19.16;25.32;16.3;13.90;70450;5138.182;-12820.419;207;-250;-245.5;71;70.8;24;23.9;29.2;0.0;
14/06/2019 04:42:15;100;0;239.98;17;-19.74;14.58;19.5;13.90;70426;5138.182;-12820.419;207;-250;-243.6;71;70.8;13;12.6;29.2;0.0;
14/06/2019 04:42:35;100;0;231.41;17;-20.77;8.70;22.3;13.80;70393;5138.182;-12820.419;207;-250;-243.6;71;70.8;12;12.2;29.2;0.0;
14/06/2019 04:42:55;100;0;223.17;17;-20.11;8.63;25.3;13.80;70362;5138.182;-12820.419;207;-250;-243.6;71;70.8;10;9.9;29.2;0.0;
14/06/2019 04:43:15;100;0;221.11;17;-20.97;7.44;28.0;13.70;70315;5138.182;-12820.419;207;-250;-243.6;71;70.8;12;12.2;29.2;0.0;
14/06/2019 04:43:35;100;0;211.78;17;-19.95;9.20;30.8;13.70;70271;5138.182;-12820.419;207;-250;-243.6;71;70.6;9;8.6;29.3;0.0;
14/06/2019 04:43:55;100;0;201.95;17;-19.53;6.82;33.5;13.60;70233;5138.182;-12820.419;207;-250;-243.6;71;70.9;7;7.2;29.2;0.0;
14/06/2019 04:44:15;100;0;196.08;17;-20.20;6.21;36.1;13.60;70209;5138.182;-12820.419;207;-250;-243.6;71;70.8;7;6.3;29.2;0.0;
14/06/2019 04:44:35;100;0;191.83;17;-20.07;6.17;38.7;13.50;70176;5138.182;-12820.419;207;-250;-243.6;71;70.8;7;6.8;29.2;0.0;
14/06/2019 04:44:55;100;0;186.47;17;-20.44;6.21;41.3;13.50;70152;5138.182;-12820.419;207;-250;-243.6;71;70.8;7;6.3;29.2;0.0;
14/06/2019 04:45:15;100;0;179.30;17;-19.49;6.16;43.9;13.40;70132;5138.182;-12820.419;207;-250;-243.6;71;70.6;4;3.6;29.2;0.0;
14/06/2019 04:45:35;100;0;175.05;17;-20.13;4.71;46.3;13.30;70103;5138.182;-12820.419;207;-250;-243.6;71;70.6;4;3.6;29.2;0.0;
14/06/2019 04:45:55;100;0;167.65;17;-19.79;4.80;48.9;13.30;70084;5138.182;-12820.419;207;-250;-241.6;71;70.8;0;0.0;29.2;0.0;
14/06/2019 04:46:15;118;0;160.87;17;-19.96;2.88;51.2;13.20;70057;5138.182;-12820.419;207;100;-227.7;54;53.7;0;-0.5;29.2;0.0;
14/06/2019 04:46:25;118;0;139.59;17;0.82;3.40;52.2;13.20;69973;5138.182;-12820.419;207;100;-71.3;54;54.1;0;-0.9;28.9;0.0;
14/06/2019 04:46:35;118;0;140.88;17;19.11;3.13;52.0;13.20;69765;5138.182;-12820.419;207;100;83.2;54;54.1;0;-0.5;28.9;-1.0;
14/06/2019 04:46:45;118;0;141.83;17;24.71;2.97;51.2;13.10;69507;5138.182;-12820.419;207;100;105.0;54;54.1;0;-0.9;28.9;-1.0;
14/06/2019 04:46:55;118;0;169.00;17;25.61;3.10;50.1;13.10;69491;5138.182;-12820.419;207;100;106.9;54;54.1;0;-0.9;29.2;-1.0;
14/06/2019 04:47:05;117;0;170.49;17;26.29;3.14;48.9;13.10;69483;5138.182;-12820.419;207;100;106.9;54;54.1;0;-0.9;29.2;-1.0;
14/06/2019 04:47:25;117;0;167.66;17;26.15;3.07;46.3;13.10;69472;5138.182;-12820.419;207;100;105.0;54;54.1;-2;-1.8;29.2;-1.0;
14/06/2019 04:47:45;117;0;161.10;17;26.72;2.39;43.2;13.00;69462;5138.182;-12820.419;207;100;106.9;54;54.1;0;0.0;29.2;-1.0;
14/06/2019 04:48:05;117;0;160.67;17;25.56;3.78;40.5;12.90;69469;5138.182;-12820.419;207;100;106.9;54;54.1;0;0.5;29.2;-1.0;
14/06/2019 04:48:25;117;0;154.13;17;25.51;3.76;37.9;12.90;69466;5138.182;-12820.419;207;100;106.9;54;54.1;2;1.8;29.2;-1.0;
14/06/2019 04:48:45;117;0;150.25;17;25.16;4.69;35.5;12.80;69474;5138.182;-12820.419;207;100;106.9;54;54.1;4;4.1;29.2;-1.0;
14/06/2019 04:49:05;117;0;147.35;17;25.29;6.01;33.1;12.80;69475;5138.182;-12820.419;207;100;106.9;54;54.1;4;5.0;29.2;-1.0;
14/06/2019 04:49:25;117;0;152.96;17;24.93;5.94;30.8;12.80;69493;5138.182;-12820.419;207;100;106.9;54;54.1;1;0.9;29.2;-1.0;
