Timestamp;NavState;SecurityLevel;Heading;Declination;Pitch;Roll;Depth;Temperature;Pa;Lat;Lon;DesiredH;BallastCmd;BallastPos;LinCmd;LinPos;AngCmd;AngPos;Voltage;Altitude;
14/06/2019 09:53:27;117;0;219.76;17;23.97;1.26;9.9;10.60;69387;5135.916;-12821.184;211;150;158.4;54;54.1;0;0.0;29.2;-1.0;
14/06/2019 09:53:37;115;0;222.31;17;24.39;3.50;8.7;10.60;69398;5135.916;-12821.184;211;500;170.3;100;98.5;0;0.9;29.1;-1.0;
14/06/2019 09:53:47;115;0;192.40;17;-11.53;4.20;7.8;10.60;69330;5135.916;-12821.184;211;500;320.8;100;100.4;0;0.9;28.9;-1.0;
14/06/2019 09:53:57;115;0;194.86;17;-52.14;4.09;8.8;10.70;69147;5135.916;-12821.184;211;500;473.3;100;99.9;0;0.9;28.8;-1.0;
14/06/2019 09:54:07;115;0;172.55;17;-65.16;2.07;8.7;10.70;68904;5135.916;-12821.184;211;500;505.0;100;99.7;0;0.9;28.9;-1.0;
14/06/2019 09:54:17;115;0;205.76;17;-38.06;3.45;6.2;10.70;68869;5135.916;-12821.184;211;500;506.9;100;99.7;0;0.9;29.2;-1.0;
14/06/2019 09:54:27;116;0;184.92;17;-68.84;2.32;2.9;10.80;68896;5135.916;-12821.184;211;500;506.9;100;99.7;0;0.9;29.1;-1.0;
14/06/2019 09:54:47;116;0;280.78;17;-50.62;-0.96;1.7;10.80;68913;5135.916;-12821.184;211;500;506.9;100;99.7;0;0.9;29.2;-1.0;
14/06/2019 09:55:07;116;0;315.40;17;-11.97;0.51;1.1;10.90;68950;5135.435;-12821.490;211;500;508.9;100;99.6;0;0.9;29.2;-1.0;
14/06/2019 09:55:34;116;0;323.36;17;-10.68;-1.38;1.2;11.00;68973;5135.435;-12821.491;211;500;508.9;100;99.6;0;0.9;29.1;-1.0;
14/06/2019 09:55:54;116;0;307.34;17;-4.01;-0.42;1.1;11.10;68978;5135.432;-12821.494;212;500;508.9;100;99.6;0;0.9;29.2;-1.0;
14/06/2019 09:56:14;116;0;303.04;17;-10.53;6.45;1.2;11.30;68999;5135.377;-12821.562;212;500;508.9;100;99.6;0;0.9;29.2;-1.0;
14/06/2019 10:00:57;116;0;304.92;17;-10.38;3.35;1.1;12.60;69097;5135.376;-12821.562;212;500;508.9;100;99.6;0;0.9;29.2;-1.0;
14/06/2019 10:01:17;116;0;290.82;17;-5.77;6.10;1.1;12.70;69105;5135.374;-12821.568;212;500;508.9;100;99.6;0;0.9;29.2;-1.0;
14/06/2019 10:01:37;116;0;306.48;17;-3.68;-2.71;1.1;12.70;69106;5135.369;-12821.574;212;500;508.9;100;99.6;0;0.9;29.2;-1.0;
14/06/2019 10:01:57;116;0;297.05;17;-6.81;3.19;1.1;12.80;69119;5135.364;-12821.583;212;500;508.9;100;99.6;0;0.9;29.2;-1.0;
14/06/2019 10:02:24;116;0;321.71;17;-19.27;5.44;1.1;12.90;69117;5135.363;-12821.583;212;500;510.9;100;99.6;0;0.9;29.1;-1.0;
14/06/2019 10:02:44;116;0;302.29;17;-8.79;2.26;1.1;13.00;69120;5135.357;-12821.590;212;500;508.9;100;99.6;0;0.9;29.2;-1.0;
14/06/2019 10:03:04;116;0;304.54;17;-6.54;4.36;1.1;13.10;69131;5135.345;-12821.604;212;500;508.9;100;99.6;0;0.9;29.2;-1.0;
14/06/2019 10:03:33;116;0;310.17;17;-19.07;4.22;1.2;13.20;69134;5135.342;-12821.608;212;500;510.9;100;99.6;0;0.9;29.2;-1.0;
14/06/2019 10:03:53;116;0;318.38;17;-4.39;4.75;1.1;13.30;69139;5135.331;-12821.611;212;500;510.9;100;99.6;0;0.9;29.1;-1.0;
14/06/2019 10:04:13;116;0;299.78;17;-7.95;7.21;1.1;13.40;69140;5135.337;-12821.623;212;500;508.9;100;99.6;0;0.9;29.1;-1.0;
14/06/2019 10:05:19;116;0;310.57;17;-7.46;9.08;1.1;13.90;69159;5135.335;-12821.625;212;500;508.9;100;99.6;0;0.9;29.1;-1.0;
14/06/2019 10:05:39;116;0;316.71;17;-10.02;1.80;1.1;14.00;69161;5135.333;-12821.628;212;500;508.9;100;99.6;0;0.9;29.2;-1.0;
14/06/2019 10:05:59;116;0;302.19;17;-5.59;-1.65;1.1;14.10;69162;5135.327;-12821.637;212;500;508.9;100;99.6;0;0.9;29.2;-1.0;
14/06/2019 10:06:23;116;0;332.68;17;-19.48;7.00;1.2;14.20;69169;5135.326;-12821.637;212;500;508.9;100;99.6;0;0.9;29.2;-1.0;
14/06/2019 10:06:43;116;0;293.62;17;-25.60;2.11;1.3;14.30;69175;5135.313;-12821.642;212;500;508.9;100;99.6;0;0.9;29.1;-1.0;
14/06/2019 10:07:03;116;0;317.22;17;-6.69;2.03;1.1;14.40;69173;5135.316;-12821.643;212;500;508.9;100;99.6;0;0.9;29.0;-1.0;
14/06/2019 10:07:23;116;0;296.80;17;-5.61;4.48;1.1;14.50;69179;5135.312;-12821.650;212;500;510.9;100;99.6;0;0.9;29.2;-1.0;
14/06/2019 10:07:43;110;0;319.90;17;-8.36;5.55;1.1;14.60;69191;5135.312;-12821.650;212;-250;409.9;100;99.6;0;0.9;29.1;-1.0;
14/06/2019 10:07:53;110;0;334.80;17;-6.98;2.41;1.1;14.60;69423;5135.312;-12821.650;212;-250;269.3;100;99.7;0;0.9;29.0;-1.0;
14/06/2019 10:08:03;110;0;324.42;17;-7.44;4.15;1.1;14.60;69598;5135.312;-12821.650;212;-250;132.7;100;99.6;0;0.9;29.1;-1.0;
14/06/2019 10:08:13;110;0;342.39;17;-18.38;5.13;1.2;14.60;69819;5135.312;-12821.650;212;-250;-21.8;100;99.7;0;0.9;29.1;-1.0;
14/06/2019 10:08:23;110;0;331.36;17;-43.11;5.80;2.0;14.60;70078;5135.312;-12821.650;212;-250;-211.9;97;97.0;0;0.9;29.1;-1.0;
14/06/2019 10:08:33;110;0;331.56;17;-58.64;1.77;4.0;14.70;70406;5135.312;-12821.650;212;-250;-249.5;75;75.0;0;0.9;29.1;-1.0;
14/06/2019 10:08:43;110;0;320.18;17;-45.09;4.00;7.2;14.70;70432;5135.312;-12821.650;212;-250;-249.5;72;72.0;0;0.9;29.1;-1.0;
14/06/2019 10:08:53;100;0;300.64;17;-33.08;3.80;10.0;14.70;70415;5135.312;-12821.650;212;-250;-247.5;71;70.8;0;0.9;29.2;-1.0;
14/06/2019 10:09:13;100;0;289.97;17;-23.58;4.36;13.8;14.60;70393;5135.312;-12821.650;212;-250;-245.5;71;70.6;45;45.6;29.1;0.0;
14/06/2019 10:09:33;100;0;271.12;17;-18.63;25.65;17.1;14.60;70353;5135.312;-12821.650;212;-250;-245.5;71;70.6;28;28.0;29.1;0.0;
14/06/2019 10:09:53;100;0;252.26;17;-20.27;16.33;20.0;14.50;70351;5135.312;-12821.650;212;-250;-243.6;71;70.6;16;15.8;29.2;0.0;
14/06/2019 10:10:13;100;0;236.08;17;-20.36;10.21;23.0;14.50;70340;5135.312;-12821.650;212;-250;-243.6;71;70.6;10;9.5;29.1;0.0;
14/06/2019 10:10:33;100;0;223.41;17;-20.52;7.36;25.8;14.40;70313;5135.312;-12821.650;212;-250;-243.6;71;70.6;7;7.2;29.2;0.0;
14/06/2019 10:10:53;100;0;207.72;17;-20.66;6.23;28.6;14.40;70289;5135.312;-12821.650;212;-250;-241.6;71;70.6;3;3.2;29.1;0.0;
14/06/2019 10:11:13;100;0;205.28;17;-21.49;4.26;31.3;14.30;70244;5135.312;-12821.650;212;-250;-241.6;71;70.6;7;7.7;29.2;0.0;
14/06/2019 10:11:33;100;0;197.80;17;-19.08;7.17;34.2;14.20;70194;5135.312;-12821.650;212;-250;-241.6;71;70.6;5;5.0;29.2;0.0;
14/06/2019 10:11:53;100;0;193.53;17;-19.25;5.09;36.8;14.20;70154;5135.312;-12821.650;212;-250;-243.6;71;70.6;5;4.5;29.2;0.0;
14/06/2019 10:12:13;100;0;185.90;17;-19.41;5.14;39.4;14.10;70133;5135.312;-12821.650;212;-250;-243.6;71;70.6;4;4.1;29.1;0.0;
14/06/2019 10:12:33;100;0;179.82;17;-19.27;4.83;41.9;14.00;70093;5135.312;-12821.650;212;-250;-241.6;71;70.5;2;1.8;29.1;0.0;
14/06/2019 10:12:53;100;0;169.65;17;-19.47;3.78;44.3;13.90;70065;5135.312;-12821.650;212;-250;-243.6;71;70.6;-1;-1.4;29.1;0.0;
14/06/2019 10:13:13;100;0;162.04;17;-19.67;2.59;46.9;13.80;70044;5135.312;-12821.650;212;-250;-243.6;71;70.6;-2;-1.8;29.2;0.0;
14/06/2019 10:13:33;100;0;158.04;17;-19.55;2.55;49.4;13.70;70026;5135.312;-12821.650;212;-250;-241.6;71;70.6;-2;-1.8;29.2;0.0;
14/06/2019 10:13:53;100;0;152.07;17;-19.12;2.60;51.9;13.70;70009;5135.312;-12821.650;212;-250;-241.6;71;70.6;-4;-4.1;29.1;0.0;
14/06/2019 10:14:13;100;0;146.95;17;-19.51;1.13;54.5;13.60;69995;5135.312;-12821.650;212;-250;-243.6;71;70.5;-7;-7.2;29.1;0.0;
14/06/2019 10:14:33;100;0;142.81;17;-18.86;-0.15;57.0;13.50;69968;5135.312;-12821.650;212;-250;-241.6;71;70.6;-9;-9.0;29.2;0.0;
14/06/2019 10:14:53;100;0;141.33;17;-19.38;-1.14;59.3;13.40;69961;5135.312;-12821.650;212;-250;-241.6;71;70.5;-10;-9.9;29.1;0.0;
14/06/2019 10:15:13;100;0;138.60;17;-19.21;-1.65;61.6;13.40;69946;5135.312;-12821.650;212;-250;-241.6;71;70.5;-13;-13.1;29.2;0.0;
14/06/2019 10:15:33;100;0;135.29;17;-19.37;-3.07;63.9;13.30;69926;5135.312;-12821.650;212;-250;-241.6;71;70.6;-16;-16.2;29.2;0.0;
14/06/2019 10:15:53;100;0;131.08;17;-19.50;-4.24;66.1;13.20;69915;5135.312;-12821.650;212;-250;-241.6;71;70.5;-20;-19.9;29.2;0.0;
14/06/2019 10:16:13;100;0;129.36;17;-19.25;-5.89;68.4;13.20;69907;5135.312;-12821.650;212;-250;-243.6;71;70.6;-22;-22.1;29.1;0.0;
14/06/2019 10:16:33;100;0;131.34;17;-19.26;-7.05;70.7;13.10;69904;5135.312;-12821.650;212;-250;-241.6;71;70.5;-23;-23.0;29.2;0.0;
14/06/2019 10:16:53;100;0;133.35;17;-18.70;-7.53;73.1;13.00;69888;5135.312;-12821.650;212;-250;-239.6;71;70.6;-24;-24.4;29.2;0.0;
14/06/2019 10:17:13;100;0;135.90;17;-18.85;-8.10;75.4;13.00;69886;5135.312;-12821.650;212;-250;-241.6;71;70.5;-25;-24.8;29.2;0.0;
14/06/2019 10:17:33;100;0;135.63;17;-18.65;-8.46;77.8;12.90;69874;5135.312;-12821.650;212;-250;-241.6;71;70.6;-26;-26.6;29.2;0.0;
14/06/2019 10:17:53;100;0;134.54;17;-18.29;-9.12;80.2;12.90;69859;5135.312;-12821.650;212;-250;-241.6;71;70.5;-27;-27.1;29.2;0.0;
14/06/2019 10:18:13;100;0;133.47;17;-18.18;-9.29;82.5;12.80;69865;5135.312;-12821.650;212;-250;-241.6;71;70.6;-27;-27.1;29.2;0.0;
14/06/2019 10:18:33;100;0;133.39;17;-17.74;-9.28;84.8;12.70;69847;5135.312;-12821.650;212;-250;-241.6;71;70.6;-27;-27.1;29.1;0.0;
14/06/2019 10:18:53;100;0;132.10;17;-17.67;-9.24;87.0;12.70;69843;5135.312;-12821.650;212;-250;-241.6;71;70.5;-27;-27.1;29.2;0.0;
14/06/2019 10:19:13;100;0;133.89;17;-17.07;-9.25;89.1;12.60;69835;5135.312;-12821.650;212;-250;-241.6;71;70.6;-27;-27.1;29.2;0.0;
14/06/2019 10:19:33;100;0;134.06;17;-17.00;-9.24;91.0;12.60;69823;5135.312;-12821.650;212;-250;-241.6;71;70.5;-26;-25.7;29.2;0.0;
14/06/2019 10:19:53;100;0;136.78;17;-17.20;-8.40;92.9;12.50;69810;5135.312;-12821.650;212;-250;-239.6;71;70.6;-25;-24.8;29.2;0.0;
14/06/2019 10:20:13;100;0;136.31;17;-17.24;-8.35;94.7;12.50;69807;5135.312;-12821.650;212;-250;-239.6;71;70.6;-26;-26.2;29.2;0.0;
14/06/2019 10:20:33;100;0;139.57;17;-17.06;-9.37;96.4;12.40;69803;5135.312;-12821.650;212;-250;-241.6;71;70.6;-24;-23.9;29.1;0.0;
14/06/2019 10:20:53;100;0;144.44;17;-16.67;-7.53;98.1;12.40;69790;5135.312;-12821.650;212;-250;-239.6;71;70.6;-22;-21.7;29.1;0.0;
14/06/2019 10:21:13;100;0;146.11;17;-15.91;-6.54;99.7;12.30;69779;5135.312;-12821.650;212;-250;-239.6;71;70.5;-22;-21.2;29.2;0.0;
14/06/2019 10:21:33;100;0;142.34;17;-15.66;-6.49;101.4;12.20;69775;5135.312;-12821.650;212;-250;-239.6;71;70.6;-25;-24.8;29.2;0.0;
14/06/2019 10:21:53;100;0;142.20;17;-15.28;-8.45;102.9;12.20;69765;5135.312;-12821.650;212;-250;-241.6;71;70.5;-25;-25.3;29.2;0.0;
14/06/2019 10:22:13;100;0;144.18;17;-15.44;-8.56;104.3;12.10;69758;5135.312;-12821.650;212;-250;-239.6;71;70.5;-24;-23.9;29.1;0.0;
14/06/2019 10:22:33;100;0;144.07;17;-15.23;-7.63;105.8;12.10;69748;5135.312;-12821.650;212;-250;-239.6;71;70.5;-24;-23.5;29.2;0.0;
14/06/2019 10:22:53;100;0;143.80;17;-15.21;-7.62;107.1;12.00;69731;5135.312;-12821.650;212;-250;-239.6;71;70.5;-25;-24.8;29.2;0.0;
14/06/2019 10:23:13;100;0;143.12;17;-15.38;-8.52;108.5;12.00;69725;5135.312;-12821.650;212;-250;-241.6;71;70.5;-25;-25.3;29.2;0.0;
14/06/2019 10:23:33;100;0;144.74;17;-15.32;-8.61;109.9;11.90;69726;5135.312;-12821.650;212;-250;-239.6;71;70.5;-24;-23.9;29.1;0.0;
14/06/2019 10:23:53;100;0;147.45;17;-15.31;-7.68;111.2;11.80;69706;5135.312;-12821.650;212;-250;-241.6;71;70.6;-23;-23.0;29.2;0.0;
14/06/2019 10:24:13;100;0;149.14;17;-15.11;-7.20;112.5;11.80;69696;5135.312;-12821.650;212;-250;-239.6;71;70.5;-22;-22.1;29.2;0.0;
14/06/2019 10:24:33;100;0;149.41;17;-14.90;-6.88;113.8;11.80;69698;5135.312;-12821.650;212;-250;-239.6;71;70.6;-23;-23.0;29.2;0.0;
14/06/2019 10:24:53;100;0;150.65;17;-15.11;-7.65;115.3;11.70;69693;5135.312;-12821.650;212;-250;-241.6;71;70.5;-23;-23.5;29.2;0.0;
14/06/2019 10:25:13;100;0;149.18;17;-15.10;-7.58;116.8;11.70;69691;5135.312;-12821.650;212;-250;-239.6;71;70.5;-24;-23.9;29.2;0.0;
14/06/2019 10:25:33;100;0;148.51;17;-14.95;-8.14;118.1;11.60;69680;5135.312;-12821.650;212;-250;-239.6;71;70.5;-24;-24.4;29.1;0.0;
14/06/2019 10:25:53;100;0;147.07;17;-15.08;-8.12;119.5;11.50;69671;5135.312;-12821.650;212;-250;-239.6;71;70.6;-24;-24.4;29.1;0.0;
14/06/2019 10:26:13;100;0;149.14;17;-14.79;-8.18;120.9;11.50;69672;5135.312;-12821.650;212;-250;-239.6;71;70.5;-23;-22.6;29.2;0.0;
14/06/2019 10:26:33;100;0;151.94;17;-14.59;-7.00;122.3;11.50;69665;5135.312;-12821.650;212;-250;-241.6;71;70.5;-22;-22.1;29.2;44.8;
14/06/2019 10:26:53;100;0;153.30;17;-14.64;-6.96;123.6;11.40;69661;5135.312;-12821.650;212;-250;-241.6;71;70.6;-21;-20.8;29.1;43.4;
14/06/2019 10:27:13;100;0;155.26;17;-14.43;-6.07;125.1;11.40;69652;5135.312;-12821.650;212;-250;-239.6;71;70.5;-21;-19.9;29.1;41.7;
14/06/2019 10:27:33;100;0;157.25;17;-14.37;-6.07;126.5;11.30;69644;5135.312;-12821.650;212;-250;-239.6;71;70.5;-20;-19.9;29.2;40.4;
14/06/2019 10:27:53;100;0;158.92;17;-14.55;-6.12;127.8;11.30;69635;5135.312;-12821.650;212;-250;-239.6;71;70.5;-21;-21.2;29.1;39.1;
14/06/2019 10:28:13;100;0;161.89;17;-14.64;-7.06;129.1;11.20;69633;5135.312;-12821.650;212;-250;-239.6;71;70.5;-19;-19.0;29.2;37.7;
14/06/2019 10:28:33;100;0;165.31;17;-14.07;-5.20;130.4;11.20;69633;5135.312;-12821.650;212;-250;-239.6;71;70.5;-18;-18.1;29.2;36.3;
14/06/2019 10:28:54;100;0;163.17;17;-13.98;-5.07;131.7;11.20;69618;5135.312;-12821.650;212;-250;-239.6;71;70.5;-20;-19.9;29.2;34.9;
14/06/2019 10:29:14;100;0;163.35;17;-14.09;-6.26;133.0;11.10;69614;5135.312;-12821.650;212;-250;-239.6;71;70.5;-20;-20.3;29.2;33.8;
14/06/2019 10:29:34;100;0;160.67;17;-13.89;-6.16;134.2;11.10;69600;5135.312;-12821.650;212;-250;-239.6;71;70.6;-22;-22.1;29.2;32.4;
14/06/2019 10:29:54;100;0;159.81;17;-13.88;-7.34;135.5;11.00;69589;5135.312;-12821.650;212;-250;-239.6;71;70.5;-22;-22.6;29.2;31.2;
14/06/2019 10:30:14;100;0;159.53;17;-13.96;-7.36;136.7;11.00;69588;5135.312;-12821.650;212;-250;-239.6;71;70.5;-22;-22.6;29.2;29.8;
14/06/2019 10:30:34;100;0;159.02;17;-13.84;-7.32;138.0;10.90;69577;5135.312;-12821.650;212;-250;-239.6;71;70.5;-22;-22.6;29.1;28.7;
14/06/2019 10:30:54;100;0;160.47;17;-13.75;-7.39;139.3;10.90;69570;5135.312;-12821.650;212;-250;-239.6;71;70.5;-21;-21.2;29.2;27.3;
14/06/2019 10:31:14;100;0;160.71;17;-13.79;-6.46;140.5;10.80;69564;5135.312;-12821.650;212;-250;-239.6;71;70.5;-21;-20.8;29.2;26.0;
14/06/2019 10:31:34;100;0;160.92;17;-13.70;-6.50;141.8;10.80;69561;5135.312;-12821.650;212;-250;-237.6;71;70.5;-21;-20.8;29.2;24.6;
14/06/2019 10:31:54;100;0;160.57;17;-13.65;-6.43;143.1;10.80;69555;5135.312;-12821.650;212;-250;-239.6;71;70.5;-21;-20.8;29.1;23.3;
14/06/2019 10:32:14;100;0;161.69;17;-13.78;-6.49;144.3;10.70;69561;5135.312;-12821.650;212;-250;-239.6;71;70.6;-21;-20.8;29.2;22.0;
14/06/2019 10:32:34;100;0;162.50;17;-13.70;-6.45;145.7;10.70;69543;5135.312;-12821.650;212;-250;-239.6;71;70.5;-20;-19.4;29.1;20.6;
14/06/2019 10:32:54;100;0;162.77;17;-13.71;-5.57;146.9;10.60;69546;5135.312;-12821.650;212;-250;-239.6;71;70.5;-21;-21.2;29.2;19.2;
14/06/2019 10:33:14;118;0;163.21;17;-13.70;-7.01;148.1;10.60;69545;5135.312;-12821.650;212;150;-227.7;54;53.7;0;0.5;29.1;17.9;
14/06/2019 10:33:24;118;0;135.70;17;12.62;4.12;148.6;10.60;69455;5135.312;-12821.650;212;150;-67.3;54;54.1;0;0.9;28.6;17.9;
14/06/2019 10:33:34;118;0;136.74;17;30.50;3.36;148.3;10.60;69248;5135.312;-12821.650;212;150;87.1;54;54.1;0;0.5;28.7;-1.0;
14/06/2019 10:33:44;118;0;136.78;17;30.46;3.65;147.2;10.60;68989;5135.312;-12821.650;212;150;156.4;54;54.2;0;0.9;28.7;-1.0;
14/06/2019 10:33:54;118;0;173.46;17;31.89;3.64;145.6;10.60;68899;5135.312;-12821.650;212;150;156.4;54;54.2;0;0.5;29.2;-1.0;
14/06/2019 10:34:04;117;0;173.20;17;33.46;3.53;143.5;10.60;68905;5135.312;-12821.650;212;150;156.4;54;54.1;0;0.5;29.2;-1.0;
14/06/2019 10:34:24;117;0;173.45;17;33.60;3.83;138.5;10.50;68904;5135.312;-12821.650;212;150;156.4;54;54.1;14;14.0;29.2;-1.0;
14/06/2019 10:34:44;117;0;184.49;17;34.16;10.96;132.6;10.50;68890;5135.312;-12821.650;212;150;156.4;54;54.1;11;10.8;29.1;-1.0;
14/06/2019 10:35:04;117;0;184.44;17;33.68;8.35;127.1;10.50;68903;5135.312;-12821.650;212;150;156.4;54;54.1;14;14.0;29.1;-1.0;
14/06/2019 10:35:24;117;0;181.19;17;33.36;10.66;121.6;10.40;68914;5135.312;-12821.650;212;150;158.4;54;54.1;17;17.1;29.1;-1.0;
14/06/2019 10:35:44;117;0;188.78;17;32.06;12.18;116.3;10.40;68914;5135.312;-12821.650;212;150;156.4;54;54.2;13;13.1;29.1;-1.0;
14/06/2019 10:36:04;117;0;190.77;17;32.05;9.34;111.3;10.40;68924;5135.312;-12821.650;212;150;158.4;54;54.2;13;12.2;29.1;-1.0;
14/06/2019 10:36:24;117;0;196.63;17;31.97;9.27;106.2;10.30;68918;5135.312;-12821.650;212;150;156.4;54;54.2;13;12.2;29.1;-1.0;
14/06/2019 10:36:44;117;0;200.88;17;31.49;9.21;101.4;10.30;68929;5135.312;-12821.650;212;150;156.4;54;54.1;10;9.5;29.1;-1.0;
14/06/2019 10:37:04;117;0;198.26;17;30.91;7.72;96.7;10.30;68941;5135.312;-12821.650;212;150;156.4;54;54.1;13;13.1;29.2;-1.0;
14/06/2019 10:37:24;117;0;201.68;17;31.16;10.39;92.2;10.30;68948;5135.312;-12821.650;212;150;156.4;54;54.1;11;10.8;29.1;-1.0;
14/06/2019 10:37:44;117;0;203.71;17;29.77;8.46;87.7;10.30;68965;5135.312;-12821.650;212;150;156.4;54;54.1;10;9.9;29.1;-1.0;
14/06/2019 10:38:04;117;0;205.02;17;28.85;7.53;83.8;10.20;68965;5135.312;-12821.650;212;150;156.4;54;54.1;10;9.0;29.1;-1.0;
14/06/2019 10:38:24;117;0;202.55;17;28.59;7.77;80.0;10.20;68979;5135.312;-12821.650;212;150;158.4;54;54.2;12;12.2;29.2;-1.0;
14/06/2019 10:38:44;117;0;201.74;17;28.74;9.32;76.5;10.20;68981;5135.312;-12821.650;212;150;158.4;54;54.1;12;12.6;29.2;-1.0;
14/06/2019 10:39:04;117;0;200.04;17;28.08;9.58;73.0;10.20;68989;5135.312;-12821.650;212;150;156.4;54;54.1;12;12.6;29.1;-1.0;
14/06/2019 10:39:24;117;0;200.39;17;27.67;9.60;69.7;10.20;68995;5135.312;-12821.650;212;150;156.4;54;54.1;12;12.6;29.2;-1.0;
14/06/2019 10:39:44;117;0;210.11;17;27.91;9.68;66.3;10.20;69004;5135.312;-12821.650;212;150;158.4;54;54.1;5;5.0;29.1;-1.0;
14/06/2019 10:40:04;117;0;215.02;17;27.55;5.27;62.6;10.20;69009;5135.312;-12821.650;212;150;156.4;54;54.1;3;3.2;29.2;-1.0;
14/06/2019 10:40:24;117;0;215.51;17;27.52;4.49;59.2;10.20;69020;5135.312;-12821.650;212;150;156.4;54;54.1;5;5.4;29.1;-1.0;
14/06/2019 10:40:44;117;0;215.68;17;26.64;6.27;55.8;10.20;69018;5135.312;-12821.650;212;150;158.4;54;54.1;5;5.9;29.2;-1.0;
14/06/2019 10:41:04;117;0;211.05;17;26.94;6.54;52.7;10.20;69025;5135.312;-12821.650;212;150;158.4;54;54.1;7;7.2;29.2;-1.0;
14/06/2019 10:41:24;117;0;215.75;17;26.27;7.23;49.4;10.20;69037;5135.312;-12821.650;212;150;158.4;54;54.2;4;3.6;29.2;-1.0;
14/06/2019 10:41:44;117;0;214.38;17;25.97;4.87;46.3;10.20;69050;5135.312;-12821.650;212;150;158.4;54;54.1;4;3.2;29.2;-1.0;
14/06/2019 10:42:04;117;0;214.87;17;26.40;4.82;43.5;10.20;69053;5135.312;-12821.650;212;150;158.4;54;54.1;4;3.2;29.1;-1.0;
14/06/2019 10:42:24;117;0;216.09;17;25.93;4.78;40.6;10.20;69064;5135.312;-12821.650;212;150;156.4;54;54.1;2;1.8;29.2;-1.0;
14/06/2019 10:42:44;117;0;216.02;17;25.67;3.83;37.9;10.20;69075;5135.312;-12821.650;212;150;158.4;54;54.2;2;1.4;29.1;-1.0;
14/06/2019 10:43:04;117;0;212.84;17;25.67;4.06;35.1;10.20;69106;5135.312;-12821.650;212;150;158.4;54;54.1;4;4.1;29.1;-1.0;
14/06/2019 10:43:24;117;0;212.03;17;24.75;5.71;32.5;10.20;69113;5135.312;-12821.650;212;150;158.4;54;54.1;2;1.4;29.2;-1.0;
14/06/2019 10:43:44;117;0;213.19;17;24.52;3.76;30.1;10.20;69132;5135.312;-12821.650;212;150;158.4;54;54.2;1;0.9;29.2;-1.0;
14/06/2019 10:44:04;117;0;214.64;17;24.65;3.68;27.6;10.20;69164;5135.312;-12821.650;212;150;156.4;54;54.2;0;-0.5;29.2;-1.0;
14/06/2019 10:44:24;117;0;217.57;17;23.82;2.87;25.0;10.20;69208;5135.312;-12821.650;212;150;158.4;54;54.2;-1;-0.9;29.2;-1.0;
14/06/2019 10:44:44;117;0;215.09;17;23.74;2.66;22.6;10.30;69234;5135.312;-12821.650;212;150;158.4;54;54.2;0;0.5;29.2;-1.0;
14/06/2019 10:45:04;117;0;212.67;17;23.19;3.57;20.2;10.30;69267;5135.312;-12821.650;212;150;158.4;54;54.1;0;0.9;29.2;-1.0;
14/06/2019 10:45:24;117;0;220.49;17;23.86;3.74;17.9;10.30;69290;5135.312;-12821.650;212;150;158.4;54;54.1;-5;-5.4;29.2;-1.0;
14/06/2019 10:45:44;117;0;224.51;17;23.42;0.81;15.5;10.40;69313;5135.312;-12821.650;212;150;158.4;54;54.2;-7;-7.2;29.2;-1.0;
14/06/2019 10:46:04;117;0;227.35;17;23.32;-0.45;13.2;10.40;69328;5135.312;-12821.650;212;150;158.4;54;54.1;-8;-8.1;29.2;-1.0;
14/06/2019 10:46:24;117;0;220.03;17;24.01;-0.63;10.8;10.40;69356;5135.312;-12821.650;212;150;158.4;54;54.2;-3;-3.2;29.1;-1.0;
