Timestamp;NavState;SecurityLevel;Heading;Declination;Pitch;Roll;Depth;Temperature;Pa;Lat;Lon;DesiredH;BallastCmd;BallastPos;LinCmd;LinPos;AngCmd;AngPos;Voltage;Altitude;
16/06/2019 19:05:24;117;0;44.73;17;15.36;2.52;9.2;10.00;69383;5126.320;-12837.351;61;150;158.4;57;57.1;-1;-1.8;28.7;-1.0;
16/06/2019 19:05:34;115;0;44.19;17;15.49;2.16;8.5;10.10;69399;5126.320;-12837.351;61;500;170.3;100;100.1;0;0.9;28.6;-1.0;
16/06/2019 19:05:44;115;0;56.86;17;-27.13;4.75;8.0;10.10;69321;5126.320;-12837.351;61;500;318.8;100;100.1;0;0.9;28.3;-1.0;
16/06/2019 19:05:54;115;0;44.97;17;-68.13;3.93;8.4;10.10;69128;5126.320;-12837.351;61;500;469.3;100;100.1;0;0.9;28.3;-1.0;
16/06/2019 19:06:04;115;0;42.48;17;-57.26;2.19;7.1;10.20;68884;5126.320;-12837.351;61;500;505.0;100;100.1;0;0.9;28.3;-1.0;
16/06/2019 19:06:14;115;0;37.58;17;-32.87;3.37;4.2;10.20;68855;5126.320;-12837.351;61;500;506.9;100;100.1;0;0.9;28.7;-1.0;
16/06/2019 19:06:24;116;0;71.42;17;-44.59;-1.54;1.6;10.30;68873;5126.320;-12837.351;61;500;508.9;100;100.0;0;0.9;28.6;-1.0;
16/06/2019 19:06:44;116;0;131.66;17;-9.77;2.27;1.4;10.30;68913;5126.320;-12837.351;61;500;508.9;100;100.0;0;0.9;28.6;-1.0;
16/06/2019 19:07:05;116;0;148.59;17;-20.83;1.59;1.5;10.50;68941;5126.858;-12836.003;61;500;506.9;100;100.0;0;0.9;28.6;-1.0;
16/06/2019 19:07:25;116;0;173.60;17;-18.51;4.57;1.5;10.60;68944;5126.865;-12835.994;62;500;508.9;100;100.0;0;0.9;28.6;-1.0;
16/06/2019 19:07:45;116;0;164.31;17;-17.97;3.69;1.5;10.70;68979;5126.866;-12835.981;62;500;508.9;100;100.0;0;0.9;28.6;-1.0;
16/06/2019 19:08:46;116;0;165.09;17;-14.47;2.72;1.5;11.20;69028;5126.867;-12835.979;62;500;510.9;100;100.0;0;0.9;28.6;-1.0;
16/06/2019 19:09:06;116;0;181.96;17;-21.44;3.76;1.5;11.40;69017;5126.866;-12835.979;62;500;508.9;100;100.0;0;0.9;28.6;-1.0;
16/06/2019 19:09:26;116;0;177.73;17;-20.27;1.72;1.5;11.50;69035;5126.861;-12835.973;62;500;508.9;100;100.0;0;0.9;28.7;-1.0;
16/06/2019 19:09:47;116;0;176.84;17;-16.19;4.09;1.5;11.70;69046;5126.860;-12835.972;62;500;508.9;100;100.0;0;0.9;28.6;-1.0;
16/06/2019 19:10:07;116;0;176.92;17;-19.33;4.58;1.5;11.90;69075;5126.848;-12835.954;62;500;508.9;100;100.0;0;0.9;28.6;-1.0;
16/06/2019 19:10:27;116;0;179.74;17;-21.30;5.42;1.5;12.10;69087;5126.830;-12835.950;62;500;508.9;100;100.0;0;0.9;28.6;-1.0;
16/06/2019 19:11:32;116;0;170.41;17;-11.92;4.79;1.4;12.70;69110;5126.830;-12835.950;62;500;508.9;100;100.0;0;0.9;28.6;-1.0;
16/06/2019 19:11:52;116;0;162.66;17;-8.46;2.18;1.4;12.90;69117;5126.830;-12835.950;62;500;508.9;100;100.0;0;0.9;28.5;-1.0;
16/06/2019 19:12:12;116;0;174.86;17;-13.17;2.09;1.5;13.10;69132;5126.831;-12835.947;62;500;508.9;100;100.0;0;0.9;28.6;-1.0;
16/06/2019 19:12:38;116;0;168.61;17;-14.97;2.23;1.5;13.20;69143;5126.831;-12835.947;62;500;508.9;100;100.0;0;0.9;28.6;-1.0;
16/06/2019 19:12:58;116;0;168.70;17;-24.40;6.26;1.5;13.30;69146;5126.831;-12835.947;62;500;508.9;100;100.1;0;0.9;28.6;-1.0;
16/06/2019 19:13:18;116;0;179.33;17;-7.44;2.47;1.4;13.50;69159;5126.851;-12835.947;62;500;506.9;100;100.0;0;0.9;28.6;-1.0;
16/06/2019 19:13:38;116;0;152.62;17;-9.98;1.76;1.4;13.70;69159;5126.861;-12835.950;62;500;508.9;100;100.0;0;0.9;28.6;-1.0;
16/06/2019 19:13:58;110;0;157.83;17;-10.96;4.85;1.4;13.80;69161;5126.861;-12835.950;62;-300;407.9;100;100.0;0;0.9;28.6;-1.0;
16/06/2019 19:14:08;110;0;153.09;17;-14.52;2.73;1.4;13.80;69405;5126.861;-12835.950;62;-300;265.3;100;100.0;0;0.9;28.5;-1.0;
16/06/2019 19:14:18;110;0;152.67;17;-24.75;4.32;1.5;13.90;69599;5126.861;-12835.950;62;-300;112.9;100;100.0;0;0.9;28.6;-1.0;
16/06/2019 19:14:28;110;0;159.32;17;-44.81;7.36;2.1;13.90;69851;5126.861;-12835.950;62;-300;-61.4;100;100.1;0;0.9;28.5;-1.0;
16/06/2019 19:14:38;110;0;158.14;17;-66.12;1.96;3.0;13.90;70139;5126.861;-12835.950;62;-300;-257.4;94;93.9;0;0.9;28.5;-1.0;
16/06/2019 19:14:48;110;0;188.52;17;-57.28;1.72;4.4;14.00;70463;5126.861;-12835.950;62;-300;-301.0;77;76.9;0;0.9;28.5;-1.0;
16/06/2019 19:14:58;110;0;195.18;17;-42.87;4.01;6.8;14.00;70492;5126.861;-12835.950;62;-300;-301.0;73;73.0;0;0.9;28.6;-1.0;
16/06/2019 19:15:08;100;0;187.20;17;-33.17;3.87;9.4;14.00;70479;5126.861;-12835.950;62;-300;-299.0;73;73.0;0;0.9;28.7;-1.0;
16/06/2019 19:15:28;100;0;186.26;17;-27.18;4.03;13.9;14.00;70450;5126.861;-12835.950;62;-300;-295.0;73;73.0;45;45.1;28.6;0.0;
16/06/2019 19:15:48;100;0;175.90;17;-24.21;25.06;18.5;14.00;70412;5126.861;-12835.950;62;-300;-297.0;73;73.0;45;46.0;28.6;0.0;
16/06/2019 19:16:08;100;0;153.37;17;-23.06;25.80;22.3;13.90;70373;5126.861;-12835.950;62;-300;-297.0;73;73.0;39;38.8;28.6;0.0;
16/06/2019 19:16:28;100;0;140.12;17;-23.66;21.31;25.8;13.90;70327;5126.861;-12835.950;62;-300;-295.0;73;72.9;30;29.8;28.6;0.0;
16/06/2019 19:16:48;100;0;125.79;17;-23.66;16.67;29.4;13.80;70271;5126.861;-12835.950;62;-300;-297.0;73;72.9;23;23.0;28.6;0.0;
16/06/2019 19:17:08;100;0;117.34;17;-24.41;13.43;32.9;13.70;70235;5126.861;-12835.950;62;-300;-297.0;73;73.0;22;22.1;28.6;0.0;
16/06/2019 19:17:28;100;0;101.33;17;-23.65;13.72;36.4;13.70;70196;5126.861;-12835.950;62;-300;-295.0;73;73.0;16;15.8;28.7;0.0;
16/06/2019 19:17:48;100;0;92.89;17;-23.75;10.19;39.8;13.60;70155;5126.861;-12835.950;62;-300;-295.0;73;72.9;16;15.3;28.6;0.0;
16/06/2019 19:18:08;100;0;81.67;17;-23.69;10.11;43.2;13.50;70114;5126.861;-12835.950;62;-300;-295.0;73;73.0;14;14.0;28.6;0.0;
16/06/2019 19:18:28;100;0;71.08;17;-23.95;9.35;46.7;13.50;70083;5126.861;-12835.950;62;-300;-293.1;73;72.9;12;12.2;28.6;0.0;
16/06/2019 19:18:48;100;0;52.64;17;-24.21;8.73;50.0;13.40;70062;5126.861;-12835.950;62;-300;-295.0;73;72.9;5;4.5;28.7;0.0;
16/06/2019 19:19:08;100;0;46.21;17;-24.12;4.91;53.6;13.30;70027;5126.861;-12835.950;62;-300;-293.1;73;72.9;7;7.2;28.6;0.0;
16/06/2019 19:19:28;100;0;34.85;17;-23.95;6.96;57.1;13.30;70025;5126.861;-12835.950;62;-300;-297.0;73;72.9;7;8.1;28.7;0.0;
16/06/2019 19:19:48;100;0;32.28;17;-23.95;6.91;60.8;13.20;69999;5126.861;-12835.950;62;-300;-293.1;73;72.9;6;5.4;28.6;0.0;
16/06/2019 19:20:08;100;0;30.51;17;-24.01;5.58;64.3;13.10;69976;5126.861;-12835.950;62;-300;-293.1;73;73.0;7;7.7;28.7;0.0;
16/06/2019 19:20:28;100;0;18.33;17;-22.78;6.87;67.9;13.10;69963;5126.861;-12835.950;62;-300;-295.0;73;72.9;1;0.9;28.7;0.0;
16/06/2019 19:20:48;100;0;8.75;17;-22.99;3.23;71.2;13.00;69937;5126.861;-12835.950;62;-300;-295.0;73;72.9;-1;-0.9;28.7;0.0;
16/06/2019 19:21:08;100;0;5.80;17;-22.93;2.48;74.5;12.90;69923;5126.861;-12835.950;62;-300;-293.1;73;72.9;0;0.0;28.6;0.0;
16/06/2019 19:21:28;100;0;359.90;17;-22.62;3.69;77.7;12.80;69903;5126.861;-12835.950;62;-300;-295.0;73;72.9;-3;-3.2;28.7;0.0;
16/06/2019 19:21:48;100;0;1.10;17;-22.99;1.65;80.8;12.80;69883;5126.861;-12835.950;62;-300;-295.0;73;72.9;0;0.0;28.6;0.0;
16/06/2019 19:22:08;100;0;357.17;17;-22.75;3.58;83.8;12.70;69874;5126.861;-12835.950;62;-300;-295.0;73;72.9;-4;-4.5;28.7;0.0;
16/06/2019 19:22:28;100;0;354.16;17;-22.89;1.01;86.7;12.70;69868;5126.861;-12835.950;62;-300;-293.1;73;72.9;-6;-6.3;28.7;0.0;
16/06/2019 19:22:48;100;0;350.82;17;-22.97;0.21;89.6;12.60;69863;5126.861;-12835.950;62;-300;-295.0;73;72.9;-10;-9.9;28.7;0.0;
16/06/2019 19:23:08;100;0;347.07;17;-22.89;-1.64;92.6;12.50;69847;5126.861;-12835.950;62;-300;-295.0;73;72.9;-12;-12.2;28.7;0.0;
16/06/2019 19:23:28;100;0;346.46;17;-22.69;-2.63;95.6;12.50;69835;5126.861;-12835.950;62;-300;-293.1;73;72.9;-14;-14.0;28.7;0.0;
16/06/2019 19:23:48;100;0;350.14;17;-22.46;-3.52;98.7;12.40;69838;5126.861;-12835.950;62;-300;-293.1;73;72.9;-13;-13.1;28.7;0.0;
16/06/2019 19:24:08;100;0;344.77;17;-22.34;-2.27;101.8;12.40;69819;5126.861;-12835.950;62;-300;-295.0;73;72.9;-19;-19.0;28.7;0.0;
16/06/2019 19:24:28;100;0;347.41;17;-22.04;-5.45;104.5;12.30;69810;5126.861;-12835.950;62;-300;-295.0;73;72.9;-19;-19.4;28.7;0.0;
16/06/2019 19:24:48;100;0;352.05;17;-22.29;-5.33;107.3;12.20;69797;5126.861;-12835.950;62;-300;-295.0;73;72.9;-18;-18.1;28.6;0.0;
16/06/2019 19:25:08;100;0;353.09;17;-22.52;-4.61;110.1;12.20;69791;5126.861;-12835.950;62;-300;-293.1;73;73.0;-21;-21.2;28.6;0.0;
16/06/2019 19:25:28;100;0;348.46;17;-21.64;-6.56;113.0;12.10;69783;5126.861;-12835.950;62;-300;-293.1;73;72.9;-26;-26.2;28.7;0.0;
16/06/2019 19:25:48;100;0;346.76;17;-21.39;-8.96;115.8;12.10;69769;5126.861;-12835.950;62;-300;-293.1;73;72.9;-27;-27.5;28.7;0.0;
16/06/2019 19:26:08;100;0;344.22;17;-21.16;-9.52;118.6;12.00;69764;5126.861;-12835.950;62;-300;-293.1;73;72.9;-28;-28.0;28.7;0.0;
16/06/2019 19:26:28;100;0;347.96;17;-21.29;-9.90;121.1;12.00;69749;5126.861;-12835.950;62;-300;-293.1;73;72.9;-25;-24.8;28.7;0.0;
16/06/2019 19:26:48;100;0;352.22;17;-21.15;-7.77;123.6;11.90;69746;5126.861;-12835.950;62;-300;-293.1;73;72.9;-23;-23.0;28.6;0.0;
16/06/2019 19:27:08;100;0;355.28;17;-20.79;-6.81;126.4;11.90;69737;5126.861;-12835.950;62;-300;-293.1;73;72.9;-22;-22.1;28.7;0.0;
16/06/2019 19:27:28;100;0;353.48;17;-20.38;-6.89;129.0;11.80;69727;5126.861;-12835.950;62;-300;-293.1;73;72.9;-24;-23.9;28.7;0.0;
16/06/2019 19:27:48;100;0;348.49;17;-20.62;-7.91;131.5;11.80;69713;5126.861;-12835.950;62;-300;-293.1;73;72.9;-27;-27.5;28.6;0.0;
16/06/2019 19:28:08;100;0;347.39;17;-20.77;-9.62;133.8;11.70;69711;5126.861;-12835.950;62;-300;-293.1;73;72.9;-27;-28.0;28.6;0.0;
16/06/2019 19:28:28;100;0;343.89;17;-20.88;-9.65;136.1;11.70;69700;5126.861;-12835.950;62;-300;-293.1;73;72.7;-29;-28.9;28.7;0.0;
16/06/2019 19:28:48;100;0;345.62;17;-19.90;-10.34;138.5;11.60;69678;5126.861;-12835.950;62;-300;-291.1;73;72.9;-27;-27.1;28.7;0.0;
16/06/2019 19:29:08;100;0;345.43;17;-19.53;-9.00;140.7;11.50;69654;5126.861;-12835.950;62;-300;-291.1;73;72.9;-26;-26.2;28.7;0.0;
16/06/2019 19:29:28;100;0;350.91;17;-18.98;-9.13;142.9;11.50;69641;5126.861;-12835.950;62;-300;-293.1;73;72.9;-24;-23.5;28.6;0.0;
16/06/2019 19:29:48;100;0;355.82;17;-19.34;-7.18;145.0;11.40;69633;5126.861;-12835.950;62;-300;-293.1;73;72.9;-22;-21.7;28.6;0.0;
16/06/2019 19:30:08;100;0;0.11;17;-18.20;-6.12;147.2;11.40;69619;5126.861;-12835.950;62;-300;-293.1;73;72.9;-20;-19.9;28.7;0.0;
16/06/2019 19:30:28;100;0;1.51;17;-19.67;-5.49;149.3;11.30;69594;5126.861;-12835.950;62;-300;-293.1;73;72.9;-21;-21.2;28.7;0.0;
16/06/2019 19:30:48;100;0;4.97;17;-19.11;-6.93;151.3;11.30;69603;5126.861;-12835.950;62;-300;-293.1;73;72.9;-20;-19.9;28.6;0.0;
16/06/2019 19:31:08;100;0;6.18;17;-19.03;-5.31;153.3;11.20;69594;5126.861;-12835.950;62;-300;-293.1;73;72.9;-20;-19.0;28.6;0.0;
16/06/2019 19:31:28;100;0;6.03;17;-19.49;-5.40;155.2;11.20;69575;5126.861;-12835.950;62;-300;-291.1;73;72.9;-21;-21.2;28.6;0.0;
16/06/2019 19:31:48;100;0;5.95;17;-19.32;-6.79;157.2;11.10;69565;5126.861;-12835.950;62;-300;-293.1;73;72.9;-22;-22.1;28.6;0.0;
16/06/2019 19:32:08;100;0;7.22;17;-19.25;-7.09;159.2;11.10;69560;5126.861;-12835.950;62;-300;-291.1;73;72.9;-21;-21.2;28.6;0.0;
16/06/2019 19:32:28;100;0;6.56;17;-19.13;-6.11;161.2;11.00;69550;5126.861;-12835.950;62;-300;-293.1;73;72.9;-22;-22.1;28.7;0.0;
16/06/2019 19:32:48;100;0;6.95;17;-19.24;-7.16;163.1;11.00;69545;5126.861;-12835.950;62;-300;-291.1;73;72.9;-22;-22.6;28.6;0.0;
16/06/2019 19:33:08;100;0;6.82;17;-19.30;-7.31;165.0;10.90;69538;5126.861;-12835.950;62;-300;-293.1;73;72.9;-22;-22.6;28.7;0.0;
16/06/2019 19:33:28;100;0;6.97;17;-19.09;-7.18;167.1;10.80;69519;5126.861;-12835.950;62;-300;-291.1;73;72.9;-22;-22.6;28.6;43.5;
16/06/2019 19:33:48;100;0;7.67;17;-19.05;-7.24;169.0;10.80;69521;5126.861;-12835.950;62;-300;-293.1;73;72.9;-22;-22.6;28.6;41.4;
16/06/2019 19:34:08;100;0;8.17;17;-19.06;-7.17;170.9;10.70;69514;5126.861;-12835.950;62;-300;-291.1;73;72.9;-21;-21.2;28.6;39.4;
16/06/2019 19:34:28;100;0;8.75;17;-18.98;-6.13;172.9;10.70;69511;5126.861;-12835.950;62;-300;-293.1;73;72.9;-21;-20.3;28.6;37.4;
16/06/2019 19:34:48;100;0;9.88;17;-18.95;-6.20;175.0;10.60;69499;5126.861;-12835.950;62;-300;-293.1;73;72.9;-21;-20.3;28.6;35.2;
16/06/2019 19:35:08;100;0;10.84;17;-18.83;-6.08;177.0;10.60;69485;5126.861;-12835.950;62;-300;-293.1;73;72.9;-21;-20.3;28.6;33.1;
16/06/2019 19:35:28;100;0;11.75;17;-19.00;-6.20;179.0;10.60;69493;5126.861;-12835.950;62;-300;-295.0;73;72.7;-20;-19.4;28.6;31.0;
16/06/2019 19:35:48;100;0;11.72;17;-18.81;-5.23;181.0;10.50;69475;5126.861;-12835.950;62;-300;-293.1;73;72.9;-21;-21.2;28.7;28.9;
16/06/2019 19:36:08;100;0;13.93;17;-18.99;-6.70;183.0;10.40;69472;5126.861;-12835.950;62;-300;-293.1;73;72.9;-20;-19.9;28.6;26.8;
16/06/2019 19:36:28;100;0;13.55;17;-18.72;-5.53;185.1;10.40;69467;5126.861;-12835.950;62;-300;-293.1;73;72.9;-20;-19.0;28.7;24.6;
16/06/2019 19:36:48;100;0;14.04;17;-18.90;-5.49;187.0;10.40;69465;5126.861;-12835.950;62;-300;-293.1;73;72.9;-20;-19.4;28.6;22.5;
16/06/2019 19:37:08;100;0;14.01;17;-18.84;-5.49;189.0;10.30;69465;5126.861;-12835.950;62;-300;-293.1;73;72.9;-20;-19.0;28.6;20.4;
16/06/2019 19:37:28;100;0;14.17;17;-19.12;-5.44;191.1;10.30;69460;5126.861;-12835.950;62;-300;-293.1;73;72.9;-20;-19.4;28.6;18.4;
16/06/2019 19:37:48;118;0;15.82;17;-18.72;-5.52;193.1;10.20;69465;5126.861;-12835.950;62;150;-275.2;57;56.8;0;0.0;28.7;11.0;
16/06/2019 19:37:58;118;0;47.68;17;2.53;3.93;193.9;10.20;69374;5126.861;-12835.950;62;150;-118.8;57;57.2;0;0.5;28.0;11.0;
16/06/2019 19:38:08;118;0;45.76;17;19.64;3.44;193.5;10.20;69159;5126.861;-12835.950;62;150;35.6;57;57.2;0;0.5;28.0;-1.0;
16/06/2019 19:38:18;118;0;44.40;17;23.81;3.61;192.7;10.20;68907;5126.861;-12835.950;62;150;156.4;57;57.2;0;0.5;28.0;-1.0;
16/06/2019 19:38:28;118;0;9.98;17;24.56;3.42;191.4;10.20;68739;5126.861;-12835.950;62;150;154.5;57;57.2;0;0.5;28.6;-1.0;
16/06/2019 19:38:38;118;0;9.01;17;26.70;3.64;189.7;10.20;68743;5126.861;-12835.950;62;150;154.5;57;57.2;0;0.5;28.6;-1.0;
16/06/2019 19:38:48;117;0;8.48;17;27.64;3.71;187.8;10.20;68740;5126.861;-12835.950;62;150;156.4;57;57.2;0;0.5;28.6;-1.0;
16/06/2019 19:39:08;117;0;6.30;17;27.89;3.75;183.6;10.10;68731;5126.861;-12835.950;62;150;156.4;57;57.2;25;24.8;28.6;-1.0;
16/06/2019 19:39:28;117;0;12.23;17;27.56;15.85;178.7;10.10;68725;5126.861;-12835.950;62;150;156.4;57;57.2;20;19.9;28.6;-1.0;
16/06/2019 19:39:48;117;0;20.13;17;27.76;12.64;174.2;10.00;68722;5126.861;-12835.950;62;150;156.4;57;57.2;16;15.8;28.6;-1.0;
16/06/2019 19:40:08;117;0;23.84;17;27.86;10.63;169.8;10.00;68722;5126.861;-12835.950;62;150;156.4;57;57.2;16;15.3;28.6;-1.0;
16/06/2019 19:40:28;117;0;30.29;17;27.80;10.54;165.2;10.00;68727;5126.861;-12835.950;62;150;154.5;57;57.1;13;13.1;28.6;-1.0;
16/06/2019 19:40:48;117;0;40.48;17;27.81;9.18;160.7;9.90;68708;5126.861;-12835.950;62;150;156.4;57;57.1;10;9.9;28.6;-1.0;
16/06/2019 19:41:08;117;0;47.45;17;27.71;7.92;156.2;9.90;68717;5126.861;-12835.950;62;150;156.4;57;57.2;10;9.5;28.6;-1.0;
16/06/2019 19:41:28;117;0;53.44;17;27.48;7.71;151.7;9.90;68725;5126.861;-12835.950;62;150;156.4;57;57.2;8;8.1;28.6;-1.0;
16/06/2019 19:41:48;117;0;53.62;17;28.16;6.96;147.2;9.80;68719;5126.861;-12835.950;62;150;156.4;57;57.2;10;9.9;28.6;-1.0;
16/06/2019 19:42:09;117;0;48.78;17;28.79;8.43;142.4;9.80;68726;5126.861;-12835.950;62;150;156.4;57;57.2;14;14.0;28.6;-1.0;
16/06/2019 19:42:29;117;0;56.44;17;26.93;10.05;137.9;9.80;68739;5126.861;-12835.950;62;150;156.4;57;57.1;8;8.1;28.6;-1.0;
16/06/2019 19:42:49;117;0;66.85;17;25.24;6.81;134.1;9.70;68757;5126.861;-12835.950;62;150;158.4;57;57.2;3;2.7;28.6;-1.0;
16/06/2019 19:43:09;117;0;71.44;17;25.02;4.12;130.7;9.70;68768;5126.861;-12835.950;62;150;158.4;57;57.2;2;1.8;28.6;-1.0;
16/06/2019 19:43:29;117;0;62.81;17;25.78;3.85;127.1;9.70;68782;5126.861;-12835.950;62;150;156.4;57;57.1;9;9.0;28.6;-1.0;
16/06/2019 19:43:49;117;0;61.73;17;24.87;8.03;123.4;9.70;68803;5126.861;-12835.950;62;150;156.4;57;57.2;9;9.9;28.6;-1.0;
16/06/2019 19:44:09;117;0;65.41;17;24.08;7.85;119.9;9.70;68811;5126.861;-12835.950;62;150;158.4;57;57.2;5;5.0;28.6;-1.0;
16/06/2019 19:44:29;117;0;62.25;17;24.03;5.35;116.7;9.70;68813;5126.861;-12835.950;62;150;158.4;57;57.2;7;7.2;28.6;-1.0;
16/06/2019 19:44:49;117;0;61.53;17;23.58;7.09;113.7;9.70;68832;5126.861;-12835.950;62;150;156.4;57;57.1;6;5.9;28.6;-1.0;
16/06/2019 19:45:09;117;0;61.36;17;24.47;5.68;110.5;9.70;68829;5126.861;-12835.950;62;150;156.4;57;57.2;6;5.0;28.6;-1.0;
16/06/2019 19:45:29;117;0;64.45;17;23.33;5.54;107.0;9.70;68831;5126.861;-12835.950;62;150;156.4;57;57.1;3;3.2;28.6;-1.0;
16/06/2019 19:45:49;117;0;61.70;17;23.22;4.50;103.6;9.70;68838;5126.861;-12835.950;62;150;156.4;57;57.2;5;5.0;28.7;-1.0;
16/06/2019 19:46:09;117;0;60.70;17;23.00;5.82;100.3;9.70;68840;5126.861;-12835.950;62;150;156.4;57;57.2;4;4.1;28.6;-1.0;
16/06/2019 19:46:29;117;0;58.11;17;22.62;4.71;97.0;9.70;68849;5126.861;-12835.950;62;150;156.4;57;57.2;5;5.0;28.7;-1.0;
16/06/2019 19:46:49;117;0;60.49;17;22.09;5.99;94.1;9.60;68858;5126.861;-12835.950;62;150;158.4;57;57.2;2;1.8;28.6;-1.0;
16/06/2019 19:47:09;117;0;59.77;17;22.22;3.70;91.1;9.60;68858;5126.861;-12835.950;62;150;156.4;57;57.2;2;1.4;28.6;-1.0;
16/06/2019 19:47:29;117;0;64.95;17;21.70;3.60;88.1;9.60;68866;5126.861;-12835.950;62;150;158.4;57;57.2;0;0.0;28.6;-1.0;
16/06/2019 19:47:49;117;0;67.00;17;21.95;2.74;85.1;9.60;68866;5126.861;-12835.950;62;150;156.4;57;57.2;-2;-1.8;28.6;-1.0;
16/06/2019 19:48:09;117;0;70.78;17;21.77;2.00;82.1;9.60;68869;5126.861;-12835.950;62;150;156.4;57;57.1;-3;-3.2;28.6;-1.0;
16/06/2019 19:48:29;117;0;66.95;17;22.14;1.68;79.2;9.70;68884;5126.861;-12835.950;62;150;156.4;57;57.2;0;0.0;28.6;-1.0;
16/06/2019 19:48:49;117;0;63.76;17;21.54;3.47;76.3;9.60;68880;5126.861;-12835.950;62;150;156.4;57;57.1;0;0.5;28.6;-1.0;
16/06/2019 19:49:09;117;0;66.34;17;20.96;3.35;73.5;9.60;68891;5126.861;-12835.950;62;150;158.4;57;57.2;-2;-1.8;28.6;-1.0;
16/06/2019 19:49:29;117;0;60.67;17;21.04;2.15;70.9;9.60;68885;5126.861;-12835.950;62;150;156.4;57;57.2;0;0.0;28.6;-1.0;
16/06/2019 19:49:49;117;0;60.63;17;20.68;3.60;68.4;9.60;68891;5126.861;-12835.950;62;150;156.4;57;57.2;-1;-0.9;28.6;-1.0;
16/06/2019 19:50:09;117;0;67.79;17;20.24;2.43;65.9;9.70;68904;5126.861;-12835.950;62;150;156.4;57;57.2;-6;-5.9;28.6;-1.0;
16/06/2019 19:50:29;117;0;66.31;17;19.98;0.17;63.7;9.60;68910;5126.861;-12835.950;62;150;156.4;57;57.2;-5;-4.5;28.6;-1.0;
16/06/2019 19:50:49;117;0;60.62;17;19.34;1.37;61.5;9.70;68921;5126.861;-12835.950;62;150;156.4;57;57.2;-2;-1.4;28.6;-1.0;
16/06/2019 19:51:09;117;0;55.56;17;19.27;2.75;59.4;9.70;68923;5126.861;-12835.950;62;150;156.4;57;57.2;0;0.5;28.6;-1.0;
16/06/2019 19:51:29;117;0;49.09;17;19.44;3.48;57.2;9.70;68942;5126.861;-12835.950;62;150;158.4;57;57.2;1;0.9;28.7;-1.0;
16/06/2019 19:51:49;117;0;58.26;17;18.82;3.91;55.1;9.70;68953;5126.861;-12835.950;62;150;158.4;57;57.1;-6;-5.9;28.6;-1.0;
16/06/2019 19:52:09;117;0;61.45;17;19.36;0.37;52.8;9.70;68963;5126.861;-12835.950;62;150;156.4;57;57.2;-7;-7.2;28.6;-1.0;
16/06/2019 19:52:29;117;0;63.89;17;18.97;-0.60;50.6;9.70;68974;5126.861;-12835.950;62;150;158.4;57;57.2;-8;-8.1;28.7;-1.0;
16/06/2019 19:52:49;117;0;62.10;17;19.11;-0.32;48.3;9.70;68995;5126.861;-12835.950;62;150;156.4;57;57.2;-7;-6.8;28.6;-1.0;
16/06/2019 19:53:09;117;0;63.32;17;19.00;0.39;46.3;9.70;69005;5126.861;-12835.950;62;150;158.4;57;57.2;-8;-8.1;28.6;-1.0;
16/06/2019 19:53:29;117;0;61.16;17;18.86;-0.93;44.0;9.80;69009;5126.861;-12835.950;62;150;158.4;57;57.2;-8;-8.1;28.6;-1.0;
16/06/2019 19:53:49;117;0;54.16;17;18.71;-0.68;41.9;9.80;69009;5126.861;-12835.950;62;150;158.4;57;57.2;-4;-3.6;28.6;-1.0;
16/06/2019 19:54:09;117;0;48.99;17;18.65;1.94;39.7;9.80;69016;5126.861;-12835.950;62;150;158.4;57;57.2;-2;-1.8;28.6;-1.0;
16/06/2019 19:54:29;117;0;44.80;17;18.63;2.72;37.7;9.80;69021;5126.861;-12835.950;62;150;158.4;57;57.2;-2;-1.4;28.6;-1.0;
16/06/2019 19:54:49;117;0;44.82;17;18.22;2.81;35.5;9.80;69041;5126.861;-12835.950;62;150;158.4;57;57.2;-2;-1.4;28.6;-1.0;
16/06/2019 19:55:09;117;0;49.43;17;18.42;2.82;33.5;9.80;69049;5126.861;-12835.950;62;150;156.4;57;57.2;-7;-7.2;28.6;-1.0;
16/06/2019 19:55:29;117;0;36.85;17;17.99;-0.50;31.5;9.80;69055;5126.861;-12835.950;62;150;158.4;57;57.2;-7;-7.7;28.7;-1.0;
16/06/2019 19:55:49;117;0;29.61;17;17.97;-0.39;29.6;9.90;69090;5126.861;-12835.950;62;150;156.4;57;57.2;2;1.8;28.7;-1.0;
16/06/2019 19:56:09;117;0;26.86;17;17.03;4.67;27.9;9.90;69095;5126.861;-12835.950;62;150;158.4;57;57.2;2;2.3;28.6;-1.0;
16/06/2019 19:56:29;117;0;24.33;17;16.85;4.65;26.2;9.90;69124;5126.861;-12835.950;62;150;158.4;57;57.2;2;2.3;28.6;-1.0;
16/06/2019 19:56:49;117;0;22.69;17;16.62;4.67;24.6;9.90;69148;5126.861;-12835.950;62;150;158.4;57;57.2;3;3.2;28.6;-1.0;
16/06/2019 19:57:09;117;0;25.41;17;16.02;5.37;23.1;10.00;69165;5126.861;-12835.950;62;150;158.4;57;57.2;1;0.9;28.7;-1.0;
16/06/2019 19:57:29;117;0;30.97;17;16.46;3.69;21.5;10.00;69202;5126.861;-12835.950;62;150;156.4;57;57.2;-1;-0.9;28.7;-1.0;
16/06/2019 19:57:49;117;0;29.98;17;16.05;2.60;20.0;10.00;69219;5126.861;-12835.950;62;150;158.4;57;57.2;0;0.0;28.6;-1.0;
16/06/2019 19:58:09;117;0;26.59;17;15.96;4.06;18.6;10.10;69236;5126.861;-12835.950;62;150;158.4;57;57.2;3;3.2;28.6;-1.0;
16/06/2019 19:58:29;117;0;32.14;17;15.30;5.42;17.0;10.10;69265;5126.861;-12835.950;62;150;158.4;57;57.2;0;-0.5;28.6;-1.0;
16/06/2019 19:58:49;117;0;37.28;17;15.79;3.26;15.5;10.10;69300;5126.861;-12835.950;62;150;158.4;57;57.2;-1;-0.9;28.6;-1.0;
16/06/2019 19:59:09;117;0;37.55;17;15.54;3.07;14.0;10.20;69324;5126.861;-12835.950;62;150;156.4;57;57.2;0;0.5;28.7;-1.0;
16/06/2019 19:59:29;117;0;38.74;17;15.27;3.98;12.5;10.20;69336;5126.861;-12835.950;62;150;158.4;57;57.4;0;0.9;28.6;-1.0;
16/06/2019 19:59:49;117;0;41.16;17;15.39;3.77;11.0;10.30;69375;5126.861;-12835.950;62;150;156.4;57;57.2;0;0.9;28.6;-1.0;
16/06/2019 20:00:09;117;0;41.03;17;15.39;3.72;9.6;10.30;69401;5126.861;-12835.950;62;150;158.4;57;57.2;0;0.9;28.7;-1.0;
16/06/2019 20:00:29;117;0;42.71;17;14.50;4.01;8.2;10.40;69422;5126.861;-12835.950;62;150;156.4;57;57.2;0;0.5;28.6;-1.0;
16/06/2019 20:00:49;117;0;38.43;17;15.69;3.71;6.7;10.40;69438;5126.861;-12835.950;62;150;160.4;57;57.2;3;3.2;28.6;-1.0;
16/06/2019 20:01:09;117;0;38.20;17;15.06;5.22;5.4;10.50;69458;5126.861;-12835.950;62;150;156.4;57;57.2;3;3.6;28.6;-1.0;
