Timestamp;NavState;SecurityLevel;Heading;Declination;Pitch;Roll;Depth;Temperature;Pa;Lat;Lon;DesiredH;BallastCmd;BallastPos;LinCmd;LinPos;AngCmd;AngPos;Voltage;Altitude;
16/06/2019 00:09:03;117;0;299.71;17;15.45;3.08;9.0;10.70;69531;5122.557;-12839.740;313;150;158.4;57;57.1;0;-0.9;28.8;-1.0;
16/06/2019 00:09:13;115;0;300.53;17;15.57;2.94;8.1;10.70;69549;5122.557;-12839.740;313;500;170.3;100;100.1;0;-0.9;28.8;-1.0;
16/06/2019 00:09:23;115;0;330.46;17;-23.70;3.65;7.5;10.70;69459;5122.557;-12839.740;313;500;320.8;100;100.1;0;-0.9;28.4;-1.0;
16/06/2019 00:09:33;115;0;324.67;17;-60.62;4.31;8.5;10.80;69274;5122.557;-12839.740;313;500;473.3;100;100.1;0;-0.9;28.5;-1.0;
16/06/2019 00:09:43;115;0;299.27;17;-58.94;3.39;7.6;10.80;69028;5122.557;-12839.740;313;500;505.0;100;100.0;0;-0.9;28.5;-1.0;
16/06/2019 00:09:53;115;0;263.12;17;-31.75;4.57;4.9;10.80;68998;5122.557;-12839.740;313;500;506.9;100;100.0;0;-0.9;28.8;-1.0;
16/06/2019 00:10:03;116;0;231.61;17;-72.05;3.39;2.0;10.90;69026;5122.557;-12839.740;313;500;505.0;100;100.1;0;-0.9;28.8;-1.0;
16/06/2019 00:10:23;116;0;165.68;17;-22.23;3.06;1.5;11.00;69043;5122.517;-12841.124;313;500;508.9;100;100.0;0;-0.9;28.8;-1.0;
16/06/2019 00:10:43;116;0;179.03;17;-8.88;0.93;1.3;11.10;69063;5122.515;-12841.124;313;500;506.9;100;99.9;0;-0.9;28.8;-1.0;
16/06/2019 00:11:04;116;0;176.88;17;-7.42;3.80;1.3;11.10;69078;5122.515;-12841.124;313;500;508.9;100;99.9;0;-0.9;28.8;-1.0;
16/06/2019 00:11:24;116;0;156.34;17;-11.67;3.56;1.3;11.20;69092;5122.514;-12841.124;339;500;506.9;100;99.9;0;-0.9;28.8;-1.0;
16/06/2019 00:11:44;116;0;169.33;17;-6.42;4.20;1.3;11.30;69104;5122.499;-12841.167;339;500;508.9;100;99.9;0;-0.9;28.8;-1.0;
16/06/2019 00:13:07;116;0;174.74;17;-11.46;1.07;1.4;12.00;69146;5122.496;-12841.168;339;500;508.9;100;99.9;0;-0.9;28.7;-1.0;
16/06/2019 00:13:27;116;0;164.00;17;-7.29;2.97;1.3;12.20;69157;5122.510;-12841.148;339;500;508.9;100;99.9;0;-0.9;28.8;-1.0;
16/06/2019 00:13:47;116;0;171.66;17;-8.31;5.05;1.3;12.30;69161;5122.509;-12841.163;339;500;508.9;100;99.9;0;-0.9;28.7;-1.0;
16/06/2019 00:14:31;116;0;159.66;17;-8.03;2.59;1.3;12.60;69180;5122.509;-12841.164;339;500;508.9;100;99.9;0;-0.9;28.8;-1.0;
16/06/2019 00:14:51;116;0;176.70;17;-5.97;1.26;1.4;12.70;69178;5122.509;-12841.164;339;500;506.9;100;99.9;0;-0.9;28.8;-1.0;
16/06/2019 00:15:11;116;0;176.01;17;-7.55;3.72;1.2;12.90;69199;5122.486;-12841.092;339;500;508.9;100;99.9;0;-0.9;28.6;-1.0;
16/06/2019 00:16:40;116;0;164.04;17;-10.10;-0.69;1.3;13.60;69227;5122.485;-12841.092;339;500;508.9;100;99.9;0;-0.9;28.8;-1.0;
16/06/2019 00:17:00;116;0;171.52;17;-11.09;0.28;1.4;13.70;69227;5122.477;-12841.109;339;500;508.9;100;99.9;0;-0.9;28.8;-1.0;
16/06/2019 00:17:20;116;0;166.17;17;-4.24;-0.72;1.3;13.80;69233;5122.472;-12841.114;339;500;508.9;100;99.9;0;-0.9;28.8;-1.0;
16/06/2019 00:18:16;116;0;157.37;17;-6.45;2.60;1.4;14.10;69244;5122.471;-12841.115;339;500;508.9;100;99.9;0;-0.9;28.8;-1.0;
16/06/2019 00:18:36;116;0;163.75;17;-15.08;2.94;1.3;14.30;69261;5122.469;-12841.117;339;500;508.9;100;99.9;0;-0.9;28.8;-1.0;
16/06/2019 00:18:56;116;0;172.57;17;-8.06;1.27;1.3;14.40;69255;5122.453;-12841.106;339;500;508.9;100;99.9;0;-0.9;28.8;-1.0;
16/06/2019 00:20:43;116;0;173.48;17;-6.29;2.88;1.3;15.00;69284;5122.452;-12841.106;339;500;508.9;100;99.9;0;-0.9;28.8;-1.0;
16/06/2019 00:21:03;116;0;174.34;17;-7.91;1.21;1.3;15.00;69288;5122.448;-12841.105;339;500;508.9;100;99.9;0;-0.9;28.8;-1.0;
16/06/2019 00:21:23;116;0;168.53;17;-10.54;4.85;1.3;15.10;69300;5122.448;-12841.105;339;500;506.9;100;99.9;0;-0.9;28.8;-1.0;
16/06/2019 00:21:43;116;0;155.15;17;-10.19;4.32;1.3;15.10;69303;5122.445;-12841.104;339;500;508.9;100;99.9;0;-0.9;28.8;-1.0;
16/06/2019 00:22:03;116;0;171.31;17;-6.05;1.97;1.3;15.20;69296;5122.443;-12841.102;339;500;508.9;100;99.9;0;-0.9;28.8;-1.0;
16/06/2019 00:22:23;116;0;160.06;17;-7.88;3.15;1.4;15.30;69307;5122.440;-12841.102;339;500;508.9;100;99.9;0;-0.9;28.8;-1.0;
16/06/2019 00:22:43;116;0;165.16;17;-8.21;4.19;1.3;15.30;69310;5122.438;-12841.101;339;500;508.9;100;99.9;0;-0.9;28.8;-1.0;
16/06/2019 00:23:03;110;0;167.77;17;-6.48;3.61;1.3;15.30;69315;5122.438;-12841.101;339;-300;405.9;100;99.9;0;-0.9;28.8;-1.0;
16/06/2019 00:23:13;110;0;148.07;17;-8.11;3.34;1.3;15.30;69552;5122.438;-12841.101;339;-300;263.4;100;99.9;0;-0.9;28.7;-1.0;
16/06/2019 00:23:23;110;0;154.56;17;-7.45;-0.09;1.3;15.40;69748;5122.438;-12841.101;339;-300;126.7;100;99.9;0;-0.9;28.7;-1.0;
16/06/2019 00:23:33;110;0;156.97;17;-5.37;1.50;1.3;15.40;69974;5122.438;-12841.101;339;-300;-17.8;100;99.9;0;-0.9;28.7;-1.0;
16/06/2019 00:23:43;110;0;152.27;17;-22.89;2.04;1.6;15.40;70210;5122.438;-12841.101;339;-300;-188.1;98;97.9;0;-0.9;28.7;-1.0;
16/06/2019 00:23:53;110;0;141.25;17;-55.32;4.95;2.9;15.40;70490;5122.438;-12841.101;339;-300;-301.0;83;83.0;0;-0.9;28.6;-1.0;
16/06/2019 00:24:03;110;0;164.72;17;-50.23;2.64;5.7;15.40;70654;5122.438;-12841.101;339;-300;-301.0;73;73.0;0;-0.9;28.8;-1.0;
16/06/2019 00:24:13;100;0;173.81;17;-37.63;3.77;8.9;15.40;70640;5122.438;-12841.101;339;-300;-301.0;73;72.9;0;-0.9;28.7;-1.0;
16/06/2019 00:24:33;100;0;176.72;17;-28.03;3.46;14.2;15.30;70609;5122.438;-12841.101;339;-300;-299.0;73;72.7;-45;-45.1;28.8;0.0;
16/06/2019 00:24:53;100;0;174.88;17;-27.95;-17.37;19.4;15.30;70567;5122.438;-12841.101;339;-300;-297.0;73;72.7;-45;-45.6;28.8;0.0;
16/06/2019 00:25:13;100;0;176.10;17;-27.71;-17.37;24.3;15.20;70542;5122.438;-12841.101;339;-300;-301.0;73;72.7;-45;-45.6;28.8;0.0;
16/06/2019 00:25:33;100;0;173.83;17;-27.89;-17.52;29.1;15.20;70519;5122.438;-12841.101;339;-300;-297.0;73;72.7;-45;-45.6;28.8;0.0;
16/06/2019 00:25:53;100;0;176.47;17;-27.05;-17.51;33.7;15.20;70511;5122.438;-12841.101;339;-300;-297.0;73;72.7;-45;-45.6;28.8;0.0;
16/06/2019 00:26:13;100;0;186.45;17;-26.23;-17.84;37.9;15.10;70486;5122.438;-12841.101;339;-300;-297.0;73;72.7;-39;-38.8;28.8;0.0;
16/06/2019 00:26:33;100;0;192.90;17;-27.08;-14.12;41.8;15.10;70435;5122.438;-12841.101;339;-300;-297.0;73;72.7;-37;-37.0;28.8;0.0;
16/06/2019 00:26:53;100;0;201.46;17;-26.06;-13.32;46.2;15.00;70388;5122.438;-12841.101;339;-300;-297.0;73;72.7;-33;-32.9;28.8;0.0;
16/06/2019 00:27:13;100;0;204.76;17;-25.67;-11.11;50.3;14.90;70339;5122.438;-12841.101;339;-300;-297.0;73;72.7;-34;-33.8;28.8;0.0;
16/06/2019 00:27:33;100;0;202.74;17;-25.86;-12.27;54.3;14.80;70315;5122.438;-12841.101;339;-300;-297.0;73;72.7;-37;-37.0;28.8;0.0;
16/06/2019 00:27:53;100;0;202.43;17;-26.06;-13.84;58.3;14.70;70274;5122.438;-12841.101;339;-300;-297.0;73;72.7;-38;-38.4;28.8;0.0;
16/06/2019 00:28:13;100;0;204.50;17;-25.61;-14.35;62.1;14.70;70251;5122.438;-12841.101;339;-300;-297.0;73;72.7;-37;-36.6;28.8;0.0;
16/06/2019 00:28:33;100;0;214.89;17;-25.48;-13.45;65.9;14.60;70225;5122.438;-12841.101;339;-300;-295.0;73;72.7;-32;-32.0;28.8;0.0;
16/06/2019 00:28:53;100;0;223.41;17;-24.95;-10.79;69.6;14.50;70200;5122.438;-12841.101;339;-300;-297.0;73;72.7;-29;-28.9;28.8;0.0;
16/06/2019 00:29:13;100;0;223.38;17;-25.21;-9.34;73.4;14.40;70198;5122.438;-12841.101;339;-300;-297.0;73;72.7;-31;-31.1;28.8;0.0;
16/06/2019 00:29:33;100;0;225.06;17;-24.95;-10.94;77.0;14.30;70170;5122.438;-12841.101;339;-300;-297.0;73;72.7;-32;-32.0;28.8;0.0;
16/06/2019 00:29:53;100;0;227.13;17;-24.74;-11.53;80.6;14.30;70147;5122.438;-12841.101;339;-300;-297.0;73;72.7;-31;-31.1;28.8;0.0;
16/06/2019 00:30:13;100;0;214.33;17;-26.44;-10.70;84.0;14.20;70116;5122.438;-12841.101;339;-300;-297.0;73;72.7;-40;-40.6;28.8;0.0;
16/06/2019 00:30:33;100;0;222.03;17;-24.25;-15.57;87.9;14.10;70086;5122.438;-12841.101;339;-300;-297.0;73;72.7;-33;-32.9;28.8;0.0;
16/06/2019 00:30:53;100;0;234.01;17;-22.82;-11.43;91.7;14.00;70061;5122.438;-12841.101;339;-300;-295.0;73;72.7;-27;-27.1;28.8;0.0;
16/06/2019 00:31:14;100;0;243.52;17;-23.11;-8.69;94.9;13.90;70039;5122.438;-12841.101;339;-300;-299.0;73;72.7;-24;-23.9;28.8;0.0;
16/06/2019 00:31:34;100;0;246.96;17;-22.84;-7.16;98.2;13.80;70020;5122.438;-12841.101;339;-300;-297.0;73;72.7;-25;-24.8;28.8;0.0;
16/06/2019 00:31:54;100;0;251.95;17;-22.30;-8.26;101.5;13.80;69999;5122.438;-12841.101;339;-300;-297.0;73;72.7;-25;-25.3;28.8;0.0;
16/06/2019 00:32:14;100;0;261.19;17;-21.76;-8.38;104.6;13.70;69976;5122.438;-12841.101;339;-300;-297.0;73;72.7;-21;-21.2;28.8;0.0;
16/06/2019 00:32:34;100;0;263.63;17;-21.94;-5.93;107.7;13.60;69969;5122.438;-12841.101;339;-300;-297.0;73;72.7;-23;-23.0;28.8;0.0;
16/06/2019 00:32:54;100;0;266.19;17;-21.38;-7.32;110.7;13.50;69944;5122.438;-12841.101;339;-300;-297.0;73;72.7;-23;-23.5;28.8;0.0;
16/06/2019 00:33:14;100;0;268.74;17;-21.74;-7.39;113.5;13.40;69929;5122.438;-12841.101;339;-300;-297.0;73;72.7;-23;-23.5;28.8;0.0;
16/06/2019 00:33:34;100;0;275.85;17;-21.65;-7.32;116.3;13.40;69935;5122.438;-12841.101;339;-300;-297.0;73;72.7;-20;-19.9;28.9;0.0;
16/06/2019 00:33:54;100;0;270.61;17;-20.37;-5.30;119.4;13.30;69914;5122.438;-12841.101;339;-300;-297.0;73;72.7;-25;-24.8;28.8;0.0;
16/06/2019 00:34:14;100;0;264.79;17;-20.53;-8.26;122.2;13.20;69889;5122.438;-12841.101;339;-300;-295.0;73;72.7;-28;-28.0;28.8;0.0;
16/06/2019 00:34:34;100;0;259.67;17;-21.00;-10.07;125.0;13.10;69862;5122.438;-12841.101;339;-300;-297.0;73;72.7;-30;-29.8;28.8;0.0;
16/06/2019 00:34:54;100;0;258.77;17;-21.06;-10.72;127.8;13.00;69860;5122.438;-12841.101;339;-300;-295.0;73;72.7;-29;-28.4;28.8;0.0;
16/06/2019 00:35:14;100;0;266.35;17;-19.98;-9.58;130.5;13.00;69846;5122.438;-12841.101;339;-300;-295.0;73;72.7;-23;-23.0;28.8;0.0;
16/06/2019 00:35:34;100;0;272.66;17;-19.95;-7.01;133.2;12.90;69830;5122.438;-12841.101;339;-300;-295.0;73;72.7;-21;-21.2;28.8;0.0;
16/06/2019 00:35:54;100;0;278.33;17;-20.02;-6.11;135.5;12.80;69820;5122.438;-12841.101;339;-300;-295.0;73;72.7;-19;-19.0;28.8;0.0;
16/06/2019 00:36:14;100;0;280.84;17;-19.73;-4.97;137.9;12.70;69806;5122.438;-12841.101;339;-300;-297.0;73;72.7;-20;-19.9;28.8;0.0;
16/06/2019 00:36:34;100;0;279.60;17;-20.24;-6.08;140.0;12.70;69799;5122.438;-12841.101;339;-300;-295.0;73;72.7;-22;-22.1;28.8;0.0;
16/06/2019 00:36:54;100;0;281.36;17;-19.92;-7.14;142.4;12.60;69790;5122.438;-12841.101;339;-300;-295.0;73;72.7;-21;-21.2;28.8;0.0;
16/06/2019 00:37:14;100;0;281.54;17;-19.53;-6.19;144.6;12.50;69775;5122.438;-12841.101;339;-300;-295.0;73;72.7;-22;-22.1;28.8;0.0;
16/06/2019 00:37:34;100;0;284.15;17;-19.45;-7.08;147.0;12.50;69773;5122.438;-12841.101;339;-300;-295.0;73;72.7;-20;-19.4;28.8;0.0;
16/06/2019 00:37:54;100;0;286.01;17;-19.21;-5.24;149.3;12.40;69774;5122.438;-12841.101;339;-300;-297.0;73;72.7;-20;-19.0;28.8;0.0;
16/06/2019 00:38:14;100;0;288.93;17;-19.21;-5.27;151.5;12.30;69752;5122.438;-12841.101;339;-300;-295.0;73;72.7;-20;-19.0;28.8;0.0;
16/06/2019 00:38:34;100;0;289.23;17;-19.25;-5.26;153.6;12.30;69744;5122.438;-12841.101;339;-300;-295.0;73;72.7;-20;-19.0;28.8;0.0;
16/06/2019 00:38:54;100;0;289.47;17;-19.36;-5.36;155.6;12.20;69745;5122.438;-12841.101;339;-300;-295.0;73;72.7;-20;-19.0;28.8;0.0;
16/06/2019 00:39:14;100;0;288.53;17;-19.49;-5.22;157.7;12.20;69735;5122.438;-12841.101;339;-300;-295.0;73;72.7;-21;-21.2;28.8;0.0;
16/06/2019 00:39:34;100;0;288.30;17;-19.56;-6.68;159.6;12.10;69721;5122.438;-12841.101;339;-300;-295.0;73;72.7;-21;-21.7;28.8;0.0;
16/06/2019 00:39:54;100;0;288.05;17;-19.58;-6.71;161.6;12.00;69713;5122.438;-12841.101;339;-300;-295.0;73;72.7;-21;-21.7;28.8;0.0;
16/06/2019 00:40:14;100;0;291.00;17;-19.50;-6.72;163.5;12.00;69699;5122.438;-12841.101;339;-300;-295.0;73;72.7;-20;-19.9;28.8;0.0;
16/06/2019 00:40:34;100;0;292.87;17;-18.89;-5.44;165.7;11.90;69695;5122.438;-12841.101;339;-300;-297.0;73;72.7;-19;-19.0;28.8;0.0;
16/06/2019 00:40:54;100;0;291.27;17;-18.82;-4.93;167.8;11.90;69694;5122.438;-12841.101;339;-300;-295.0;73;72.7;-20;-19.9;28.8;0.0;
16/06/2019 00:41:14;100;0;292.05;17;-18.58;-5.99;170.0;11.80;69683;5122.438;-12841.101;339;-300;-295.0;73;72.7;-20;-20.3;28.8;0.0;
16/06/2019 00:41:34;100;0;291.38;17;-18.74;-6.00;171.9;11.70;69659;5122.438;-12841.101;339;-300;-295.0;73;72.7;-21;-21.2;28.8;0.0;
16/06/2019 00:41:54;100;0;289.97;17;-18.82;-6.54;174.0;11.70;69659;5122.438;-12841.101;339;-300;-295.0;73;72.6;-22;-22.1;28.8;43.1;
16/06/2019 00:42:14;100;0;288.93;17;-18.73;-7.05;176.0;11.60;69661;5122.438;-12841.101;339;-300;-295.0;73;72.7;-22;-22.1;28.8;41.1;
16/06/2019 00:42:34;100;0;288.88;17;-18.61;-7.08;178.0;11.50;69645;5122.438;-12841.101;339;-300;-295.0;73;72.7;-21;-21.2;28.8;39.0;
16/06/2019 00:42:54;100;0;293.07;17;-18.89;-6.35;179.9;11.50;69634;5122.438;-12841.101;339;-300;-295.0;73;72.7;-18;-17.6;28.8;37.0;
16/06/2019 00:43:14;100;0;297.69;17;-18.89;-4.58;181.8;11.40;69620;5122.438;-12841.101;339;-300;-295.0;73;72.7;-17;-17.1;28.8;35.1;
16/06/2019 00:43:34;100;0;300.10;17;-18.93;-4.64;183.7;11.40;69622;5122.438;-12841.101;339;-300;-295.0;73;72.7;-16;-15.8;28.8;33.3;
16/06/2019 00:43:54;100;0;303.02;17;-18.49;-3.71;185.6;11.30;69607;5122.438;-12841.101;339;-300;-295.0;73;72.7;-16;-14.9;28.8;31.3;
16/06/2019 00:44:14;100;0;305.81;17;-18.25;-3.53;187.4;11.30;69597;5122.438;-12841.101;339;-300;-295.0;73;72.7;-16;-15.3;28.8;29.4;
16/06/2019 00:44:34;100;0;303.98;17;-18.55;-3.61;189.3;11.20;69587;5122.438;-12841.101;339;-300;-295.0;73;72.7;-18;-18.1;28.8;27.5;
16/06/2019 00:44:54;100;0;305.11;17;-18.40;-5.30;191.2;11.20;69589;5122.438;-12841.101;339;-300;-295.0;73;72.7;-17;-17.1;28.8;25.5;
16/06/2019 00:45:14;100;0;307.18;17;-18.39;-4.34;193.2;11.10;69577;5122.438;-12841.101;339;-300;-295.0;73;72.7;-16;-15.8;28.8;23.5;
16/06/2019 00:45:34;100;0;307.18;17;-18.34;-3.55;195.2;11.10;69571;5122.438;-12841.101;339;-300;-295.0;73;72.7;-17;-17.6;28.8;21.5;
16/06/2019 00:45:54;100;0;307.98;17;-18.51;-5.00;197.3;11.00;69567;5122.438;-12841.101;339;-300;-295.0;73;72.7;-17;-18.1;28.8;19.5;
16/06/2019 00:46:14;118;0;308.22;17;-18.48;-4.97;199.3;11.00;69562;5122.438;-12841.101;339;150;-281.2;57;56.8;0;0.5;28.9;17.5;
16/06/2019 00:46:24;118;0;7.03;17;3.06;3.81;200.1;10.90;69476;5122.438;-12841.101;339;150;-122.8;57;57.2;0;0.5;28.2;17.5;
16/06/2019 00:46:34;118;0;359.89;17;20.27;3.27;199.8;10.90;69267;5122.438;-12841.101;339;150;31.7;57;57.1;0;0.5;28.2;-1.0;
16/06/2019 00:46:44;118;0;358.91;17;23.82;3.75;198.9;10.90;69008;5122.438;-12841.101;339;150;156.4;57;57.2;0;0.5;28.2;-1.0;
16/06/2019 00:46:54;118;0;289.52;17;24.77;3.52;197.7;10.90;68833;5122.438;-12841.101;339;150;156.4;57;57.2;0;0.5;28.8;-1.0;
16/06/2019 00:47:04;118;0;288.20;17;26.79;3.52;196.2;10.90;68848;5122.438;-12841.101;339;150;156.4;57;57.1;0;0.5;28.8;-1.0;
16/06/2019 00:47:14;117;0;286.58;17;27.71;3.74;194.3;10.80;68830;5122.438;-12841.101;339;150;156.4;57;57.2;0;0.5;28.8;-1.0;
16/06/2019 00:47:34;117;0;281.15;17;27.92;3.55;190.0;10.80;68839;5122.438;-12841.101;339;150;156.4;57;57.1;32;32.0;28.8;-1.0;
16/06/2019 00:47:54;117;0;286.08;17;27.69;19.45;185.3;10.70;68829;5122.438;-12841.101;339;150;158.4;57;57.1;25;24.8;28.8;-1.0;
16/06/2019 00:48:14;117;0;288.81;17;28.32;14.91;180.9;10.70;68822;5122.438;-12841.101;339;150;158.4;57;57.1;22;21.7;28.8;-1.0;
16/06/2019 00:48:34;117;0;294.50;17;27.85;13.51;176.1;10.60;68824;5122.438;-12841.101;339;150;156.4;57;57.2;18;17.6;28.8;-1.0;
16/06/2019 00:48:54;117;0;301.82;17;27.39;11.34;171.8;10.60;68827;5122.438;-12841.101;339;150;158.4;57;57.1;15;14.9;28.8;-1.0;
16/06/2019 00:49:14;117;0;308.45;17;27.42;9.83;167.5;10.50;68832;5122.438;-12841.101;339;150;158.4;57;57.1;13;13.1;28.8;-1.0;
16/06/2019 00:49:34;117;0;309.15;17;27.18;9.02;163.2;10.50;68829;5122.438;-12841.101;339;150;158.4;57;57.2;14;14.0;28.8;-1.0;
16/06/2019 00:49:54;117;0;306.79;17;27.34;10.20;159.0;10.50;68833;5122.438;-12841.101;339;150;158.4;57;57.1;17;17.1;28.8;-1.0;
16/06/2019 00:50:14;117;0;315.19;17;27.19;11.59;154.8;10.40;68841;5122.438;-12841.101;339;150;158.4;57;57.1;12;12.2;28.8;-1.0;
16/06/2019 00:50:34;117;0;324.74;17;27.16;8.69;150.7;10.40;68849;5122.438;-12841.101;339;150;158.4;57;57.1;12;11.7;28.8;-1.0;
16/06/2019 00:50:54;117;0;329.94;17;27.25;8.69;146.3;10.40;68850;5122.438;-12841.101;339;150;158.4;57;57.1;9;8.6;28.8;-1.0;
16/06/2019 00:51:14;117;0;325.31;17;27.48;7.02;142.0;10.30;68854;5122.438;-12841.101;339;150;158.4;57;57.1;13;13.5;28.8;-1.0;
16/06/2019 00:51:34;117;0;324.12;17;26.86;9.76;138.0;10.30;68854;5122.438;-12841.101;339;150;156.4;57;57.2;14;14.0;28.8;-1.0;
16/06/2019 00:51:54;117;0;326.00;17;26.62;9.64;134.0;10.30;68858;5122.438;-12841.101;339;150;160.4;57;57.1;13;13.1;28.8;-1.0;
16/06/2019 00:52:14;117;0;335.90;17;26.56;9.13;130.2;10.30;68854;5122.438;-12841.101;339;150;156.4;57;57.1;7;6.8;28.8;-1.0;
16/06/2019 00:52:34;117;0;338.44;17;26.57;6.24;126.1;10.20;68851;5122.438;-12841.101;339;150;156.4;57;57.2;6;5.9;28.8;-1.0;
16/06/2019 00:52:54;117;0;336.54;17;25.65;5.67;122.2;10.20;68864;5122.438;-12841.101;339;150;158.4;57;57.1;9;9.0;28.8;-1.0;
16/06/2019 00:53:14;117;0;338.97;17;24.39;7.56;118.7;10.20;68867;5122.438;-12841.101;339;150;158.4;57;57.1;7;6.8;28.8;-1.0;
16/06/2019 00:53:34;117;0;336.12;17;25.06;6.14;115.6;10.20;68873;5122.438;-12841.101;339;150;160.4;57;57.1;8;8.6;28.8;-1.0;
16/06/2019 00:53:54;117;0;328.35;17;24.89;7.56;112.6;10.20;68886;5122.438;-12841.101;339;150;158.4;57;57.2;13;13.1;28.8;-1.0;
16/06/2019 00:54:14;117;0;329.25;17;23.92;9.60;109.5;10.10;68895;5122.438;-12841.101;339;150;158.4;57;57.1;10;9.9;28.8;-1.0;
16/06/2019 00:54:34;117;0;332.52;17;23.75;7.43;106.2;10.10;68901;5122.438;-12841.101;339;150;158.4;57;57.1;8;8.1;28.8;-1.0;
16/06/2019 00:54:54;117;0;330.27;17;23.84;6.74;103.2;10.10;68907;5122.438;-12841.101;339;150;158.4;57;57.2;9;9.0;28.8;-1.0;
16/06/2019 00:55:14;117;0;330.11;17;23.54;7.89;99.8;10.10;68916;5122.438;-12841.101;339;150;158.4;57;57.1;8;7.7;28.8;-1.0;
16/06/2019 00:55:34;117;0;322.54;17;23.27;6.85;96.6;10.10;68923;5122.438;-12841.101;339;150;158.4;57;57.1;8;7.2;28.8;-1.0;
16/06/2019 00:55:54;117;0;321.97;17;21.75;6.70;93.6;10.10;68930;5122.438;-12841.101;339;150;158.4;57;57.1;8;7.2;28.8;-1.0;
16/06/2019 00:56:14;117;0;325.17;17;21.35;6.65;90.8;10.10;68946;5122.438;-12841.101;339;150;158.4;57;57.1;8;7.2;28.8;-1.0;
16/06/2019 00:56:34;117;0;326.49;17;20.75;6.66;88.1;10.10;68965;5122.438;-12841.101;339;150;158.4;57;57.1;8;7.2;28.8;-1.0;
16/06/2019 00:56:54;117;0;330.55;17;19.75;6.57;85.6;10.10;68980;5122.438;-12841.101;339;150;158.4;57;57.1;5;5.0;28.8;-1.0;
16/06/2019 00:57:14;117;0;330.05;17;19.86;5.19;83.3;10.10;68989;5122.438;-12841.101;339;150;158.4;57;57.1;6;5.9;28.8;-1.0;
16/06/2019 00:57:34;117;0;331.56;17;19.26;6.51;81.2;10.10;68995;5122.438;-12841.101;339;150;158.4;57;57.2;6;6.8;28.8;-1.0;
16/06/2019 00:57:54;117;0;338.82;17;19.07;6.45;79.3;10.10;69012;5122.438;-12841.101;339;150;158.4;57;57.1;1;0.9;28.8;-1.0;
16/06/2019 00:58:14;117;0;345.75;17;19.28;3.35;77.2;10.10;69010;5122.438;-12841.101;339;150;160.4;57;57.1;-1;-0.9;28.8;-1.0;
16/06/2019 00:58:34;117;0;345.48;17;18.97;2.41;75.1;10.10;69023;5122.438;-12841.101;339;150;158.4;57;57.1;0;0.0;28.8;-1.0;
16/06/2019 00:58:54;117;0;345.85;17;18.91;3.16;72.9;10.10;69035;5122.438;-12841.101;339;150;158.4;57;57.2;0;0.5;28.8;-1.0;
16/06/2019 00:59:14;117;0;346.41;17;18.75;3.07;70.7;10.20;69053;5122.438;-12841.101;339;150;158.4;57;57.2;0;0.0;28.8;-1.0;
16/06/2019 00:59:34;117;0;344.95;17;18.92;3.16;68.6;10.10;69062;5122.438;-12841.101;339;150;158.4;57;57.2;0;0.0;28.8;-1.0;
16/06/2019 00:59:54;117;0;343.74;17;18.94;3.17;66.3;10.20;69078;5122.438;-12841.101;339;150;158.4;57;57.2;0;0.0;28.8;-1.0;
16/06/2019 01:00:14;117;0;341.38;17;18.72;3.11;64.1;10.20;69097;5122.438;-12841.101;339;150;156.4;57;57.1;1;0.9;28.8;-1.0;
16/06/2019 01:00:34;117;0;339.21;17;18.89;3.88;61.8;10.20;69109;5122.438;-12841.101;339;150;158.4;57;57.1;1;1.8;28.8;-1.0;
16/06/2019 01:00:54;117;0;343.65;17;18.01;3.87;59.5;10.20;69109;5122.438;-12841.101;339;150;160.4;57;57.1;-2;-1.8;28.8;-1.0;
16/06/2019 01:01:14;117;0;346.55;17;18.10;1.85;57.4;10.20;69117;5122.438;-12841.101;339;150;160.4;57;57.1;-4;-4.1;28.8;-1.0;
16/06/2019 01:01:34;117;0;348.87;17;18.27;1.01;55.3;10.20;69123;5122.438;-12841.101;339;150;158.4;57;57.1;-5;-5.0;28.8;-1.0;
16/06/2019 01:01:54;117;0;345.55;17;18.22;0.32;53.0;10.30;69141;5122.438;-12841.101;339;150;158.4;57;57.1;-3;-3.2;28.8;-1.0;
16/06/2019 01:02:14;117;0;338.76;17;17.84;1.92;50.7;10.30;69147;5122.438;-12841.101;339;150;158.4;57;57.1;0;0.0;28.8;-1.0;
16/06/2019 01:02:34;117;0;339.93;17;17.83;3.58;48.4;10.30;69166;5122.438;-12841.101;339;150;158.4;57;57.1;-2;-1.8;28.8;-1.0;
16/06/2019 01:02:54;117;0;341.51;17;17.80;2.11;46.1;10.30;69186;5122.438;-12841.101;339;150;158.4;57;57.1;-5;-5.0;28.8;-1.0;
16/06/2019 01:03:14;117;0;332.20;17;17.62;0.80;43.8;10.30;69195;5122.438;-12841.101;339;150;158.4;57;57.1;0;0.0;28.8;-1.0;
16/06/2019 01:03:34;117;0;324.26;17;17.76;3.62;41.6;10.30;69202;5122.438;-12841.101;339;150;158.4;57;57.2;2;1.8;28.8;-1.0;
16/06/2019 01:03:54;117;0;319.34;17;17.00;4.72;39.5;10.40;69230;5122.438;-12841.101;339;150;156.4;57;57.2;2;2.3;28.8;-1.0;
16/06/2019 01:04:14;117;0;324.88;17;16.56;4.39;37.5;10.40;69258;5122.438;-12841.101;339;150;158.4;57;57.2;2;2.3;28.8;-1.0;
16/06/2019 01:04:34;117;0;328.93;17;16.66;4.53;35.5;10.40;69272;5122.438;-12841.101;339;150;160.4;57;57.1;-4;-4.1;28.8;-1.0;
16/06/2019 01:04:55;117;0;333.47;17;16.74;1.12;33.6;10.40;69293;5122.438;-12841.101;339;150;160.4;57;57.2;-6;-5.9;28.8;-1.0;
16/06/2019 01:05:15;117;0;330.35;17;16.13;0.33;31.6;10.50;69311;5122.438;-12841.101;339;150;160.4;57;57.1;-4;-4.1;28.8;-1.0;
16/06/2019 01:05:35;117;0;331.57;17;15.85;1.77;29.9;10.50;69336;5122.438;-12841.101;339;150;158.4;57;57.2;-5;-5.0;28.8;-1.0;
16/06/2019 01:05:55;117;0;330.25;17;15.87;0.62;28.3;10.50;69368;5122.438;-12841.101;339;150;160.4;57;57.2;-4;-4.1;28.8;-1.0;
16/06/2019 01:06:15;117;0;327.53;17;15.99;1.81;26.7;10.60;69379;5122.438;-12841.101;339;150;156.4;57;57.2;-3;-3.2;28.8;-1.0;
16/06/2019 01:06:35;117;0;322.82;17;15.91;1.78;25.1;10.60;69403;5122.438;-12841.101;339;150;158.4;57;57.2;-3;-3.2;28.8;-1.0;
16/06/2019 01:06:55;117;0;316.66;17;16.02;1.81;23.6;10.70;69422;5122.438;-12841.101;339;150;158.4;57;57.2;0;0.5;28.7;-1.0;
16/06/2019 01:07:15;117;0;314.84;17;15.74;3.83;22.0;10.70;69431;5122.438;-12841.101;339;150;160.4;57;57.2;0;0.9;28.8;-1.0;
16/06/2019 01:07:35;117;0;311.78;17;15.82;3.79;20.3;10.80;69458;5122.438;-12841.101;339;150;158.4;57;57.2;1;0.9;28.8;-1.0;
16/06/2019 01:07:55;117;0;304.91;17;16.00;3.74;18.8;10.80;69467;5122.438;-12841.101;339;150;158.4;57;57.1;5;5.0;28.8;-1.0;
16/06/2019 01:08:15;117;0;305.93;17;15.77;6.20;17.2;10.80;69478;5122.438;-12841.101;339;150;158.4;57;57.1;3;3.2;28.8;-1.0;
16/06/2019 01:08:35;117;0;308.09;17;15.52;4.75;15.5;10.90;69500;5122.438;-12841.101;339;150;158.4;57;57.2;1;0.9;28.8;-1.0;
16/06/2019 01:08:55;117;0;310.77;17;15.79;3.69;14.0;10.90;69507;5122.438;-12841.101;339;150;160.4;57;57.1;0;-0.5;28.8;-1.0;
16/06/2019 01:09:15;117;0;318.16;17;15.64;2.85;12.3;10.90;69528;5122.438;-12841.101;339;150;158.4;57;57.1;-2;-2.3;28.8;-1.0;
16/06/2019 01:09:35;117;0;317.83;17;15.63;2.23;10.7;11.00;69548;5122.438;-12841.101;339;150;158.4;57;57.1;0;0.5;28.8;-1.0;
