Timestamp;NavState;SecurityLevel;Heading;Declination;Pitch;Roll;Depth;Temperature;Pa;Lat;Lon;DesiredH;BallastCmd;BallastPos;LinCmd;LinPos;AngCmd;AngPos;Voltage;Altitude;
16/06/2019 20:01:29;117;0;41.97;17;15.09;6.39;3.8;10.50;69475;5126.861;-12835.950;62;150;156.4;57;57.2;1;0.9;28.7;-1.0;
16/06/2019 20:01:39;110;0;54.26;17;14.44;3.27;3.2;10.60;69487;5126.861;-12835.950;62;-300;27.7;73;73.3;0;-0.9;28.6;-1.0;
16/06/2019 20:01:49;110;0;52.56;17;-12.92;3.13;2.8;10.60;69786;5126.861;-12835.950;62;-300;-146.5;73;73.0;0;-0.5;28.5;-1.0;
16/06/2019 20:01:59;110;0;46.67;17;-27.02;2.58;3.3;10.60;70039;5126.861;-12835.950;62;-300;-301.0;73;73.0;0;-0.5;28.6;-1.0;
16/06/2019 20:02:09;110;0;31.22;17;-28.29;2.99;4.8;10.60;70292;5126.861;-12835.950;62;-300;-303.0;73;73.0;0;-0.5;28.6;-1.0;
16/06/2019 20:02:19;100;0;29.65;17;-28.19;3.33;6.8;10.70;70287;5126.861;-12835.950;62;-300;-303.0;73;73.0;0;-0.5;28.6;-1.0;
16/06/2019 20:02:39;100;0;26.12;17;-27.07;3.41;11.4;10.70;70280;5126.861;-12835.950;62;-300;-303.0;73;73.0;-10;-9.9;28.6;0.0;
16/06/2019 20:02:59;100;0;17.81;17;-26.30;-1.20;16.2;10.80;70263;5126.861;-12835.950;62;-300;-303.0;73;73.0;-13;-13.1;28.7;0.0;
16/06/2019 20:03:19;100;0;14.17;17;-25.86;-2.71;20.7;10.90;70242;5126.861;-12835.950;62;-300;-303.0;73;73.0;-13;-13.5;28.6;0.0;
16/06/2019 20:03:39;100;0;11.52;17;-25.39;-2.79;24.9;10.90;70193;5126.861;-12835.950;62;-300;-303.0;73;73.0;-13;-13.5;28.6;0.0;
16/06/2019 20:03:59;100;0;11.47;17;-24.92;-2.68;29.2;10.90;70161;5126.861;-12835.950;62;-300;-303.0;73;73.0;-12;-12.2;28.6;0.0;
16/06/2019 20:04:19;100;0;14.36;17;-25.45;-1.94;33.3;10.90;70114;5126.861;-12835.950;62;-300;-303.0;73;72.9;-10;-9.9;28.6;0.0;
16/06/2019 20:04:39;100;0;11.88;17;-24.51;-0.73;37.3;10.90;70065;5126.861;-12835.950;62;-300;-303.0;73;73.0;-13;-13.1;28.6;0.0;
16/06/2019 20:04:59;100;0;11.00;17;-24.70;-2.75;41.1;10.90;70029;5126.861;-12835.950;62;-300;-303.0;73;73.0;-13;-13.1;28.6;0.0;
16/06/2019 20:05:19;100;0;10.80;17;-24.75;-2.73;44.9;10.90;69997;5126.861;-12835.950;62;-300;-303.0;73;72.9;-14;-14.0;28.6;0.0;
16/06/2019 20:05:39;100;0;7.46;17;-24.67;-3.16;48.7;10.90;69980;5126.861;-12835.950;62;-300;-303.0;73;73.0;-16;-15.8;28.6;0.0;
16/06/2019 20:05:59;100;0;8.42;17;-25.06;-4.37;52.3;10.80;69954;5126.861;-12835.950;62;-300;-301.0;73;73.0;-15;-14.9;28.6;0.0;
16/06/2019 20:06:19;100;0;7.76;17;-24.80;-2.95;55.8;10.80;69954;5126.861;-12835.950;62;-300;-303.0;73;73.2;-16;-15.8;28.6;0.0;
16/06/2019 20:06:39;100;0;5.23;17;-25.56;-4.13;59.2;10.80;69915;5126.861;-12835.950;62;-300;-303.0;73;73.0;-18;-18.1;28.7;0.0;
16/06/2019 20:06:59;100;0;4.30;17;-24.62;-5.20;63.0;10.80;69910;5126.861;-12835.950;62;-300;-303.0;73;73.0;-18;-18.5;28.7;0.0;
16/06/2019 20:07:19;100;0;3.48;17;-24.02;-5.06;66.5;10.80;69891;5126.861;-12835.950;62;-300;-303.0;73;73.0;-19;-19.0;28.6;0.0;
16/06/2019 20:07:39;100;0;0.79;17;-24.06;-5.41;70.0;10.80;69864;5126.861;-12835.950;62;-300;-303.0;73;73.0;-21;-21.2;28.6;0.0;
16/06/2019 20:07:59;100;0;1.53;17;-23.13;-6.64;73.4;10.70;69841;5126.861;-12835.950;62;-300;-303.0;73;73.0;-20;-19.9;28.6;0.0;
16/06/2019 20:08:19;100;0;2.92;17;-23.19;-5.18;76.6;10.70;69831;5126.861;-12835.950;62;-300;-303.0;73;73.0;-20;-18.5;28.6;0.0;
16/06/2019 20:08:39;100;0;3.17;17;-23.03;-5.21;79.7;10.70;69815;5126.861;-12835.950;62;-300;-303.0;73;73.0;-20;-18.5;28.6;0.0;
16/06/2019 20:08:59;100;0;4.28;17;-23.17;-5.18;82.8;10.70;69803;5126.861;-12835.950;62;-300;-303.0;73;73.0;-20;-18.5;28.6;0.0;
16/06/2019 20:09:19;100;0;3.51;17;-23.11;-5.08;85.8;10.70;69801;5126.861;-12835.950;62;-300;-303.0;73;73.0;-22;-22.1;28.7;0.0;
16/06/2019 20:09:39;100;0;4.09;17;-23.37;-7.19;88.8;10.70;69794;5126.861;-12835.950;62;-300;-303.0;73;73.0;-22;-22.6;28.6;0.0;
16/06/2019 20:09:59;100;0;3.97;17;-22.94;-7.06;91.8;10.70;69786;5126.861;-12835.950;62;-300;-303.0;73;73.0;-23;-23.0;28.7;0.0;
16/06/2019 20:10:19;100;0;4.99;17;-22.84;-7.62;94.9;10.60;69773;5126.861;-12835.950;62;-300;-303.0;73;73.0;-22;-22.1;28.6;0.0;
16/06/2019 20:10:39;100;0;9.11;17;-22.38;-6.43;97.8;10.60;69765;5126.861;-12835.950;62;-300;-303.0;73;73.0;-19;-19.0;28.7;0.0;
16/06/2019 20:10:59;100;0;8.91;17;-22.65;-4.99;100.8;10.60;69757;5126.861;-12835.950;62;-300;-303.0;73;73.0;-21;-21.2;28.6;0.0;
16/06/2019 20:11:19;100;0;11.65;17;-22.17;-6.62;103.6;10.60;69756;5126.861;-12835.950;62;-300;-303.0;73;73.0;-20;-19.9;28.6;0.0;
16/06/2019 20:11:39;100;0;15.35;17;-22.13;-5.53;106.5;10.50;69752;5126.861;-12835.950;62;-300;-303.0;73;73.0;-18;-18.1;28.6;0.0;
16/06/2019 20:11:59;100;0;12.09;17;-21.66;-4.66;109.4;10.50;69742;5126.861;-12835.950;62;-300;-303.0;73;73.0;-21;-21.2;28.7;0.0;
16/06/2019 20:12:19;100;0;17.14;17;-21.76;-6.63;112.1;10.50;69727;5126.861;-12835.950;62;-300;-303.0;73;72.9;-18;-18.1;28.6;0.0;
16/06/2019 20:12:39;100;0;18.42;17;-22.11;-4.46;114.8;10.50;69728;5126.861;-12835.950;62;-300;-303.0;73;73.0;-18;-17.1;28.6;0.0;
16/06/2019 20:12:59;100;0;16.07;17;-21.66;-4.66;117.6;10.50;69723;5126.861;-12835.950;62;-300;-303.0;73;73.0;-20;-19.9;28.6;0.0;
16/06/2019 20:13:19;100;0;16.96;17;-20.93;-5.84;120.4;10.40;69709;5126.861;-12835.950;62;-300;-303.0;73;73.0;-20;-20.3;28.7;0.0;
16/06/2019 20:13:39;100;0;14.65;17;-20.73;-5.92;123.2;10.40;69701;5126.861;-12835.950;62;-300;-303.0;73;73.0;-21;-21.2;28.6;0.0;
16/06/2019 20:13:59;100;0;11.77;17;-20.66;-6.73;125.9;10.40;69701;5126.861;-12835.950;62;-300;-303.0;73;73.0;-23;-23.0;28.6;0.0;
16/06/2019 20:14:19;100;0;16.07;17;-20.60;-7.53;128.4;10.40;69692;5126.861;-12835.950;62;-300;-303.0;73;72.9;-19;-19.0;28.6;0.0;
16/06/2019 20:14:39;100;0;20.17;17;-20.52;-4.88;130.8;10.30;69683;5126.861;-12835.950;62;-300;-301.0;73;73.0;-17;-16.7;28.6;0.0;
16/06/2019 20:14:59;100;0;17.99;17;-20.73;-3.90;133.3;10.30;69672;5126.861;-12835.950;62;-300;-303.0;73;73.0;-20;-19.9;28.6;0.0;
16/06/2019 20:15:19;100;0;13.04;17;-20.14;-5.94;135.9;10.30;69666;5126.861;-12835.950;62;-300;-303.0;73;73.0;-22;-22.1;28.7;0.0;
16/06/2019 20:15:39;100;0;11.30;17;-19.96;-6.97;138.2;10.30;69655;5126.861;-12835.950;62;-300;-303.0;73;73.0;-23;-23.0;28.6;0.0;
16/06/2019 20:16:00;100;0;6.40;17;-20.23;-7.43;140.6;10.30;69643;5126.861;-12835.950;62;-300;-303.0;73;73.0;-25;-25.3;28.6;0.0;
16/06/2019 20:16:20;100;0;7.87;17;-19.25;-8.62;142.9;10.20;69623;5126.861;-12835.950;62;-300;-303.0;73;73.0;-23;-22.6;28.6;0.0;
16/06/2019 20:16:40;100;0;8.14;17;-19.59;-6.93;145.0;10.20;69619;5126.861;-12835.950;62;-300;-303.0;73;73.0;-22;-22.1;28.6;0.0;
16/06/2019 20:17:00;100;0;14.17;17;-19.45;-7.09;147.0;10.20;69603;5126.861;-12835.950;62;-300;-301.0;73;73.0;-18;-18.1;28.6;0.0;
16/06/2019 20:17:20;100;0;18.76;17;-19.26;-4.51;149.1;10.10;69584;5126.861;-12835.950;62;-300;-303.0;73;73.0;-17;-17.1;28.6;0.0;
16/06/2019 20:17:40;100;0;18.86;17;-19.29;-4.49;151.1;10.10;69575;5126.861;-12835.950;62;-300;-303.0;73;73.0;-18;-18.5;28.6;0.0;
16/06/2019 20:18:00;100;0;19.85;17;-19.42;-5.55;153.0;10.10;69566;5126.861;-12835.950;62;-300;-303.0;73;73.0;-18;-19.0;28.6;0.0;
16/06/2019 20:18:20;100;0;18.23;17;-19.13;-5.40;155.1;10.00;69546;5126.861;-12835.950;62;-300;-303.0;73;73.0;-20;-19.9;28.6;0.0;
16/06/2019 20:18:40;100;0;17.83;17;-18.83;-6.05;157.1;10.00;69539;5126.861;-12835.950;62;-300;-301.0;73;73.0;-20;-20.3;28.7;0.0;
16/06/2019 20:19:00;100;0;17.13;17;-18.96;-6.00;159.1;10.00;69530;5126.861;-12835.950;62;-300;-303.0;73;73.0;-20;-20.3;28.6;0.0;
16/06/2019 20:19:20;100;0;16.80;17;-19.04;-6.04;161.1;9.90;69523;5126.861;-12835.950;62;-300;-303.0;73;73.0;-21;-21.7;28.6;0.0;
16/06/2019 20:19:40;100;0;19.41;17;-18.82;-6.95;163.1;9.90;69508;5126.861;-12835.950;62;-300;-303.0;73;72.9;-19;-19.0;28.6;0.0;
16/06/2019 20:20:00;100;0;20.59;17;-18.50;-5.19;165.2;9.90;69501;5126.861;-12835.950;62;-300;-303.0;73;72.9;-18;-18.1;28.7;44.3;
16/06/2019 20:20:20;100;0;20.57;17;-18.66;-4.68;167.1;9.80;69493;5126.861;-12835.950;62;-300;-305.0;73;72.9;-19;-19.4;28.6;42.4;
16/06/2019 20:20:40;100;0;20.85;17;-19.02;-5.78;169.2;9.80;69481;5126.861;-12835.950;62;-300;-303.0;73;73.0;-19;-19.9;28.6;40.1;
16/06/2019 20:21:00;100;0;22.40;17;-18.49;-5.87;171.3;9.80;69477;5126.861;-12835.950;62;-300;-303.0;73;73.0;-18;-18.1;28.6;38.0;
16/06/2019 20:21:20;100;0;23.60;17;-18.74;-4.68;173.3;9.70;69474;5126.861;-12835.950;62;-300;-305.0;73;72.9;-18;-17.6;28.7;35.9;
16/06/2019 20:21:40;100;0;23.85;17;-18.95;-4.67;175.2;9.70;69475;5126.861;-12835.950;62;-300;-301.0;73;73.0;-18;-17.1;28.6;33.8;
16/06/2019 20:22:00;100;0;24.22;17;-18.84;-4.65;177.3;9.70;69468;5126.861;-12835.950;62;-300;-303.0;73;73.0;-18;-17.1;28.6;31.6;
16/06/2019 20:22:20;100;0;24.97;17;-18.45;-4.58;179.4;9.60;69464;5126.861;-12835.950;62;-300;-303.0;73;73.0;-18;-17.1;28.7;29.5;
16/06/2019 20:22:40;100;0;24.96;17;-18.84;-4.64;181.4;9.60;69461;5126.861;-12835.950;62;-300;-303.0;73;73.0;-18;-17.6;28.6;27.4;
16/06/2019 20:23:00;100;0;25.67;17;-18.49;-4.73;183.5;9.60;69457;5126.861;-12835.950;62;-300;-303.0;73;73.0;-18;-17.6;28.7;25.2;
16/06/2019 20:23:20;100;0;24.83;17;-18.72;-4.67;185.5;9.60;69456;5126.861;-12835.950;62;-300;-303.0;73;72.9;-19;-19.0;28.6;23.3;
16/06/2019 20:23:40;100;0;25.96;17;-19.02;-5.62;187.6;9.50;69457;5126.861;-12835.950;62;-300;-303.0;73;73.0;-18;-17.6;28.6;21.2;
16/06/2019 20:24:00;100;0;26.61;17;-18.65;-4.58;189.7;9.50;69453;5126.861;-12835.950;62;-300;-301.0;73;73.0;-18;-17.1;28.7;18.9;
16/06/2019 20:24:20;118;0;25.94;17;-18.63;-4.54;191.8;9.50;69442;5126.861;-12835.950;62;150;-289.1;57;56.8;0;0.5;28.7;16.7;
16/06/2019 20:24:30;118;0;53.58;17;2.54;3.76;192.7;9.50;69357;5126.861;-12835.950;62;150;-132.7;57;57.1;0;0.5;28.1;16.7;
16/06/2019 20:24:40;118;0;51.59;17;19.58;3.73;192.3;9.50;69152;5126.861;-12835.950;62;150;21.8;57;56.9;0;0.5;28.0;-1.0;
16/06/2019 20:24:50;118;0;51.89;17;23.90;3.51;191.4;9.50;68900;5126.861;-12835.950;62;150;156.4;57;57.1;0;0.5;28.1;-1.0;
16/06/2019 20:25:00;118;0;26.77;17;24.97;4.13;190.2;9.50;68697;5126.861;-12835.950;62;150;156.4;57;56.9;0;0.5;28.6;-1.0;
16/06/2019 20:25:10;118;0;26.85;17;27.06;3.62;188.6;9.40;68708;5126.861;-12835.950;62;150;158.4;57;56.9;0;0.5;28.6;-1.0;
16/06/2019 20:25:20;117;0;26.69;17;28.10;3.57;186.7;9.40;68695;5126.861;-12835.950;62;150;156.4;57;57.1;0;0.5;28.6;-1.0;
16/06/2019 20:25:40;117;0;24.49;17;28.55;3.51;182.4;9.40;68706;5126.861;-12835.950;62;150;156.4;57;56.9;19;19.0;28.6;-1.0;
16/06/2019 20:26:00;117;0;28.76;17;28.36;13.02;177.5;9.40;68691;5126.861;-12835.950;62;150;156.4;57;56.9;17;17.1;28.6;-1.0;
16/06/2019 20:26:20;117;0;34.98;17;28.43;11.34;173.0;9.40;68692;5126.861;-12835.950;62;150;158.4;57;56.9;14;14.0;28.6;-1.0;
16/06/2019 20:26:40;117;0;38.84;17;28.31;9.35;168.3;9.30;68683;5126.861;-12835.950;62;150;156.4;57;56.9;13;13.1;28.7;-1.0;
16/06/2019 20:27:00;117;0;41.81;17;28.52;9.57;163.8;9.30;68674;5126.861;-12835.950;62;150;156.4;57;56.9;13;13.5;28.6;-1.0;
16/06/2019 20:27:20;117;0;47.69;17;28.29;9.54;159.3;9.30;68675;5126.861;-12835.950;62;150;156.4;57;56.9;13;13.1;28.6;-1.0;
16/06/2019 20:27:40;117;0;57.01;17;27.91;9.50;154.7;9.20;68672;5126.861;-12835.950;62;150;156.4;57;56.9;6;5.9;28.6;-1.0;
16/06/2019 20:28:00;117;0;60.55;17;28.88;5.86;150.0;9.20;68687;5126.861;-12835.950;62;150;158.4;57;56.9;7;7.2;28.6;-1.0;
16/06/2019 20:28:20;117;0;61.59;17;28.73;7.46;144.8;9.20;68705;5126.861;-12835.950;62;150;156.4;57;57.1;7;7.7;28.6;-1.0;
16/06/2019 20:28:40;117;0;68.43;17;26.25;7.23;140.5;9.20;68720;5126.861;-12835.950;62;150;156.4;57;56.9;4;4.1;28.6;-1.0;
16/06/2019 20:29:00;117;0;75.49;17;25.46;4.72;136.8;9.20;68733;5126.861;-12835.950;62;150;158.4;57;56.9;1;0.9;28.6;-1.0;
16/06/2019 20:29:20;117;0;72.48;17;26.36;3.22;133.1;9.20;68741;5126.861;-12835.950;62;150;156.4;57;56.9;4;4.1;28.7;-1.0;
16/06/2019 20:29:40;117;0;70.49;17;25.87;5.47;129.3;9.20;68764;5126.861;-12835.950;62;150;156.4;57;56.9;6;5.9;28.7;-1.0;
16/06/2019 20:30:00;117;0;75.44;17;24.83;6.13;125.4;9.20;68770;5126.861;-12835.950;62;150;156.4;57;56.9;2;1.4;28.6;-1.0;
16/06/2019 20:30:20;117;0;74.77;17;25.02;3.47;121.9;9.20;68780;5126.861;-12835.950;62;150;156.4;57;56.9;3;3.2;28.7;-1.0;
16/06/2019 20:30:40;117;0;71.70;17;24.59;4.84;118.4;9.20;68788;5126.861;-12835.950;62;150;156.4;57;56.9;4;4.1;28.6;-1.0;
16/06/2019 20:31:00;117;0;68.93;17;24.91;5.60;114.9;9.20;68794;5126.861;-12835.950;62;150;156.4;57;56.9;5;5.0;28.6;-1.0;
16/06/2019 20:31:20;117;0;71.47;17;24.30;5.44;111.1;9.20;68804;5126.861;-12835.950;62;150;156.4;57;56.9;2;1.8;28.6;-1.0;
16/06/2019 20:31:40;117;0;72.24;17;23.16;3.79;107.5;9.20;68806;5126.861;-12835.950;62;150;158.4;57;57.1;1;0.9;28.7;-1.0;
16/06/2019 20:32:00;117;0;66.75;17;24.01;3.40;104.1;9.20;68821;5126.861;-12835.950;62;150;156.4;57;56.9;4;4.5;28.6;-1.0;
16/06/2019 20:32:20;117;0;62.06;17;23.48;5.81;100.7;9.20;68824;5126.861;-12835.950;62;150;156.4;57;56.9;5;5.0;28.6;-1.0;
16/06/2019 20:32:40;117;0;60.88;17;23.42;5.76;97.4;9.20;68824;5126.861;-12835.950;62;150;156.4;57;56.9;4;3.6;28.6;-1.0;
16/06/2019 20:33:00;117;0;59.18;17;23.16;4.74;93.9;9.20;68832;5126.861;-12835.950;62;150;156.4;57;56.9;3;3.2;28.7;-1.0;
16/06/2019 20:33:20;117;0;57.99;17;22.51;4.53;90.7;9.20;68834;5126.861;-12835.950;62;150;156.4;57;56.9;3;3.2;28.6;-1.0;
16/06/2019 20:33:40;117;0;59.54;17;22.63;4.71;87.6;9.20;68840;5126.861;-12835.950;62;150;156.4;57;56.9;1;0.9;28.6;-1.0;
16/06/2019 20:34:00;117;0;58.98;17;22.88;3.28;84.5;9.20;68853;5126.861;-12835.950;62;150;156.4;57;56.9;1;0.5;28.7;-1.0;
16/06/2019 20:34:20;117;0;64.49;17;22.35;3.34;81.4;9.20;68840;5126.861;-12835.950;62;150;156.4;57;56.9;-3;-3.2;28.6;-1.0;
16/06/2019 20:34:40;117;0;66.05;17;22.36;1.45;78.2;9.20;68852;5126.861;-12835.950;62;150;156.4;57;56.9;-3;-3.6;28.6;-1.0;
16/06/2019 20:35:00;117;0;70.05;17;22.13;1.30;75.2;9.20;68849;5126.861;-12835.950;62;150;156.4;57;56.9;-5;-5.0;28.7;-1.0;
16/06/2019 20:35:20;117;0;66.88;17;22.00;0.57;72.2;9.20;68861;5126.861;-12835.950;62;150;156.4;57;56.9;-2;-1.8;28.6;-1.0;
16/06/2019 20:35:40;117;0;62.93;17;21.51;2.53;69.2;9.20;68873;5126.861;-12835.950;62;150;156.4;57;56.9;-1;-0.9;28.6;-1.0;
16/06/2019 20:36:00;117;0;65.19;17;20.95;3.19;66.5;9.20;68884;5126.861;-12835.950;62;150;156.4;57;56.9;-4;-4.5;28.6;-1.0;
16/06/2019 20:36:20;117;0;62.97;17;20.60;0.87;64.1;9.20;68889;5126.861;-12835.950;62;150;158.4;57;56.9;-3;-3.2;28.6;-1.0;
16/06/2019 20:36:40;117;0;65.70;17;20.68;2.18;61.7;9.30;68890;5126.861;-12835.950;62;150;156.4;57;57.1;-6;-5.9;28.6;-1.0;
16/06/2019 20:37:00;117;0;61.04;17;19.89;0.06;59.3;9.30;68898;5126.861;-12835.950;62;150;156.4;57;56.9;-4;-4.1;28.6;-1.0;
16/06/2019 20:37:20;117;0;54.62;17;19.95;1.47;57.1;9.30;68913;5126.861;-12835.950;62;150;158.4;57;56.9;-1;-0.9;28.7;-1.0;
16/06/2019 20:37:40;117;0;56.60;17;19.79;3.03;54.8;9.30;68927;5126.861;-12835.950;62;150;156.4;57;56.9;-4;-4.5;28.6;-1.0;
16/06/2019 20:38:00;117;0;62.61;17;20.05;0.86;52.2;9.30;68935;5126.861;-12835.950;62;150;156.4;57;56.9;-8;-8.6;28.6;-1.0;
16/06/2019 20:38:20;117;0;63.10;17;19.77;-0.97;49.7;9.30;68955;5126.861;-12835.950;62;150;156.4;57;56.9;-8;-9.0;28.7;-1.0;
16/06/2019 20:38:40;117;0;66.13;17;19.59;-0.92;47.3;9.30;68960;5126.861;-12835.950;62;150;156.4;57;56.9;-10;-9.9;28.6;-1.0;
16/06/2019 20:39:00;117;0;65.03;17;19.65;-1.91;44.9;9.30;68979;5126.861;-12835.950;62;150;156.4;57;56.9;-9;-9.0;28.6;-1.0;
16/06/2019 20:39:20;117;0;62.08;17;19.40;-0.64;42.6;9.40;68990;5126.861;-12835.950;62;150;156.4;57;57.1;-8;-8.1;28.7;-1.0;
16/06/2019 20:39:40;117;0;56.96;17;19.39;-0.47;40.3;9.40;69001;5126.861;-12835.950;62;150;156.4;57;56.9;-5;-5.0;28.6;-1.0;
16/06/2019 20:40:00;117;0;48.62;17;18.64;1.39;38.1;9.40;69004;5126.861;-12835.950;62;150;156.4;57;56.9;-2;-1.8;28.6;-1.0;
16/06/2019 20:40:20;117;0;47.48;17;19.54;2.92;35.9;9.40;69007;5126.861;-12835.950;62;150;158.4;57;56.9;-4;-4.5;28.6;-1.0;
16/06/2019 20:40:40;117;0;45.35;17;19.36;1.16;33.8;9.40;69007;5126.861;-12835.950;62;150;156.4;57;57.1;-4;-5.0;28.7;-1.0;
16/06/2019 20:41:00;117;0;44.68;17;19.67;1.23;31.8;9.50;69019;5126.861;-12835.950;62;150;156.4;57;57.1;-4;-4.5;28.6;-1.0;
16/06/2019 20:41:20;117;0;42.09;17;18.50;1.22;29.6;9.50;69021;5126.861;-12835.950;62;150;156.4;57;57.1;-4;-4.5;28.7;-1.0;
16/06/2019 20:41:40;117;0;31.22;17;18.38;1.23;27.7;9.50;69036;5126.861;-12835.950;62;150;158.4;57;56.9;1;0.9;28.6;-1.0;
16/06/2019 20:42:00;117;0;25.99;17;18.05;3.96;25.7;9.50;69060;5126.861;-12835.950;62;150;156.4;57;56.9;3;3.2;28.7;-1.0;
16/06/2019 20:42:20;117;0;25.48;17;17.56;5.40;23.9;9.50;69086;5126.861;-12835.950;62;150;156.4;57;56.9;1;0.9;28.6;-1.0;
16/06/2019 20:42:40;117;0;28.67;17;17.49;3.65;22.4;9.60;69113;5126.861;-12835.950;62;150;156.4;57;57.1;0;-0.5;28.6;-1.0;
16/06/2019 20:43:00;117;0;25.39;17;16.78;3.00;20.8;9.60;69132;5126.861;-12835.950;62;150;156.4;57;57.1;1;0.9;28.6;-1.0;
16/06/2019 20:43:20;117;0;21.18;17;17.19;4.16;19.2;9.70;69158;5126.861;-12835.950;62;150;158.4;57;56.9;3;3.2;28.6;-1.0;
16/06/2019 20:43:40;117;0;24.54;17;16.11;5.54;17.6;9.70;69187;5126.861;-12835.950;62;150;156.4;57;56.9;1;0.9;28.6;-1.0;
16/06/2019 20:44:00;117;0;29.82;17;16.55;3.82;16.2;9.70;69222;5126.861;-12835.950;62;150;158.4;57;57.1;0;-0.5;28.6;-1.0;
16/06/2019 20:44:20;117;0;36.08;17;16.44;3.31;14.7;9.80;69248;5126.861;-12835.950;62;150;158.4;57;56.9;-3;-3.2;28.6;-1.0;
16/06/2019 20:44:40;117;0;37.99;17;16.41;1.58;13.1;9.80;69278;5126.861;-12835.950;62;150;156.4;57;57.1;-1;-0.9;28.6;-1.0;
16/06/2019 20:45:00;117;0;36.46;17;16.04;3.35;11.7;9.90;69312;5126.861;-12835.950;62;150;156.4;57;56.9;0;0.0;28.6;-1.0;
16/06/2019 20:45:20;117;0;41.58;17;15.47;3.63;10.1;9.90;69342;5126.861;-12835.950;62;150;156.4;57;57.1;-2;-1.8;28.6;-1.0;
