Timestamp;NavState;SecurityLevel;Heading;Declination;Pitch;Roll;Depth;Temperature;Pa;Lat;Lon;DesiredH;BallastCmd;BallastPos;LinCmd;LinPos;AngCmd;AngPos;Voltage;Altitude;
15/06/2019 19:50:52;117;0;247.67;17;16.42;8.05;8.6;10.20;69327;5123.400;-12837.754;281;150;156.4;57;56.9;7;7.2;28.8;-1.0;
15/06/2019 19:51:02;110;0;252.73;17;16.32;6.54;7.5;10.30;69352;5123.400;-12837.754;281;-300;-39.6;73;73.3;0;-0.5;28.8;-1.0;
15/06/2019 19:51:12;110;0;256.67;17;-8.25;3.34;7.1;10.30;69841;5123.400;-12837.754;281;-300;-303.0;73;72.9;0;-0.5;28.7;-1.0;
15/06/2019 19:51:22;110;0;263.18;17;-22.07;3.54;7.7;10.30;70187;5123.400;-12837.754;281;-300;-303.0;73;72.9;0;-0.9;28.8;-1.0;
15/06/2019 19:51:32;100;0;263.12;17;-25.90;3.24;9.4;10.30;70162;5123.400;-12837.754;281;-300;-303.0;73;72.9;0;-0.5;28.9;-1.0;
15/06/2019 19:51:52;100;0;264.76;17;-27.41;3.14;13.2;10.40;70178;5123.400;-12837.754;281;-300;-305.0;73;72.9;0;-0.5;28.8;0.0;
15/06/2019 19:52:12;100;0;251.58;17;-25.87;3.34;17.5;10.50;70136;5123.400;-12837.754;281;-300;-305.0;73;72.9;-6;-5.9;28.8;0.0;
15/06/2019 19:52:32;100;0;236.53;17;-25.55;0.74;21.5;10.50;70099;5123.400;-12837.754;281;-300;-305.0;73;72.9;-14;-14.0;28.9;0.0;
15/06/2019 19:52:52;100;0;232.26;17;-24.74;-3.04;25.7;10.50;70059;5123.400;-12837.754;281;-300;-306.9;73;72.9;-14;-14.4;28.9;0.0;
15/06/2019 19:53:12;100;0;234.72;17;-24.21;-2.86;29.8;10.50;70025;5123.400;-12837.754;281;-300;-305.0;73;72.9;-11;-10.8;28.8;0.0;
15/06/2019 19:53:32;100;0;228.49;17;-24.71;-1.30;33.4;10.50;69992;5123.400;-12837.754;281;-300;-306.9;73;72.9;-14;-14.0;28.8;0.0;
15/06/2019 19:53:52;100;0;225.03;17;-24.81;-3.06;37.4;10.50;69969;5123.400;-12837.754;281;-300;-305.0;73;72.9;-15;-14.9;28.9;0.0;
15/06/2019 19:54:12;100;0;221.41;17;-25.24;-3.64;41.2;10.50;69954;5123.400;-12837.754;281;-300;-305.0;73;72.9;-17;-17.6;28.8;0.0;
15/06/2019 19:54:32;100;0;218.23;17;-24.95;-4.64;45.1;10.50;69937;5123.400;-12837.754;281;-300;-305.0;73;72.9;-19;-19.4;28.9;0.0;
15/06/2019 19:54:52;100;0;215.67;17;-24.98;-5.53;49.0;10.50;69934;5123.400;-12837.754;281;-300;-306.9;73;72.9;-21;-21.7;28.8;0.0;
15/06/2019 19:55:12;100;0;211.80;17;-24.68;-6.56;53.0;10.50;69929;5123.400;-12837.754;281;-300;-303.0;73;72.9;-24;-23.9;28.9;0.0;
15/06/2019 19:55:32;100;0;215.03;17;-24.61;-7.87;56.7;10.50;69913;5123.400;-12837.754;281;-300;-305.0;73;72.9;-23;-23.0;28.8;0.0;
15/06/2019 19:55:52;100;0;215.24;17;-24.38;-6.70;60.7;10.50;69903;5123.400;-12837.754;281;-300;-305.0;73;72.9;-24;-23.9;28.9;0.0;
15/06/2019 19:56:12;100;0;214.34;17;-24.63;-7.78;64.4;10.50;69889;5123.400;-12837.754;281;-300;-306.9;73;72.9;-25;-24.8;28.9;0.0;
15/06/2019 19:56:32;100;0;210.62;17;-24.69;-7.82;68.3;10.50;69889;5123.400;-12837.754;281;-300;-305.0;73;72.9;-27;-27.1;28.9;0.0;
15/06/2019 19:56:52;100;0;209.44;17;-25.29;-9.40;72.1;10.50;69881;5123.400;-12837.754;281;-300;-306.9;73;73.0;-27;-27.5;28.9;0.0;
15/06/2019 19:57:12;100;0;206.90;17;-24.65;-9.04;75.9;10.50;69870;5123.400;-12837.754;281;-300;-305.0;73;72.9;-28;-28.0;28.9;0.0;
15/06/2019 19:57:32;100;0;202.39;17;-24.56;-9.84;79.6;10.50;69856;5123.400;-12837.754;281;-300;-305.0;73;72.9;-29;-29.3;28.9;0.0;
15/06/2019 19:57:52;100;0;194.37;17;-24.34;-10.20;83.4;10.50;69831;5123.400;-12837.754;281;-300;-305.0;73;72.9;-32;-32.0;28.9;0.0;
15/06/2019 19:58:12;100;0;190.17;17;-24.21;-11.59;87.1;10.40;69826;5123.400;-12837.754;281;-300;-305.0;73;72.9;-33;-32.9;28.8;0.0;
15/06/2019 19:58:32;100;0;182.63;17;-24.00;-12.03;90.6;10.40;69810;5123.400;-12837.754;281;-300;-305.0;73;72.9;-35;-35.2;28.8;0.0;
15/06/2019 19:58:52;100;0;195.80;17;-22.88;-13.71;93.8;10.40;69805;5123.400;-12837.754;281;-300;-305.0;73;72.9;-26;-25.7;28.8;0.0;
15/06/2019 19:59:12;100;0;205.39;17;-22.98;-8.40;96.9;10.40;69791;5123.400;-12837.754;281;-300;-305.0;73;72.9;-21;-21.2;28.8;0.0;
15/06/2019 19:59:32;100;0;215.42;17;-22.56;-5.95;100.0;10.40;69775;5123.400;-12837.754;281;-300;-305.0;73;72.9;-18;-18.1;28.9;0.0;
15/06/2019 19:59:52;100;0;219.91;17;-22.46;-4.55;102.9;10.40;69767;5123.400;-12837.754;281;-300;-305.0;73;73.0;-19;-19.0;28.9;0.0;
15/06/2019 20:00:12;100;0;219.05;17;-22.59;-5.46;105.8;10.30;69760;5123.400;-12837.754;281;-300;-305.0;73;72.9;-21;-21.2;28.8;0.0;
15/06/2019 20:00:32;100;0;221.52;17;-22.35;-6.71;108.7;10.30;69750;5123.400;-12837.754;281;-300;-305.0;73;72.9;-21;-21.7;28.9;0.0;
15/06/2019 20:00:52;100;0;227.36;17;-22.34;-6.80;111.3;10.30;69749;5123.400;-12837.754;281;-300;-305.0;73;72.9;-18;-18.1;28.9;0.0;
15/06/2019 20:01:12;100;0;229.34;17;-21.94;-4.65;114.1;10.30;69744;5123.400;-12837.754;281;-300;-305.0;73;73.0;-19;-19.4;28.9;0.0;
15/06/2019 20:01:32;100;0;226.91;17;-21.79;-5.61;116.9;10.30;69739;5123.400;-12837.754;281;-300;-305.0;73;72.9;-22;-22.1;28.9;0.0;
15/06/2019 20:01:52;100;0;228.34;17;-20.45;-6.94;119.6;10.30;69721;5123.400;-12837.754;281;-300;-305.0;73;73.0;-21;-21.2;28.8;0.0;
15/06/2019 20:02:12;100;0;233.99;17;-20.21;-6.13;122.2;10.20;69715;5123.400;-12837.754;281;-300;-305.0;73;72.9;-18;-18.1;28.9;0.0;
15/06/2019 20:02:32;100;0;235.10;17;-19.96;-4.45;124.7;10.20;69704;5123.400;-12837.754;281;-300;-306.9;73;72.9;-18;-17.1;28.8;0.0;
15/06/2019 20:02:52;100;0;230.11;17;-20.11;-4.52;127.3;10.20;69687;5123.400;-12837.754;281;-300;-305.0;73;72.9;-22;-22.1;28.8;0.0;
15/06/2019 20:03:12;100;0;225.61;17;-20.24;-6.95;129.8;10.20;69682;5123.400;-12837.754;281;-300;-306.9;73;72.9;-24;-24.4;28.9;0.0;
15/06/2019 20:03:32;100;0;227.12;17;-20.11;-8.10;132.2;10.10;69671;5123.400;-12837.754;281;-300;-305.0;73;72.9;-22;-22.1;28.9;0.0;
15/06/2019 20:03:52;100;0;225.90;17;-19.88;-6.50;134.7;10.10;69655;5123.400;-12837.754;281;-300;-305.0;73;72.9;-23;-23.0;28.8;0.0;
15/06/2019 20:04:12;100;0;227.32;17;-19.86;-7.65;137.1;10.10;69650;5123.400;-12837.754;281;-300;-305.0;73;72.9;-21;-21.2;28.9;0.0;
15/06/2019 20:04:33;100;0;228.41;17;-19.71;-6.13;139.6;10.10;69655;5123.400;-12837.754;281;-300;-305.0;73;72.9;-21;-20.8;28.8;0.0;
15/06/2019 20:04:53;100;0;229.25;17;-19.87;-6.12;141.9;10.10;69645;5123.400;-12837.754;281;-300;-305.0;73;72.9;-21;-20.8;28.9;0.0;
15/06/2019 20:05:13;100;0;227.24;17;-19.99;-6.19;144.4;10.00;69634;5123.400;-12837.754;281;-300;-305.0;73;72.9;-22;-22.6;28.9;0.0;
15/06/2019 20:05:33;100;0;227.00;17;-19.53;-7.26;146.8;10.00;69635;5123.400;-12837.754;281;-300;-305.0;73;72.9;-22;-22.6;28.9;0.0;
15/06/2019 20:05:53;100;0;227.62;17;-19.75;-7.30;149.2;10.00;69620;5123.400;-12837.754;281;-300;-306.9;73;72.9;-22;-23.0;28.9;0.0;
15/06/2019 20:06:13;100;0;227.27;17;-19.84;-7.28;151.8;10.00;69618;5123.400;-12837.754;281;-300;-305.0;73;72.9;-22;-23.0;28.9;0.0;
15/06/2019 20:06:33;100;0;227.15;17;-19.71;-7.32;154.0;9.90;69611;5123.400;-12837.754;281;-300;-305.0;73;72.9;-22;-22.6;28.9;0.0;
15/06/2019 20:06:53;100;0;229.92;17;-19.29;-7.25;156.6;9.90;69604;5123.400;-12837.754;281;-300;-305.0;73;72.9;-21;-21.2;28.8;0.0;
15/06/2019 20:07:13;100;0;228.26;17;-19.29;-6.13;159.1;9.90;69601;5123.400;-12837.754;281;-300;-305.0;73;72.9;-21;-20.3;28.9;0.0;
15/06/2019 20:07:33;100;0;229.89;17;-19.24;-6.06;161.4;9.90;69587;5123.400;-12837.754;281;-300;-305.0;73;73.0;-21;-20.3;28.9;0.0;
15/06/2019 20:07:53;100;0;228.77;17;-18.76;-6.26;163.8;9.90;69581;5123.400;-12837.754;281;-300;-305.0;73;72.9;-22;-22.1;28.8;0.0;
15/06/2019 20:08:13;100;0;228.65;17;-19.42;-7.18;166.0;9.80;69579;5123.400;-12837.754;281;-300;-305.0;73;72.9;-22;-22.6;28.9;0.0;
15/06/2019 20:08:33;100;0;227.83;17;-19.19;-7.18;168.4;9.80;69565;5123.400;-12837.754;281;-300;-305.0;73;72.9;-22;-22.6;28.9;0.0;
15/06/2019 20:08:53;100;0;227.46;17;-18.94;-7.18;170.8;9.80;69561;5123.400;-12837.754;281;-300;-305.0;73;73.0;-22;-22.6;28.8;44.5;
15/06/2019 20:09:13;100;0;230.99;17;-18.59;-7.33;173.0;9.70;69559;5123.400;-12837.754;281;-300;-306.9;73;72.9;-20;-19.9;28.9;42.2;
15/06/2019 20:09:33;100;0;234.49;17;-19.22;-5.55;175.2;9.70;69553;5123.400;-12837.754;281;-300;-305.0;73;72.9;-18;-17.6;28.8;39.8;
15/06/2019 20:09:53;100;0;238.85;17;-19.27;-4.58;177.3;9.70;69542;5123.400;-12837.754;281;-300;-305.0;73;73.0;-17;-17.1;28.9;37.6;
15/06/2019 20:10:13;100;0;243.38;17;-18.89;-4.69;179.4;9.70;69530;5123.400;-12837.754;281;-300;-305.0;73;72.9;-15;-14.9;28.8;35.5;
15/06/2019 20:10:33;100;0;244.99;17;-19.24;-3.24;181.4;9.70;69524;5123.400;-12837.754;281;-300;-305.0;73;72.9;-16;-15.8;28.9;33.4;
15/06/2019 20:10:53;100;0;250.31;17;-19.19;-4.34;183.5;9.60;69510;5123.400;-12837.754;281;-300;-306.9;73;72.9;-14;-14.0;28.9;31.4;
15/06/2019 20:11:13;100;0;252.60;17;-18.41;-2.68;185.5;9.60;69512;5123.400;-12837.754;281;-300;-305.0;73;72.9;-14;-13.1;28.9;29.3;
15/06/2019 20:11:33;100;0;253.62;17;-19.06;-2.72;187.4;9.60;69492;5123.400;-12837.754;281;-300;-305.0;73;72.9;-15;-14.9;28.9;27.3;
15/06/2019 20:11:53;100;0;254.59;17;-18.48;-3.74;189.5;9.50;69491;5123.400;-12837.754;281;-300;-305.0;73;72.9;-15;-15.3;28.8;25.2;
15/06/2019 20:12:13;100;0;254.43;17;-18.74;-4.00;191.5;9.50;69489;5123.400;-12837.754;281;-300;-306.9;73;72.9;-16;-15.8;28.8;23.2;
15/06/2019 20:12:33;100;0;255.00;17;-17.89;-4.11;193.7;9.50;69482;5123.400;-12837.754;281;-300;-305.0;73;73.0;-15;-14.9;28.8;20.9;
15/06/2019 20:12:53;100;0;257.56;17;-19.05;-3.21;195.7;9.50;69486;5123.400;-12837.754;281;-300;-305.0;73;72.9;-15;-14.4;28.9;18.8;
15/06/2019 20:13:13;118;0;256.02;17;-18.05;-3.07;197.9;9.40;69485;5123.400;-12837.754;281;150;-293.1;57;56.8;0;0.5;28.9;16.7;
15/06/2019 20:13:23;118;0;177.19;17;2.82;4.09;198.7;9.40;69383;5123.400;-12837.754;281;150;-134.7;57;56.9;0;0.5;28.3;16.7;
15/06/2019 20:13:33;118;0;188.11;17;20.42;3.60;198.4;9.40;69176;5123.400;-12837.754;281;150;19.8;57;57.1;0;0.5;28.3;-1.0;
15/06/2019 20:13:43;118;0;192.36;17;24.36;3.39;197.4;9.40;68919;5123.400;-12837.754;281;150;154.5;57;56.9;0;0.5;28.3;-1.0;
15/06/2019 20:13:53;118;0;244.23;17;24.40;4.22;196.3;9.40;68705;5123.400;-12837.754;281;150;154.5;57;56.9;0;0.5;28.8;-1.0;
15/06/2019 20:14:03;118;0;244.03;17;26.62;3.46;194.7;9.40;68733;5123.400;-12837.754;281;150;154.5;57;57.1;0;0.5;28.8;-1.0;
15/06/2019 20:14:13;117;0;241.26;17;28.04;3.22;192.9;9.40;68721;5123.400;-12837.754;281;150;156.4;57;57.1;0;0.5;28.9;-1.0;
15/06/2019 20:14:33;117;0;235.03;17;28.54;3.80;188.5;9.40;68733;5123.400;-12837.754;281;150;156.4;57;56.9;28;28.4;28.8;-1.0;
15/06/2019 20:14:53;117;0;240.66;17;28.73;17.63;183.5;9.30;68717;5123.400;-12837.754;281;150;156.4;57;56.9;21;21.2;28.9;-1.0;
15/06/2019 20:15:13;117;0;238.92;17;29.78;13.07;178.7;9.30;68716;5123.400;-12837.754;281;150;156.4;57;56.9;21;20.8;28.8;-1.0;
15/06/2019 20:15:33;117;0;238.14;17;29.05;13.41;173.5;9.30;68716;5123.400;-12837.754;281;150;156.4;57;56.9;20;19.9;28.9;-1.0;
15/06/2019 20:15:53;117;0;240.20;17;27.94;12.63;168.4;9.30;68720;5123.400;-12837.754;281;150;156.4;57;56.9;19;19.0;28.9;-1.0;
15/06/2019 20:16:13;117;0;246.54;17;26.99;12.29;163.7;9.20;68723;5123.400;-12837.754;281;150;156.4;57;56.9;16;15.8;28.9;-1.0;
15/06/2019 20:16:33;117;0;252.22;17;27.28;10.61;159.5;9.20;68726;5123.400;-12837.754;281;150;156.4;57;56.9;13;13.1;28.9;-1.0;
15/06/2019 20:16:53;117;0;261.57;17;27.07;9.25;154.9;9.20;68738;5123.400;-12837.754;281;150;156.4;57;56.9;10;9.9;28.9;-1.0;
15/06/2019 20:17:13;117;0;264.17;17;27.13;7.96;150.6;9.20;68738;5123.400;-12837.754;281;150;156.4;57;56.9;10;9.5;28.9;-1.0;
15/06/2019 20:17:33;117;0;270.89;17;26.87;7.62;146.3;9.20;68761;5123.400;-12837.754;281;150;156.4;57;56.9;9;8.6;28.9;-1.0;
15/06/2019 20:17:53;117;0;270.28;17;26.69;7.19;142.0;9.20;68770;5123.400;-12837.754;281;150;156.4;57;56.9;11;11.3;28.9;-1.0;
15/06/2019 20:18:13;117;0;277.60;17;26.78;8.88;137.8;9.20;68762;5123.400;-12837.754;281;150;156.4;57;56.9;7;6.8;28.9;-1.0;
15/06/2019 20:18:33;117;0;280.30;17;26.78;6.24;133.5;9.20;68774;5123.400;-12837.754;281;150;156.4;57;56.9;7;6.3;28.9;-1.0;
15/06/2019 20:18:53;117;0;276.75;17;26.07;6.29;129.4;9.20;68774;5123.400;-12837.754;281;150;156.4;57;56.9;10;9.9;28.8;-1.0;
15/06/2019 20:19:13;117;0;281.25;17;25.74;8.13;125.5;9.10;68781;5123.400;-12837.754;281;150;156.4;57;56.9;7;6.8;28.8;-1.0;
15/06/2019 20:19:33;117;0;283.66;17;25.79;6.26;121.9;9.20;68786;5123.400;-12837.754;281;150;156.4;57;56.9;6;5.9;28.9;-1.0;
15/06/2019 20:19:53;117;0;274.10;17;26.25;6.04;118.1;9.10;68798;5123.400;-12837.754;281;150;156.4;57;56.9;11;11.3;28.8;-1.0;
15/06/2019 20:20:13;117;0;268.82;17;24.68;8.91;114.4;9.10;68802;5123.400;-12837.754;281;150;156.4;57;56.9;13;13.1;28.8;-1.0;
15/06/2019 20:20:33;117;0;271.99;17;24.50;9.82;111.2;9.10;68813;5123.400;-12837.754;281;150;156.4;57;56.9;10;9.9;28.8;-1.0;
15/06/2019 20:20:53;117;0;275.39;17;24.23;7.78;107.5;9.10;68816;5123.400;-12837.754;281;150;158.4;57;56.9;7;7.2;28.8;-1.0;
15/06/2019 20:21:13;117;0;283.03;17;24.13;6.35;104.0;9.10;68829;5123.400;-12837.754;281;150;156.4;57;56.9;2;1.8;28.8;-1.0;
15/06/2019 20:21:33;117;0;292.96;17;23.79;3.66;100.5;9.10;68835;5123.400;-12837.754;281;150;156.4;57;56.9;-1;-1.4;28.9;-1.0;
15/06/2019 20:21:53;117;0;294.76;17;23.87;2.24;97.0;9.20;68840;5123.400;-12837.754;281;150;156.4;57;56.9;0;0.0;28.9;-1.0;
15/06/2019 20:22:13;117;0;298.12;17;23.49;3.62;93.4;9.10;68841;5123.400;-12837.754;281;150;156.4;57;56.9;-1;-0.9;28.8;-1.0;
15/06/2019 20:22:33;117;0;306.66;17;23.28;2.34;90.0;9.20;68854;5123.400;-12837.754;281;150;158.4;57;56.9;-5;-5.0;28.9;-1.0;
15/06/2019 20:22:53;117;0;314.83;17;22.67;0.66;86.7;9.20;68858;5123.400;-12837.754;281;150;156.4;57;56.9;-9;-9.5;28.8;-1.0;
15/06/2019 20:23:13;117;0;301.36;17;21.45;-1.59;84.1;9.20;68878;5123.400;-12837.754;281;150;158.4;57;56.9;0;0.0;28.9;-1.0;
15/06/2019 20:23:33;117;0;295.79;17;20.59;3.67;81.6;9.20;68877;5123.400;-12837.754;281;150;156.4;57;56.9;1;0.9;28.8;-1.0;
15/06/2019 20:23:53;117;0;298.16;17;20.50;4.15;79.3;9.20;68889;5123.400;-12837.754;281;150;156.4;57;56.9;-2;-2.3;28.8;-1.0;
15/06/2019 20:24:13;117;0;296.17;17;20.62;2.04;77.2;9.20;68889;5123.400;-12837.754;281;150;156.4;57;56.9;-2;-2.7;28.9;-1.0;
15/06/2019 20:24:33;117;0;293.56;17;20.00;2.00;75.0;9.20;68895;5123.400;-12837.754;281;150;156.4;57;56.9;-1;-0.9;28.8;-1.0;
15/06/2019 20:24:53;117;0;290.00;17;20.08;3.24;72.9;9.20;68917;5123.400;-12837.754;281;150;156.4;57;56.9;-1;0.0;28.9;-1.0;
15/06/2019 20:25:13;117;0;289.01;17;20.12;3.26;70.7;9.20;68922;5123.400;-12837.754;281;150;156.4;57;56.9;-2;-1.8;28.8;-1.0;
15/06/2019 20:25:33;117;0;291.25;17;19.56;2.15;68.5;9.20;68941;5123.400;-12837.754;281;150;156.4;57;56.9;-4;-4.1;28.9;-1.0;
15/06/2019 20:25:53;117;0;291.14;17;19.78;1.18;66.5;9.20;68941;5123.400;-12837.754;281;150;156.4;57;56.9;-5;-5.0;28.9;-1.0;
15/06/2019 20:26:13;117;0;291.80;17;19.77;0.73;64.2;9.30;68955;5123.400;-12837.754;281;150;156.4;57;56.9;-5;-5.9;28.8;-1.0;
15/06/2019 20:26:33;117;0;290.81;17;19.76;0.76;62.0;9.30;68958;5123.400;-12837.754;281;150;158.4;57;56.9;-6;-5.9;28.9;-1.0;
15/06/2019 20:26:53;117;0;288.99;17;19.78;0.43;59.7;9.30;68967;5123.400;-12837.754;281;150;158.4;57;56.9;-5;-5.0;28.8;-1.0;
15/06/2019 20:27:13;117;0;284.71;17;19.71;1.23;57.4;9.30;68988;5123.400;-12837.754;281;150;156.4;57;56.9;-4;-3.6;28.8;-1.0;
15/06/2019 20:27:33;117;0;281.20;17;19.63;2.05;55.2;9.30;68979;5123.400;-12837.754;281;150;156.4;57;56.9;-4;-3.2;28.8;-1.0;
15/06/2019 20:27:53;117;0;274.13;17;19.45;2.10;52.9;9.30;68987;5123.400;-12837.754;281;150;156.4;57;56.9;-1;-0.9;28.9;-1.0;
15/06/2019 20:28:13;117;0;272.85;17;19.44;3.43;50.7;9.40;68999;5123.400;-12837.754;281;150;156.4;57;56.9;-2;-1.8;28.9;-1.0;
15/06/2019 20:28:33;117;0;272.97;17;19.35;2.31;48.5;9.40;69004;5123.400;-12837.754;281;150;156.4;57;57.1;-4;-4.5;28.8;-1.0;
15/06/2019 20:28:53;117;0;268.54;17;19.35;1.13;46.4;9.40;69007;5123.400;-12837.754;281;150;156.4;57;57.1;-2;-1.8;28.9;-1.0;
15/06/2019 20:29:13;117;0;265.87;17;19.16;2.90;44.3;9.40;69022;5123.400;-12837.754;281;150;156.4;57;56.9;-2;-0.9;28.8;-1.0;
15/06/2019 20:29:33;117;0;266.77;17;19.21;3.04;42.2;9.40;69031;5123.400;-12837.754;281;150;156.4;57;57.1;-3;-3.6;28.8;-1.0;
15/06/2019 20:29:53;117;0;261.82;17;19.07;1.53;39.9;9.50;69042;5123.400;-12837.754;281;150;156.4;57;57.1;-3;-4.1;28.8;-1.0;
15/06/2019 20:30:13;117;0;255.64;17;19.05;1.51;37.8;9.50;69046;5123.400;-12837.754;281;150;156.4;57;57.1;0;0.5;28.8;-1.0;
15/06/2019 20:30:33;117;0;253.91;17;18.85;3.84;35.6;9.50;69049;5123.400;-12837.754;281;150;156.4;57;57.1;0;0.9;28.9;-1.0;
15/06/2019 20:30:53;117;0;250.71;17;18.83;3.88;33.6;9.50;69048;5123.400;-12837.754;281;150;158.4;57;56.9;1;0.9;28.9;-1.0;
15/06/2019 20:31:13;117;0;251.35;17;19.28;3.88;31.5;9.50;69049;5123.400;-12837.754;281;150;156.4;57;56.9;0;-0.5;28.9;-1.0;
15/06/2019 20:31:33;117;0;246.58;17;18.83;3.20;29.3;9.60;69075;5123.400;-12837.754;281;150;156.4;57;56.9;3;3.2;28.8;-1.0;
15/06/2019 20:31:53;117;0;251.21;17;18.40;5.47;27.1;9.60;69080;5123.400;-12837.754;281;150;156.4;57;56.9;0;0.0;28.9;-1.0;
15/06/2019 20:32:13;117;0;250.09;17;17.83;3.06;25.1;9.60;69094;5123.400;-12837.754;281;150;156.4;57;56.9;1;0.9;28.8;-1.0;
15/06/2019 20:32:33;117;0;249.92;17;17.29;4.48;23.1;9.60;69112;5123.400;-12837.754;281;150;156.4;57;57.1;2;1.8;28.8;-1.0;
15/06/2019 20:32:53;117;0;254.79;17;17.35;4.35;21.3;9.60;69131;5123.400;-12837.754;281;150;156.4;57;56.9;0;0.0;28.9;-1.0;
15/06/2019 20:33:13;117;0;258.08;17;17.39;3.14;19.4;9.70;69149;5123.400;-12837.754;281;150;156.4;57;56.9;-1;-1.4;28.8;-1.0;
15/06/2019 20:33:33;117;0;262.54;17;16.75;2.43;17.6;9.70;69180;5123.400;-12837.754;281;150;156.4;57;57.1;-2;-1.8;28.8;-1.0;
15/06/2019 20:33:53;117;0;257.52;17;16.75;2.38;16.0;9.70;69196;5123.400;-12837.754;281;150;156.4;57;56.9;2;2.3;28.9;-1.0;
15/06/2019 20:34:13;117;0;254.99;17;16.25;4.91;14.2;9.80;69239;5123.400;-12837.754;281;150;156.4;57;56.9;4;4.1;28.9;-1.0;
15/06/2019 20:34:33;117;0;253.82;17;16.34;5.78;12.6;9.80;69278;5123.400;-12837.754;281;150;156.4;57;57.1;4;4.5;28.8;-1.0;
15/06/2019 20:34:53;117;0;250.82;17;16.23;5.64;10.7;9.90;69309;5123.400;-12837.754;281;150;156.4;57;56.9;6;6.3;28.9;-1.0;
