Timestamp;NavState;SecurityLevel;Heading;Declination;Pitch;Roll;Depth;Temperature;Pa;Lat;Lon;DesiredH;BallastCmd;BallastPos;LinCmd;LinPos;AngCmd;AngPos;Voltage;Altitude;
14/06/2019 23:57:20;117;0;205.54;17;15.11;1.78;9.6;9.60;69262;5130.310;-12824.790;227;150;156.4;57;57.2;-2;-2.7;29.1;-1.0;
14/06/2019 23:57:30;115;0;200.56;17;14.39;2.00;8.8;9.60;69287;5130.310;-12824.790;227;500;170.3;100;100.3;0;0.5;29.0;-1.0;
14/06/2019 23:57:40;115;0;167.37;17;-27.60;4.05;8.4;9.70;69223;5130.310;-12824.790;227;500;318.8;100;100.0;0;0.5;28.7;-1.0;
14/06/2019 23:57:50;115;0;191.89;17;-61.43;1.30;9.2;9.70;69031;5130.310;-12824.790;227;500;469.3;100;100.1;0;0.5;28.7;-1.0;
14/06/2019 23:58:00;115;0;250.95;17;-55.52;0.62;8.4;9.70;68793;5130.310;-12824.790;227;500;505.0;100;100.0;0;0.5;28.7;-1.0;
14/06/2019 23:58:10;115;0;304.29;17;-39.36;1.96;5.9;9.80;68764;5130.310;-12824.790;227;500;505.0;100;100.0;0;0.5;29.0;-1.0;
14/06/2019 23:58:20;116;0;48.09;17;-67.55;-42.67;2.1;9.80;68783;5130.310;-12824.790;227;500;505.0;100;100.0;0;0.5;29.0;-1.0;
14/06/2019 23:58:40;116;0;69.39;17;-34.53;7.08;1.6;9.90;68831;5130.310;-12824.790;227;500;506.9;100;100.0;0;0.5;29.0;-1.0;
14/06/2019 23:59:00;116;0;55.26;17;-23.95;3.40;1.3;10.00;68865;5128.525;-12826.340;227;500;506.9;100;99.9;0;0.5;29.0;-1.0;
14/06/2019 23:59:20;116;0;25.35;17;-43.78;4.19;1.8;10.10;68887;5128.522;-12826.341;258;500;506.9;100;100.0;0;0.5;29.0;-1.0;
14/06/2019 23:59:40;116;0;336.17;17;-22.90;3.50;1.3;10.30;68910;5128.510;-12826.350;258;500;508.9;100;99.9;0;0.5;29.0;-1.0;
15/06/2019 00:00:48;116;0;279.25;17;-12.50;0.28;1.3;10.80;68973;5128.509;-12826.350;258;500;508.9;100;99.9;0;0.5;29.0;-1.0;
15/06/2019 00:01:08;116;0;284.47;17;-7.41;-0.76;1.2;11.00;68980;5128.507;-12826.357;258;500;508.9;100;99.9;0;0.5;29.0;-1.0;
15/06/2019 00:01:28;116;0;282.36;17;-14.59;5.26;1.2;11.20;68991;5128.502;-12826.358;258;500;510.9;100;99.9;0;0.5;29.1;-1.0;
15/06/2019 00:01:59;116;0;271.86;17;-29.92;3.41;1.3;11.40;69025;5128.504;-12826.355;258;500;506.9;100;99.9;0;0.5;29.0;-1.0;
15/06/2019 00:02:19;116;0;292.15;17;-20.45;3.24;1.3;11.60;69031;5128.525;-12826.336;258;500;508.9;100;99.9;0;0.5;29.0;-1.0;
15/06/2019 00:02:39;116;0;293.52;17;-11.20;3.08;1.2;11.80;69026;5128.451;-12826.422;258;500;508.9;100;99.9;0;0.5;29.0;-1.0;
15/06/2019 00:07:22;116;0;292.45;17;-23.81;5.13;1.4;13.00;69121;5128.448;-12826.427;258;500;508.9;100;99.9;0;0.5;29.0;-1.0;
15/06/2019 00:07:42;116;0;269.56;17;-28.53;-0.23;1.4;13.00;69123;5128.448;-12826.429;258;500;508.9;100;100.0;0;0.5;29.0;-1.0;
15/06/2019 00:08:02;116;0;252.17;17;-10.11;-0.30;1.2;13.10;69132;5128.439;-12826.436;258;500;506.9;100;99.9;0;0.5;29.0;-1.0;
15/06/2019 00:08:34;116;0;275.73;17;-5.90;3.48;1.2;13.20;69132;5128.439;-12826.435;258;500;508.9;100;99.9;0;0.5;29.0;-1.0;
15/06/2019 00:08:54;116;0;290.45;17;-6.55;6.26;1.2;13.30;69146;5128.437;-12826.442;258;500;506.9;100;99.9;0;0.5;29.0;-1.0;
15/06/2019 00:09:14;116;0;259.87;17;-4.63;4.25;1.2;13.30;69144;5128.431;-12826.452;258;500;508.9;100;99.9;0;0.5;29.0;-1.0;
15/06/2019 00:09:42;116;0;269.31;17;-3.69;8.47;1.2;13.40;69153;5128.431;-12826.456;258;500;508.9;100;99.9;0;0.5;29.0;-1.0;
15/06/2019 00:10:02;116;0;278.69;17;-9.92;-0.29;1.2;13.50;69168;5128.433;-12826.486;258;500;508.9;100;99.9;0;0.5;29.0;-1.0;
15/06/2019 00:10:22;116;0;260.54;17;-4.08;0.38;1.2;13.70;69160;5128.386;-12826.531;258;500;508.9;100;99.9;0;0.5;29.0;-1.0;
15/06/2019 00:15:05;116;0;268.73;17;-8.50;3.27;1.2;14.50;69206;5128.386;-12826.531;258;500;508.9;100;99.9;0;0.5;29.0;-1.0;
15/06/2019 00:15:25;116;0;280.37;17;-4.46;3.15;1.1;14.60;69218;5128.381;-12826.537;258;500;508.9;100;99.9;0;0.5;29.0;-1.0;
15/06/2019 00:15:45;116;0;275.16;17;-7.82;6.90;1.2;14.60;69219;5128.380;-12826.542;258;500;508.9;100;99.9;0;0.5;29.0;-1.0;
15/06/2019 00:16:05;116;0;270.25;17;-9.34;1.52;1.3;14.60;69213;5128.377;-12826.545;258;500;508.9;100;99.9;0;0.5;29.0;-1.0;
15/06/2019 00:16:25;116;0;271.60;17;-5.92;1.10;1.2;14.70;69219;5128.375;-12826.549;258;500;508.9;100;99.9;0;0.5;29.0;-1.0;
15/06/2019 00:16:45;116;0;295.48;17;-11.24;-1.64;1.2;14.70;69219;5128.373;-12826.553;258;500;508.9;100;99.9;0;0.5;29.0;-1.0;
15/06/2019 00:17:05;116;0;293.76;17;-28.19;4.73;1.4;14.80;69220;5128.368;-12826.559;258;500;506.9;100;99.9;0;0.5;29.0;-1.0;
15/06/2019 00:17:25;116;0;279.62;17;-19.43;1.78;1.2;14.80;69241;5128.366;-12826.562;258;500;508.9;100;99.9;0;0.5;29.0;-1.0;
15/06/2019 00:17:45;116;0;290.91;17;-6.96;-4.04;1.2;14.90;69238;5128.363;-12826.566;258;500;508.9;100;99.9;0;0.5;29.0;-1.0;
15/06/2019 00:18:05;116;0;283.06;17;-5.71;1.52;1.1;14.90;69241;5128.359;-12826.578;258;500;508.9;100;99.9;0;0.5;29.0;-1.0;
15/06/2019 00:18:50;116;0;293.67;17;-4.28;4.19;1.2;15.00;69245;5128.360;-12826.579;258;500;508.9;100;99.9;0;0.5;28.9;-1.0;
15/06/2019 00:19:10;116;0;293.69;17;-23.52;2.93;1.3;15.10;69240;5128.355;-12826.586;258;500;508.9;100;99.9;0;0.5;29.0;-1.0;
15/06/2019 00:19:30;116;0;300.87;17;-15.35;2.74;1.2;15.20;69265;5128.313;-12826.649;258;500;506.9;100;99.9;0;0.5;29.0;-1.0;
15/06/2019 00:24:13;116;0;297.63;17;-29.57;2.27;1.5;15.60;69280;5128.312;-12826.651;258;500;506.9;100;99.9;0;0.5;29.0;-1.0;
15/06/2019 00:24:33;116;0;286.93;17;-5.84;3.86;1.2;15.60;69291;5128.309;-12826.652;258;500;508.9;100;99.9;0;0.5;29.0;-1.0;
15/06/2019 00:24:53;116;0;266.99;17;-7.84;2.01;1.2;15.60;69286;5128.308;-12826.654;258;500;508.9;100;99.9;0;0.5;29.0;-1.0;
15/06/2019 00:25:13;116;0;257.16;17;-9.52;0.20;1.2;15.60;69290;5128.304;-12826.659;258;500;506.9;100;99.9;0;0.5;29.0;-1.0;
15/06/2019 00:25:33;116;0;272.34;17;-5.72;5.79;1.2;15.70;69282;5128.300;-12826.664;258;500;506.9;100;99.9;0;0.5;29.0;-1.0;
15/06/2019 00:25:53;116;0;287.57;17;-24.41;3.02;1.4;15.70;69286;5128.296;-12826.670;258;500;508.9;100;99.9;0;0.5;29.0;-1.0;
15/06/2019 00:26:13;116;0;295.91;17;-11.25;3.33;1.3;15.70;69300;5128.295;-12826.671;258;500;506.9;100;99.9;0;0.5;29.0;-1.0;
15/06/2019 00:26:33;116;0;293.85;17;-19.61;7.03;1.3;15.70;69284;5128.293;-12826.676;258;500;506.9;100;99.9;0;0.5;29.0;-1.0;
15/06/2019 00:26:53;116;0;269.40;17;-8.08;-1.16;1.1;15.80;69299;5128.288;-12826.687;258;500;508.9;100;99.9;0;0.5;29.0;-1.0;
15/06/2019 00:27:32;116;0;291.83;17;-12.40;5.41;1.1;15.80;69303;5128.288;-12826.688;266;500;508.9;100;99.9;0;0.5;29.0;-1.0;
15/06/2019 00:27:52;116;0;278.82;17;-8.33;1.71;1.2;15.80;69304;5128.287;-12826.698;266;500;508.9;100;99.9;0;0.5;29.0;-1.0;
15/06/2019 00:28:12;116;0;282.46;17;-9.70;3.64;1.3;15.90;69305;5128.281;-12826.695;266;500;508.9;100;99.9;0;0.5;29.0;-1.0;
15/06/2019 00:28:32;116;0;280.57;17;-7.52;1.22;1.2;16.00;69304;5128.278;-12826.700;266;500;508.9;100;99.9;0;0.5;29.0;-1.0;
15/06/2019 00:28:52;116;0;287.05;17;-4.33;1.76;1.1;16.00;69307;5128.276;-12826.705;266;500;506.9;100;99.9;0;0.5;29.0;-1.0;
15/06/2019 00:29:12;110;0;280.18;17;-14.64;4.57;1.3;16.10;69311;5128.276;-12826.705;266;-300;400.0;100;99.9;0;0.5;29.0;-1.0;
15/06/2019 00:29:22;110;0;266.47;17;-27.98;3.69;1.3;16.10;69561;5128.276;-12826.705;266;-300;247.5;100;99.9;0;0.5;28.9;-1.0;
15/06/2019 00:29:32;110;0;305.28;17;-29.39;4.26;1.6;16.10;69766;5128.276;-12826.705;266;-300;81.2;100;100.0;0;0.5;28.9;-1.0;
15/06/2019 00:29:42;110;0;312.76;17;-58.19;6.50;2.2;16.10;70033;5128.276;-12826.705;266;-300;-105.0;100;100.1;0;0.5;28.9;-1.0;
15/06/2019 00:29:52;110;0;321.38;17;-62.14;0.28;3.2;16.10;70338;5128.276;-12826.705;266;-300;-299.0;91;90.9;0;0.5;28.9;-1.0;
15/06/2019 00:30:02;110;0;322.64;17;-57.53;4.00;5.3;16.10;70660;5128.276;-12826.705;266;-300;-301.0;73;73.0;0;0.5;29.0;-1.0;
15/06/2019 00:30:12;100;0;314.51;17;-40.83;3.76;8.5;16.00;70631;5128.276;-12826.705;266;-300;-301.0;73;73.0;0;0.5;29.0;-1.0;
15/06/2019 00:30:32;100;0;294.20;17;-28.59;4.04;13.9;16.00;70581;5128.276;-12826.705;266;-300;-297.0;73;73.0;27;27.1;29.0;0.0;
15/06/2019 00:30:52;100;0;276.65;17;-24.76;16.36;18.4;15.90;70512;5128.276;-12826.705;266;-300;-297.0;73;73.0;10;9.5;29.0;0.0;
15/06/2019 00:31:12;100;0;267.46;17;-25.25;7.85;22.1;15.80;70469;5128.276;-12826.705;266;-300;-295.0;73;72.9;4;3.6;29.0;0.0;
15/06/2019 00:31:32;100;0;254.54;17;-25.30;4.76;26.2;15.70;70417;5128.276;-12826.705;266;-300;-295.0;73;72.9;-1;-0.9;29.0;0.0;
15/06/2019 00:31:52;100;0;252.72;17;-24.58;2.71;30.4;15.60;70352;5128.276;-12826.705;266;-300;-295.0;73;72.9;0;0.0;29.0;0.0;
15/06/2019 00:32:12;100;0;246.58;17;-24.25;3.69;34.1;15.50;70300;5128.276;-12826.705;266;-300;-297.0;73;72.9;0;0.9;29.1;0.0;
15/06/2019 00:32:32;100;0;236.34;17;-24.87;3.63;37.7;15.40;70257;5128.276;-12826.705;266;-300;-295.0;73;72.9;-5;-5.0;29.0;0.0;
15/06/2019 00:32:52;100;0;234.46;17;-25.01;1.14;41.5;15.20;70212;5128.276;-12826.705;266;-300;-295.0;73;72.9;-4;-4.1;29.0;0.0;
15/06/2019 00:33:12;100;0;223.63;17;-24.34;1.70;45.2;15.10;70186;5128.276;-12826.705;266;-300;-295.0;73;72.9;-9;-9.0;29.0;0.0;
15/06/2019 00:33:32;100;0;219.80;17;-24.17;-0.94;48.9;15.00;70146;5128.276;-12826.705;266;-300;-295.0;73;72.9;-9;-9.5;29.0;0.0;
15/06/2019 00:33:52;100;0;218.48;17;-24.24;-0.75;52.5;14.90;70133;5128.276;-12826.705;266;-300;-295.0;73;72.9;-8;-8.1;29.0;0.0;
15/06/2019 00:34:12;100;0;212.90;17;-24.57;-0.12;55.9;14.80;70102;5128.276;-12826.705;266;-300;-295.0;73;72.9;-10;-9.9;29.0;0.0;
15/06/2019 00:34:32;100;0;205.09;17;-24.20;-1.49;59.4;14.70;70086;5128.276;-12826.705;266;-300;-297.0;73;72.9;-13;-13.5;29.0;0.0;
15/06/2019 00:34:52;100;0;206.53;17;-23.86;-3.09;63.0;14.60;70070;5128.276;-12826.705;266;-300;-295.0;73;72.9;-11;-10.8;29.0;0.0;
15/06/2019 00:35:12;100;0;202.45;17;-23.95;-1.50;66.6;14.50;70057;5128.276;-12826.705;266;-300;-295.0;73;72.7;-14;-14.0;29.0;0.0;
15/06/2019 00:35:32;100;0;198.13;17;-23.22;-3.22;70.0;14.40;70028;5128.276;-12826.705;266;-300;-295.0;73;72.9;-17;-17.1;29.0;0.0;
15/06/2019 00:35:52;100;0;194.62;17;-23.63;-4.37;73.3;14.30;70023;5128.276;-12826.705;266;-300;-295.0;73;72.9;-20;-19.9;29.0;0.0;
15/06/2019 00:36:12;100;0;194.29;17;-23.35;-5.79;76.6;14.20;70006;5128.276;-12826.705;266;-300;-295.0;73;72.9;-21;-21.2;29.0;0.0;
15/06/2019 00:36:32;100;0;183.20;17;-23.13;-6.55;80.0;14.10;69994;5128.276;-12826.705;266;-300;-295.0;73;72.9;-29;-29.3;29.0;0.0;
15/06/2019 00:36:52;100;0;182.04;17;-23.10;-10.29;83.2;14.00;69971;5128.276;-12826.705;266;-300;-295.0;73;72.9;-30;-29.8;29.0;0.0;
15/06/2019 00:37:12;100;0;180.30;17;-22.84;-10.28;86.4;13.90;69955;5128.276;-12826.705;266;-300;-295.0;73;72.9;-30;-29.8;29.0;0.0;
15/06/2019 00:37:32;100;0;183.39;17;-22.25;-10.42;89.5;13.90;69953;5128.276;-12826.705;266;-300;-293.1;73;72.9;-27;-27.1;29.0;0.0;
15/06/2019 00:37:52;100;0;191.31;17;-21.54;-8.81;92.5;13.80;69931;5128.276;-12826.705;266;-300;-293.1;73;72.9;-23;-23.0;29.0;0.0;
15/06/2019 00:38:12;100;0;202.79;17;-21.62;-6.83;95.3;13.70;69917;5128.276;-12826.705;266;-300;-293.1;73;72.9;-18;-18.1;29.0;0.0;
15/06/2019 00:38:32;100;0;206.75;17;-21.41;-4.46;98.0;13.60;69905;5128.276;-12826.705;266;-300;-295.0;73;72.9;-19;-19.0;29.0;0.0;
15/06/2019 00:38:52;100;0;207.49;17;-21.68;-5.42;100.6;13.50;69901;5128.276;-12826.705;266;-300;-293.1;73;72.9;-20;-19.9;29.0;0.0;
15/06/2019 00:39:12;100;0;208.84;17;-21.21;-5.80;103.4;13.40;69887;5128.276;-12826.705;266;-300;-293.1;73;72.7;-21;-21.2;29.0;0.0;
15/06/2019 00:39:32;100;0;208.42;17;-21.18;-6.52;106.2;13.30;69871;5128.276;-12826.705;266;-300;-293.1;73;72.7;-22;-22.1;29.0;0.0;
15/06/2019 00:39:52;100;0;203.89;17;-21.26;-6.99;108.8;13.30;69877;5128.276;-12826.705;266;-300;-293.1;73;72.7;-25;-24.8;29.0;0.0;
15/06/2019 00:40:12;100;0;203.73;17;-21.45;-8.16;111.4;13.20;69872;5128.276;-12826.705;266;-300;-293.1;73;72.7;-24;-23.9;29.1;0.0;
15/06/2019 00:40:32;100;0;204.77;17;-20.59;-7.36;114.0;13.10;69843;5128.276;-12826.705;266;-300;-293.1;73;72.7;-23;-23.0;29.1;0.0;
15/06/2019 00:40:52;100;0;207.18;17;-20.88;-6.82;116.4;13.00;69839;5128.276;-12826.705;266;-300;-293.1;73;72.9;-22;-22.1;29.0;0.0;
15/06/2019 00:41:12;100;0;202.45;17;-20.74;-6.87;119.0;13.00;69832;5128.276;-12826.705;266;-300;-293.1;73;72.9;-25;-25.3;29.1;0.0;
15/06/2019 00:41:32;100;0;202.53;17;-20.63;-8.46;121.4;12.90;69816;5128.276;-12826.705;266;-300;-293.1;73;72.9;-24;-23.9;29.0;0.0;
15/06/2019 00:41:52;100;0;199.00;17;-20.45;-7.31;123.8;12.80;69806;5128.276;-12826.705;266;-300;-293.1;73;72.9;-26;-26.2;29.0;0.0;
15/06/2019 00:42:12;100;0;200.02;17;-20.12;-8.93;126.1;12.80;69798;5128.276;-12826.705;266;-300;-293.1;73;72.7;-24;-23.5;29.0;0.0;
15/06/2019 00:42:32;100;0;197.94;17;-20.04;-7.17;128.5;12.70;69784;5128.276;-12826.705;266;-300;-293.1;73;72.7;-26;-26.2;29.0;0.0;
15/06/2019 00:42:52;100;0;198.13;17;-20.13;-9.16;130.7;12.60;69774;5128.276;-12826.705;266;-300;-293.1;73;72.9;-25;-24.8;29.0;0.0;
15/06/2019 00:43:12;100;0;202.76;17;-20.07;-7.98;132.9;12.60;69764;5128.276;-12826.705;266;-300;-293.1;73;72.7;-22;-22.1;29.0;0.0;
15/06/2019 00:43:32;100;0;203.19;17;-19.93;-6.51;134.9;12.50;69749;5128.276;-12826.705;266;-300;-293.1;73;72.7;-22;-21.2;29.0;0.0;
15/06/2019 00:43:52;100;0;201.75;17;-19.46;-6.50;137.1;12.40;69740;5128.276;-12826.705;266;-300;-291.1;73;72.9;-24;-23.9;29.0;0.0;
15/06/2019 00:44:12;100;0;202.08;17;-19.40;-7.85;139.2;12.40;69730;5128.276;-12826.705;266;-300;-291.1;73;72.9;-23;-23.0;29.0;0.0;
15/06/2019 00:44:32;100;0;202.10;17;-19.52;-6.95;141.3;12.30;69713;5128.276;-12826.705;266;-300;-293.1;73;72.7;-24;-23.9;29.0;0.0;
15/06/2019 00:44:52;100;0;201.79;17;-19.34;-8.06;143.3;12.20;69706;5128.276;-12826.705;266;-300;-293.1;73;72.9;-24;-24.4;29.0;0.0;
15/06/2019 00:45:12;100;0;203.36;17;-19.43;-8.23;145.3;12.20;69691;5128.276;-12826.705;266;-300;-293.1;73;72.7;-23;-23.0;29.1;0.0;
15/06/2019 00:45:32;100;0;203.23;17;-19.39;-7.17;147.3;12.10;69677;5128.276;-12826.705;266;-300;-293.1;73;72.9;-23;-22.1;29.1;44.0;
15/06/2019 00:45:52;100;0;203.61;17;-19.49;-6.96;149.2;12.00;69664;5128.276;-12826.705;266;-300;-291.1;73;72.9;-23;-22.1;29.1;42.0;
15/06/2019 00:46:12;100;0;206.49;17;-19.50;-7.05;151.2;11.90;69657;5128.276;-12826.705;266;-300;-293.1;73;72.7;-22;-22.1;29.1;40.0;
15/06/2019 00:46:32;100;0;208.57;17;-19.22;-7.01;153.4;11.90;69650;5128.276;-12826.705;266;-300;-293.1;73;72.7;-21;-20.8;29.0;37.9;
15/06/2019 00:46:52;100;0;209.63;17;-18.67;-6.02;155.6;11.80;69638;5128.276;-12826.705;266;-300;-293.1;73;72.7;-21;-20.3;29.0;35.7;
15/06/2019 00:47:12;100;0;210.93;17;-18.86;-5.99;157.5;11.70;69624;5128.276;-12826.705;266;-300;-291.1;73;72.7;-21;-20.3;29.0;33.5;
15/06/2019 00:47:33;100;0;211.49;17;-18.97;-6.00;159.6;11.70;69629;5128.276;-12826.705;266;-300;-293.1;73;72.9;-21;-20.3;29.0;31.4;
15/06/2019 00:47:53;100;0;212.57;17;-18.98;-6.01;161.6;11.60;69602;5128.276;-12826.705;266;-300;-293.1;73;72.7;-21;-20.3;29.0;29.2;
15/06/2019 00:48:13;100;0;213.50;17;-19.04;-6.01;163.6;11.60;69597;5128.276;-12826.705;266;-300;-291.1;73;72.9;-21;-20.3;29.0;27.2;
15/06/2019 00:48:33;100;0;214.06;17;-18.99;-6.05;165.6;11.50;69602;5128.276;-12826.705;266;-300;-293.1;73;72.7;-21;-20.3;29.0;25.2;
15/06/2019 00:48:53;100;0;214.39;17;-19.06;-6.04;167.7;11.40;69595;5128.276;-12826.705;266;-300;-293.1;73;72.9;-21;-20.3;29.0;23.1;
15/06/2019 00:49:13;100;0;214.13;17;-18.99;-6.09;169.7;11.40;69578;5128.276;-12826.705;266;-300;-293.1;73;72.7;-21;-20.3;29.0;21.0;
15/06/2019 00:49:33;100;0;214.64;17;-19.02;-6.07;171.7;11.30;69579;5128.276;-12826.705;266;-300;-293.1;73;72.9;-21;-20.3;29.0;19.0;
15/06/2019 00:49:53;118;0;214.70;17;-18.93;-6.07;173.7;11.20;69567;5128.276;-12826.705;266;150;-277.2;57;56.8;0;0.5;29.0;17.0;
15/06/2019 00:50:03;118;0;159.81;17;2.42;4.12;174.4;11.20;69489;5128.276;-12826.705;266;150;-118.8;57;57.1;0;0.9;28.5;17.0;
15/06/2019 00:50:13;118;0;162.47;17;19.96;3.61;174.1;11.20;69285;5128.276;-12826.705;266;150;35.6;57;57.1;0;0.5;28.5;-1.0;
15/06/2019 00:50:23;118;0;163.49;17;23.90;3.68;173.2;11.20;69036;5128.276;-12826.705;266;150;156.4;57;56.9;0;0.9;28.5;-1.0;
15/06/2019 00:50:33;118;0;210.13;17;24.93;3.70;172.0;11.20;68839;5128.276;-12826.705;266;150;158.4;57;56.9;0;0.5;29.0;-1.0;
15/06/2019 00:50:43;118;0;210.27;17;27.16;3.81;170.3;11.10;68852;5128.276;-12826.705;266;150;158.4;57;56.9;0;0.5;29.0;-1.0;
15/06/2019 00:50:53;117;0;210.42;17;27.87;3.67;168.4;11.10;68846;5128.276;-12826.705;266;150;160.4;57;57.1;0;0.9;29.1;-1.0;
15/06/2019 00:51:13;117;0;209.18;17;28.17;3.73;164.0;11.10;68848;5128.276;-12826.705;266;150;158.4;57;56.9;24;24.4;29.0;-1.0;
15/06/2019 00:51:33;117;0;216.81;17;27.92;15.55;159.0;11.00;68836;5128.276;-12826.705;266;150;158.4;57;56.9;19;18.5;29.0;-1.0;
15/06/2019 00:51:53;117;0;219.31;17;27.77;11.98;154.4;11.00;68828;5128.276;-12826.705;266;150;158.4;57;56.9;18;18.1;29.0;-1.0;
15/06/2019 00:52:13;117;0;221.15;17;27.99;12.00;150.1;10.90;68828;5128.276;-12826.705;266;150;158.4;57;56.9;18;18.1;29.0;-1.0;
15/06/2019 00:52:33;117;0;227.54;17;27.93;12.18;145.4;10.80;68821;5128.276;-12826.705;266;150;158.4;57;56.9;16;15.8;29.0;-1.0;
15/06/2019 00:52:53;117;0;235.83;17;27.78;10.78;140.8;10.80;68822;5128.276;-12826.705;266;150;158.4;57;56.9;13;13.1;29.0;-1.0;
15/06/2019 00:53:13;117;0;235.68;17;27.40;9.18;136.0;10.70;68837;5128.276;-12826.705;266;150;158.4;57;57.1;15;14.9;29.0;-1.0;
15/06/2019 00:53:33;117;0;237.48;17;27.50;11.14;131.7;10.70;68837;5128.276;-12826.705;266;150;158.4;57;56.9;15;15.3;29.0;-1.0;
15/06/2019 00:53:53;117;0;244.44;17;26.17;10.79;127.4;10.70;68857;5128.276;-12826.705;266;150;158.4;57;56.9;12;12.2;29.0;-1.0;
15/06/2019 00:54:13;117;0;246.80;17;25.85;8.76;123.5;10.60;68867;5128.276;-12826.705;266;150;158.4;57;56.9;12;11.7;29.0;-1.0;
15/06/2019 00:54:33;117;0;250.15;17;25.98;8.94;119.5;10.60;68877;5128.276;-12826.705;266;150;160.4;57;56.9;12;11.3;29.0;-1.0;
15/06/2019 00:54:53;117;0;254.40;17;25.29;8.62;115.7;10.60;68885;5128.276;-12826.705;266;150;160.4;57;56.9;11;10.8;29.0;-1.0;
15/06/2019 00:55:13;117;0;253.96;17;25.71;8.14;111.8;10.50;68898;5128.276;-12826.705;266;150;158.4;57;56.9;12;12.2;29.0;-1.0;
15/06/2019 00:55:33;117;0;257.57;17;25.27;9.38;108.1;10.50;68903;5128.276;-12826.705;266;150;160.4;57;56.9;10;9.5;29.0;-1.0;
15/06/2019 00:55:53;117;0;261.48;17;24.91;7.58;104.5;10.50;68905;5128.276;-12826.705;266;150;158.4;57;56.9;8;7.7;29.0;-1.0;
15/06/2019 00:56:13;117;0;260.32;17;24.96;6.66;100.9;10.50;68915;5128.276;-12826.705;266;150;160.4;57;56.9;10;9.9;29.0;-1.0;
15/06/2019 00:56:33;117;0;262.51;17;25.05;8.53;97.3;10.40;68913;5128.276;-12826.705;266;150;158.4;57;56.9;9;9.0;29.1;-1.0;
15/06/2019 00:56:53;117;0;261.90;17;25.22;7.43;93.5;10.40;68923;5128.276;-12826.705;266;150;158.4;57;56.9;9;8.1;29.0;-1.0;
15/06/2019 00:57:13;117;0;257.80;17;24.74;6.94;89.7;10.40;68926;5128.276;-12826.705;266;150;160.4;57;56.9;11;10.8;29.0;-1.0;
15/06/2019 00:57:33;117;0;253.71;17;23.76;8.73;86.2;10.40;68934;5128.276;-12826.705;266;150;158.4;57;56.9;13;13.1;29.0;-1.0;
15/06/2019 00:57:53;117;0;255.96;17;22.52;10.06;83.1;10.40;68938;5128.276;-12826.705;266;150;158.4;57;57.1;10;9.9;29.0;-1.0;
15/06/2019 00:58:13;117;0;262.94;17;21.54;7.87;80.3;10.40;68931;5128.276;-12826.705;266;150;158.4;57;56.9;6;5.9;29.0;-1.0;
15/06/2019 00:58:33;117;0;261.37;17;22.11;5.84;77.7;10.30;68937;5128.276;-12826.705;266;150;160.4;57;57.1;7;7.7;29.0;-1.0;
15/06/2019 00:58:53;117;0;260.44;17;22.46;7.23;75.0;10.30;68949;5128.276;-12826.705;266;150;160.4;57;56.9;7;8.1;29.0;-1.0;
15/06/2019 00:59:13;117;0;261.23;17;21.62;7.22;72.4;10.30;68959;5128.276;-12826.705;266;150;158.4;57;56.9;6;5.9;29.0;-1.0;
15/06/2019 00:59:33;117;0;263.49;17;21.24;5.91;69.7;10.30;68969;5128.276;-12826.705;266;150;160.4;57;56.9;5;5.0;29.0;-1.0;
15/06/2019 00:59:53;117;0;265.78;17;20.83;5.22;67.0;10.30;68959;5128.276;-12826.705;266;150;158.4;57;57.1;4;4.1;29.0;-1.0;
15/06/2019 01:00:13;117;0;262.88;17;20.88;4.74;64.7;10.30;68971;5128.276;-12826.705;266;150;160.4;57;56.9;5;5.0;29.0;-1.0;
15/06/2019 01:00:33;117;0;257.37;17;20.86;5.91;62.2;10.30;68973;5128.276;-12826.705;266;150;160.4;57;56.9;8;8.1;29.0;-1.0;
15/06/2019 01:00:53;117;0;260.32;17;20.39;7.66;59.7;10.30;68977;5128.276;-12826.705;266;150;158.4;57;56.9;5;5.0;29.0;-1.0;
15/06/2019 01:01:13;117;0;259.75;17;20.08;5.33;57.3;10.30;68986;5128.276;-12826.705;266;150;158.4;57;56.9;5;4.5;29.1;-1.0;
15/06/2019 01:01:33;117;0;259.39;17;20.13;5.41;55.0;10.30;68992;5128.276;-12826.705;266;150;160.4;57;56.9;4;4.1;29.0;-1.0;
15/06/2019 01:01:53;117;0;265.26;17;19.67;5.32;52.6;10.30;69009;5128.276;-12826.705;266;150;160.4;57;56.9;0;-0.5;29.0;-1.0;
15/06/2019 01:02:13;117;0;259.17;17;19.98;2.77;50.3;10.30;69009;5128.276;-12826.705;266;150;160.4;57;56.9;4;4.1;29.0;-1.0;
15/06/2019 01:02:33;117;0;262.49;17;19.71;5.62;47.9;10.30;69007;5128.276;-12826.705;266;150;160.4;57;56.9;1;0.9;29.0;-1.0;
15/06/2019 01:02:53;117;0;259.92;17;19.56;3.44;45.6;10.30;69009;5128.276;-12826.705;266;150;160.4;57;57.1;3;4.1;29.0;-1.0;
15/06/2019 01:03:13;117;0;262.04;17;19.12;5.43;43.3;10.30;69021;5128.276;-12826.705;266;150;158.4;57;57.1;0;0.0;29.0;-1.0;
15/06/2019 01:03:33;117;0;260.97;17;19.41;2.98;41.1;10.30;69030;5128.276;-12826.705;266;150;158.4;57;56.9;1;0.9;29.0;-1.0;
15/06/2019 01:03:53;117;0;257.24;17;18.97;3.91;38.9;10.30;69045;5128.276;-12826.705;266;150;160.4;57;56.9;2;1.8;29.0;-1.0;
15/06/2019 01:04:13;117;0;253.34;17;18.90;4.37;36.7;10.30;69049;5128.276;-12826.705;266;150;158.4;57;57.1;4;4.5;29.0;-1.0;
15/06/2019 01:04:33;117;0;259.01;17;18.58;5.91;34.6;10.30;69060;5128.276;-12826.705;266;150;160.4;57;56.9;0;0.0;29.1;-1.0;
15/06/2019 01:04:53;117;0;257.09;17;18.68;2.87;32.4;10.30;69066;5128.276;-12826.705;266;150;160.4;57;57.1;0;-0.5;29.0;-1.0;
15/06/2019 01:05:13;117;0;256.54;17;18.50;2.84;30.2;10.30;69074;5128.276;-12826.705;266;150;160.4;57;57.1;1;0.9;29.0;-1.0;
15/06/2019 01:05:33;117;0;255.24;17;17.81;4.15;28.0;10.30;69101;5128.276;-12826.705;266;150;160.4;57;56.9;1;1.8;29.0;-1.0;
15/06/2019 01:05:53;117;0;251.44;17;17.58;4.16;26.1;10.30;69116;5128.276;-12826.705;266;150;158.4;57;56.9;3;3.2;29.0;-1.0;
15/06/2019 01:06:13;117;0;258.21;17;16.81;5.44;24.4;10.30;69148;5128.276;-12826.705;266;150;160.4;57;56.9;-2;-1.8;29.0;-1.0;
15/06/2019 01:06:33;117;0;255.00;17;17.18;1.98;22.7;10.40;69179;5128.276;-12826.705;266;150;160.4;57;56.9;0;0.0;29.0;-1.0;
15/06/2019 01:06:53;117;0;253.14;17;16.62;3.53;21.0;10.40;69199;5128.276;-12826.705;266;150;160.4;57;56.9;0;0.5;29.0;-1.0;
15/06/2019 01:07:13;117;0;252.35;17;16.76;3.56;19.3;10.40;69217;5128.276;-12826.705;266;150;160.4;57;56.9;1;0.9;29.1;-1.0;
15/06/2019 01:07:33;117;0;253.84;17;16.31;4.20;17.7;10.40;69248;5128.276;-12826.705;266;150;160.4;57;56.9;0;0.0;29.0;-1.0;
15/06/2019 01:07:53;117;0;248.34;17;16.61;3.09;16.0;10.50;69274;5128.276;-12826.705;266;150;160.4;57;56.9;0;-0.5;29.0;-1.0;
15/06/2019 01:08:13;117;0;248.02;17;15.64;3.05;14.2;10.50;69287;5128.276;-12826.705;266;150;160.4;57;57.1;0;-0.5;29.0;-1.0;
15/06/2019 01:08:33;117;0;252.41;17;15.65;3.18;12.6;10.50;69315;5128.276;-12826.705;266;150;160.4;57;56.9;0;-0.5;29.0;-1.0;
15/06/2019 01:08:53;117;0;256.18;17;15.96;3.18;11.1;10.60;69342;5128.276;-12826.705;266;150;160.4;57;56.9;-2;-1.8;29.0;-1.0;
