Timestamp;NavState;SecurityLevel;Heading;Declination;Pitch;Roll;Depth;Temperature;Pa;Lat;Lon;DesiredH;BallastCmd;BallastPos;LinCmd;LinPos;AngCmd;AngPos;Voltage;Altitude;
16/06/2019 03:42:00;117;0;338.53;17;15.87;3.72;9.5;10.20;69430;5122.842;-12841.823;354;150;158.4;57;57.2;0;-0.5;28.8;-1.0;
16/06/2019 03:42:10;115;0;338.03;17;15.68;2.94;8.6;10.20;69449;5122.842;-12841.823;354;500;168.3;100;100.1;0;-0.9;28.8;-1.0;
16/06/2019 03:42:20;115;0;13.30;17;-24.73;3.94;7.9;10.30;69352;5122.842;-12841.823;354;500;320.8;100;100.0;0;-0.9;28.4;-1.0;
16/06/2019 03:42:30;115;0;3.43;17;-62.54;3.93;8.7;10.30;69155;5122.842;-12841.823;354;500;473.3;100;100.0;0;-0.9;28.4;-1.0;
16/06/2019 03:42:40;115;0;358.64;17;-58.78;2.63;7.8;10.30;68926;5122.842;-12841.823;354;500;505.0;100;99.9;0;-0.9;28.4;-1.0;
16/06/2019 03:42:50;115;0;329.25;17;-29.20;3.58;4.9;10.40;68886;5122.842;-12841.823;354;500;506.9;100;100.0;0;-0.9;28.8;-1.0;
16/06/2019 03:43:00;116;0;304.08;17;-61.84;13.93;2.2;10.40;68891;5122.842;-12841.823;354;500;506.9;100;100.0;0;-0.9;28.8;-1.0;
16/06/2019 03:43:20;116;0;224.39;17;-28.00;3.40;1.6;10.50;68942;5122.842;-12841.823;354;500;508.9;100;99.9;0;-0.9;28.8;-1.0;
16/06/2019 03:43:40;116;0;166.06;17;-5.12;3.64;1.4;10.60;68966;5122.842;-12841.823;354;500;508.9;100;99.7;0;-0.9;28.8;-1.0;
16/06/2019 03:44:00;116;0;154.12;17;-7.32;5.98;1.3;10.70;68985;5122.842;-12841.823;354;500;508.9;100;99.7;0;-0.9;28.8;-1.0;
16/06/2019 03:44:20;116;0;169.75;17;-9.04;1.57;1.4;10.80;68998;5122.842;-12841.823;354;500;508.9;100;99.9;0;-0.9;28.8;-1.0;
16/06/2019 03:45:24;116;0;161.12;17;-8.85;6.27;1.3;11.30;69041;5122.842;-12841.823;354;500;508.9;100;99.9;0;-0.9;28.7;-1.0;
16/06/2019 03:45:44;116;0;155.80;17;-8.53;-0.38;1.3;11.50;69042;5122.842;-12841.823;354;500;508.9;100;99.7;0;-0.9;28.8;-1.0;
16/06/2019 03:46:04;116;0;149.16;17;-15.12;0.77;1.4;11.60;69070;5122.842;-12841.823;354;500;508.9;100;99.7;0;-0.9;28.8;-1.0;
16/06/2019 03:46:30;116;0;153.04;17;-3.54;5.13;1.3;11.80;69072;5122.842;-12841.823;354;500;508.9;100;99.7;0;-0.9;28.8;-1.0;
16/06/2019 03:46:50;116;0;154.81;17;-10.86;3.29;1.3;12.00;69085;5122.842;-12841.823;354;500;508.9;100;99.7;0;-0.9;28.8;-1.0;
16/06/2019 03:47:10;116;0;152.14;17;-5.15;4.04;1.3;12.20;69096;5122.842;-12841.823;354;500;508.9;100;99.7;0;-0.9;28.8;-1.0;
16/06/2019 03:48:31;116;0;160.88;17;-7.60;3.16;1.3;12.90;69125;5122.842;-12841.823;354;500;508.9;100;99.7;0;-0.9;28.7;-1.0;
16/06/2019 03:48:51;116;0;161.82;17;-13.37;-0.96;1.3;13.10;69129;5122.842;-12841.823;354;500;508.9;100;99.7;0;-0.9;28.8;-1.0;
16/06/2019 03:49:11;116;0;147.27;17;-9.41;3.73;1.3;13.20;69137;5123.614;-12841.619;354;500;508.9;100;99.7;0;-0.9;28.8;-1.0;
16/06/2019 03:49:31;116;0;154.16;17;-8.14;1.71;1.3;13.30;69142;5123.622;-12841.617;354;500;508.9;100;99.7;0;-0.9;28.8;-1.0;
16/06/2019 03:49:51;116;0;152.56;17;-5.54;0.53;1.3;13.40;69157;5123.616;-12841.614;354;500;508.9;100;99.9;0;-0.9;28.8;-1.0;
16/06/2019 03:50:12;116;0;150.80;17;-4.86;3.89;1.3;13.50;69143;5123.614;-12841.614;354;500;508.9;100;99.7;0;-0.9;28.7;-1.0;
16/06/2019 03:50:32;116;0;169.99;17;-4.22;4.76;1.3;13.60;69168;5123.612;-12841.611;354;500;508.9;100;99.7;0;-0.9;28.8;-1.0;
16/06/2019 03:50:52;116;0;160.14;17;-8.54;4.30;1.3;13.60;69153;5123.611;-12841.609;354;500;508.9;100;99.7;0;-0.9;28.7;-1.0;
16/06/2019 03:51:12;116;0;151.83;17;-10.41;-2.54;1.3;13.70;69174;5123.611;-12841.609;354;500;508.9;100;99.9;0;-0.9;28.7;-1.0;
16/06/2019 03:51:38;116;0;151.49;17;-7.71;3.52;1.3;13.80;69168;5123.611;-12841.609;354;500;508.9;100;99.7;0;-0.9;28.7;-1.0;
16/06/2019 03:51:58;116;0;161.97;17;-10.72;1.92;1.3;13.90;69184;5123.613;-12841.604;354;500;508.9;100;99.7;0;-0.9;28.8;-1.0;
16/06/2019 03:52:18;116;0;160.55;17;-7.09;4.20;1.3;14.00;69185;5123.613;-12841.604;354;500;510.9;100;99.9;0;-0.9;28.8;-1.0;
16/06/2019 03:53:12;116;0;161.87;17;-8.92;-0.83;1.3;14.20;69197;5123.613;-12841.604;354;500;508.9;100;99.7;0;-0.9;28.7;-1.0;
16/06/2019 03:53:32;116;0;163.51;17;-12.46;5.38;1.3;14.30;69196;5123.608;-12841.598;53;500;508.9;100;99.7;0;-0.9;28.8;-1.0;
16/06/2019 03:53:52;116;0;144.50;17;-5.13;-4.48;1.3;14.40;69202;5123.607;-12841.597;53;500;510.9;100;99.7;0;-0.9;28.8;-1.0;
16/06/2019 03:54:12;116;0;156.49;17;-8.11;0.54;1.3;14.50;69210;5123.607;-12841.593;53;500;508.9;100;99.9;0;-0.9;28.9;-1.0;
16/06/2019 03:54:33;116;0;163.06;17;-4.21;0.02;1.3;14.60;69213;5123.606;-12841.591;53;500;508.9;100;99.7;0;-0.9;28.8;-1.0;
16/06/2019 03:54:53;110;0;185.43;17;-7.40;-1.57;1.3;14.70;69215;5123.606;-12841.591;53;-300;407.9;100;99.7;0;-0.9;28.7;-1.0;
16/06/2019 03:55:03;110;0;165.29;17;-7.35;5.70;1.3;14.70;69461;5123.606;-12841.591;53;-300;267.3;100;99.9;0;-0.9;28.7;-1.0;
16/06/2019 03:55:13;110;0;166.81;17;-5.21;3.87;1.3;14.70;69643;5123.606;-12841.591;53;-300;124.8;100;99.7;0;-0.9;28.7;-1.0;
16/06/2019 03:55:23;110;0;144.79;17;-17.92;4.37;1.5;14.70;69875;5123.606;-12841.591;53;-300;-37.6;100;99.9;0;-0.9;28.6;-1.0;
16/06/2019 03:55:33;110;0;138.77;17;-54.25;3.02;2.6;14.70;70147;5123.606;-12841.591;53;-300;-233.7;97;96.9;0;-0.9;28.6;-1.0;
16/06/2019 03:55:43;110;0;145.00;17;-59.63;2.31;4.4;14.70;70475;5123.606;-12841.591;53;-300;-301.0;78;77.9;0;-0.9;28.8;-1.0;
16/06/2019 03:55:53;110;0;161.28;17;-49.08;2.65;7.6;14.70;70551;5123.606;-12841.591;53;-300;-301.0;73;72.9;0;-0.9;28.8;-1.0;
16/06/2019 03:56:03;100;0;154.94;17;-37.05;3.39;11.2;14.70;70540;5123.606;-12841.591;53;-300;-299.0;73;72.9;0;-0.9;28.8;-1.0;
16/06/2019 03:56:23;100;0;146.25;17;-27.18;3.29;16.6;14.70;70500;5123.606;-12841.591;53;-300;-297.0;73;72.7;45;45.6;28.8;0.0;
16/06/2019 03:56:43;100;0;130.35;17;-23.64;25.55;21.0;14.70;70465;5123.606;-12841.591;53;-300;-297.0;73;72.7;41;41.1;28.8;0.0;
16/06/2019 03:57:03;100;0;120.58;17;-24.39;22.17;24.7;14.60;70429;5123.606;-12841.591;53;-300;-299.0;73;72.7;32;32.0;28.8;0.0;
16/06/2019 03:57:23;100;0;107.29;17;-23.68;18.13;28.5;14.50;70378;5123.606;-12841.591;53;-300;-295.0;73;72.7;25;24.4;28.8;0.0;
16/06/2019 03:57:43;100;0;89.24;17;-23.24;14.55;32.1;14.50;70338;5123.606;-12841.591;53;-300;-295.0;73;72.7;17;17.1;28.8;0.0;
16/06/2019 03:58:03;100;0;75.65;17;-24.16;10.80;35.6;14.40;70295;5123.606;-12841.591;53;-300;-293.1;73;72.7;13;13.1;28.8;0.0;
16/06/2019 03:58:23;100;0;67.24;17;-24.78;8.96;39.1;14.30;70271;5123.606;-12841.591;53;-300;-295.0;73;72.7;13;12.6;28.8;0.0;
16/06/2019 03:58:43;100;0;53.15;17;-23.78;8.88;42.6;14.20;70240;5123.606;-12841.591;53;-300;-295.0;73;72.7;9;9.0;28.8;0.0;
16/06/2019 03:59:03;100;0;43.30;17;-23.82;7.05;46.1;14.20;70210;5123.606;-12841.591;53;-300;-293.1;73;72.7;8;8.1;28.8;0.0;
16/06/2019 03:59:23;100;0;37.51;17;-23.81;6.97;49.5;14.10;70170;5123.606;-12841.591;53;-300;-293.1;73;72.7;8;8.6;28.8;0.0;
16/06/2019 03:59:43;100;0;32.30;17;-24.03;6.87;52.9;14.00;70150;5123.606;-12841.591;53;-300;-295.0;73;72.7;8;8.6;28.8;0.0;
16/06/2019 04:00:03;100;0;23.90;17;-23.59;7.01;56.2;13.90;70130;5123.606;-12841.591;53;-300;-293.1;73;72.7;6;5.9;28.8;0.0;
16/06/2019 04:00:23;100;0;15.42;17;-23.35;5.65;59.5;13.80;70090;5123.606;-12841.591;53;-300;-295.0;73;72.7;3;3.2;28.8;0.0;
16/06/2019 04:00:43;100;0;7.76;17;-23.75;4.44;62.7;13.80;70063;5123.606;-12841.591;53;-300;-293.1;73;72.7;1;0.9;28.8;0.0;
16/06/2019 04:01:03;100;0;1.65;17;-23.97;3.33;66.0;13.70;70046;5123.606;-12841.591;53;-300;-295.0;73;72.7;0;-0.5;28.8;0.0;
16/06/2019 04:01:23;100;0;355.57;17;-23.55;2.71;69.4;13.60;70021;5123.606;-12841.591;53;-300;-293.1;73;72.7;0;-0.9;28.8;0.0;
16/06/2019 04:01:43;100;0;350.10;17;-23.09;2.70;72.7;13.50;70006;5123.606;-12841.591;53;-300;-293.1;73;72.7;-3;-3.2;28.8;0.0;
16/06/2019 04:02:03;100;0;350.85;17;-22.92;1.62;76.1;13.50;69988;5123.606;-12841.591;53;-300;-293.1;73;72.7;-2;-1.8;28.8;0.0;
16/06/2019 04:02:23;100;0;347.82;17;-22.50;2.93;79.3;13.40;69976;5123.606;-12841.591;53;-300;-295.0;73;72.7;-5;-5.0;28.8;0.0;
16/06/2019 04:02:43;100;0;349.53;17;-22.72;0.84;82.5;13.30;69958;5123.606;-12841.591;53;-300;-293.1;73;72.6;-4;-4.1;28.7;0.0;
16/06/2019 04:03:03;100;0;348.73;17;-22.28;1.81;85.5;13.20;69938;5123.606;-12841.591;53;-300;-293.1;73;72.7;-7;-7.2;28.8;0.0;
16/06/2019 04:03:23;100;0;353.26;17;-21.78;-0.21;88.5;13.20;69923;5123.606;-12841.591;53;-300;-293.1;73;72.7;-4;-4.1;28.8;0.0;
16/06/2019 04:03:43;100;0;349.40;17;-21.37;1.79;91.4;13.10;69904;5123.606;-12841.591;53;-300;-293.1;73;72.7;-9;-9.0;28.8;0.0;
16/06/2019 04:04:03;100;0;349.16;17;-21.56;-1.07;94.2;13.00;69892;5123.606;-12841.591;53;-300;-293.1;73;72.7;-11;-10.8;28.8;0.0;
16/06/2019 04:04:23;100;0;345.59;17;-21.59;-1.98;97.0;13.00;69882;5123.606;-12841.591;53;-300;-293.1;73;72.7;-15;-14.9;28.8;0.0;
16/06/2019 04:04:43;100;0;349.39;17;-21.11;-3.77;99.8;12.90;69872;5123.606;-12841.591;53;-300;-295.0;73;72.7;-13;-13.1;28.8;0.0;
16/06/2019 04:05:03;100;0;344.80;17;-20.65;-2.43;102.4;12.80;69846;5123.606;-12841.591;53;-300;-293.1;73;72.7;-19;-19.0;28.8;0.0;
16/06/2019 04:05:23;100;0;345.66;17;-20.68;-5.48;105.1;12.80;69835;5123.606;-12841.591;53;-300;-293.1;73;72.7;-19;-19.4;28.7;0.0;
16/06/2019 04:05:43;100;0;343.36;17;-20.85;-5.57;107.7;12.70;69831;5123.606;-12841.591;53;-300;-291.1;73;72.7;-22;-22.6;28.8;0.0;
16/06/2019 04:06:03;100;0;342.85;17;-21.04;-7.26;110.2;12.60;69813;5123.606;-12841.591;53;-300;-291.1;73;72.7;-25;-24.8;28.7;0.0;
16/06/2019 04:06:23;100;0;346.13;17;-21.14;-8.54;112.7;12.60;69806;5123.606;-12841.591;53;-300;-293.1;73;72.7;-23;-23.0;28.7;0.0;
16/06/2019 04:06:43;100;0;353.16;17;-19.77;-6.88;115.0;12.50;69796;5123.606;-12841.591;53;-300;-293.1;73;72.6;-20;-19.9;28.8;0.0;
16/06/2019 04:07:03;100;0;351.43;17;-20.06;-5.40;117.3;12.40;69781;5123.606;-12841.591;53;-300;-293.1;73;72.7;-22;-22.1;28.8;0.0;
16/06/2019 04:07:23;100;0;352.76;17;-20.32;-7.07;119.7;12.40;69765;5123.606;-12841.591;53;-300;-291.1;73;72.7;-22;-22.1;28.8;0.0;
16/06/2019 04:07:43;100;0;353.63;17;-20.20;-7.09;121.8;12.30;69763;5123.606;-12841.591;53;-300;-293.1;73;72.7;-22;-22.6;28.8;0.0;
16/06/2019 04:08:03;100;0;355.41;17;-20.47;-7.13;124.0;12.30;69750;5123.606;-12841.591;53;-300;-291.1;73;72.6;-21;-21.2;28.8;0.0;
16/06/2019 04:08:23;100;0;355.87;17;-19.63;-6.20;126.2;12.20;69731;5123.606;-12841.591;53;-300;-291.1;73;72.6;-22;-22.6;28.8;0.0;
16/06/2019 04:08:43;100;0;357.23;17;-19.39;-7.27;128.5;12.10;69734;5123.606;-12841.591;53;-300;-293.1;73;72.7;-21;-21.2;28.8;0.0;
16/06/2019 04:09:03;100;0;357.14;17;-19.46;-6.05;130.7;12.10;69727;5123.606;-12841.591;53;-300;-291.1;73;72.7;-22;-22.1;28.8;0.0;
16/06/2019 04:09:23;100;0;359.80;17;-19.30;-7.21;133.1;12.00;69722;5123.606;-12841.591;53;-300;-291.1;73;72.7;-21;-21.2;28.8;0.0;
16/06/2019 04:09:43;100;0;0.12;17;-19.25;-6.00;135.3;12.00;69714;5123.606;-12841.591;53;-300;-289.1;73;72.7;-21;-20.3;28.8;0.0;
16/06/2019 04:10:03;100;0;359.72;17;-19.21;-6.07;137.6;11.90;69720;5123.606;-12841.591;53;-300;-293.1;73;72.7;-22;-22.1;28.8;0.0;
16/06/2019 04:10:23;100;0;2.04;17;-19.16;-7.14;139.8;11.90;69705;5123.606;-12841.591;53;-300;-293.1;73;72.6;-20;-19.9;28.8;0.0;
16/06/2019 04:10:43;100;0;2.04;17;-19.26;-5.36;142.0;11.80;69696;5123.606;-12841.591;53;-300;-293.1;73;72.6;-21;-21.2;28.8;0.0;
16/06/2019 04:11:03;100;0;2.35;17;-19.43;-6.57;144.2;11.70;69696;5123.606;-12841.591;53;-300;-291.1;73;72.7;-21;-21.2;28.8;0.0;
16/06/2019 04:11:23;100;0;2.41;17;-19.37;-6.53;146.2;11.70;69688;5123.606;-12841.591;53;-300;-291.1;73;72.7;-21;-21.2;28.8;0.0;
16/06/2019 04:11:43;100;0;2.38;17;-19.34;-6.57;148.4;11.60;69678;5123.606;-12841.591;53;-300;-291.1;73;72.6;-21;-21.2;28.8;0.0;
16/06/2019 04:12:03;100;0;2.41;17;-19.36;-6.57;150.5;11.60;69669;5123.606;-12841.591;53;-300;-293.1;73;72.6;-21;-21.2;28.8;0.0;
16/06/2019 04:12:23;100;0;1.36;17;-19.31;-6.58;152.7;11.50;69664;5123.606;-12841.591;53;-300;-291.1;73;72.6;-22;-22.1;28.8;0.0;
16/06/2019 04:12:43;100;0;3.64;17;-19.36;-7.27;154.8;11.50;69656;5123.606;-12841.591;53;-300;-291.1;73;72.7;-20;-19.9;28.8;0.0;
16/06/2019 04:13:03;100;0;4.64;17;-19.15;-5.43;156.8;11.40;69651;5123.606;-12841.591;53;-300;-291.1;73;72.6;-20;-19.0;28.8;0.0;
16/06/2019 04:13:23;100;0;4.31;17;-18.98;-5.39;159.0;11.40;69641;5123.606;-12841.591;53;-300;-291.1;73;72.7;-20;-19.0;28.8;0.0;
16/06/2019 04:13:43;100;0;3.42;17;-18.95;-5.40;161.2;11.30;69633;5123.606;-12841.591;53;-300;-291.1;73;72.7;-21;-21.2;28.8;0.0;
16/06/2019 04:14:03;100;0;2.40;17;-19.08;-6.90;163.2;11.30;69622;5123.606;-12841.591;53;-300;-293.1;73;72.7;-22;-22.1;28.8;0.0;
16/06/2019 04:14:23;100;0;4.31;17;-18.93;-6.81;165.2;11.20;69629;5123.606;-12841.591;53;-300;-291.1;73;72.6;-20;-19.9;28.8;0.0;
16/06/2019 04:14:43;100;0;6.29;17;-18.85;-5.37;167.3;11.20;69625;5123.606;-12841.591;53;-300;-291.1;73;72.7;-19;-19.0;28.8;0.0;
16/06/2019 04:15:03;100;0;7.20;17;-18.75;-5.35;169.5;11.10;69602;5123.606;-12841.591;53;-300;-291.1;73;72.7;-19;-19.0;28.8;0.0;
16/06/2019 04:15:23;100;0;7.02;17;-18.34;-5.32;171.5;11.10;69599;5123.606;-12841.591;53;-300;-293.1;73;72.7;-20;-20.3;28.8;0.0;
16/06/2019 04:15:43;100;0;7.24;17;-18.46;-6.23;173.4;11.00;69585;5123.606;-12841.591;53;-300;-289.1;73;72.7;-20;-20.8;28.7;0.0;
16/06/2019 04:16:03;100;0;7.71;17;-18.59;-6.24;175.5;11.00;69582;5123.606;-12841.591;53;-300;-291.1;73;72.6;-20;-20.8;28.8;44.0;
16/06/2019 04:16:23;100;0;7.75;17;-18.80;-6.20;177.4;10.90;69564;5123.606;-12841.591;53;-300;-291.1;73;72.6;-20;-20.8;28.8;41.9;
16/06/2019 04:16:43;100;0;8.46;17;-18.29;-6.18;179.6;10.90;69551;5123.606;-12841.591;53;-300;-291.1;73;72.6;-19;-19.0;28.8;39.8;
16/06/2019 04:17:03;100;0;8.30;17;-18.04;-5.01;181.6;10.80;69553;5123.606;-12841.591;53;-300;-291.1;73;72.7;-20;-19.9;28.8;37.8;
16/06/2019 04:17:23;100;0;8.90;17;-18.23;-6.12;183.6;10.80;69534;5123.606;-12841.591;53;-300;-291.1;73;72.7;-20;-20.3;28.7;35.6;
16/06/2019 04:17:43;100;0;8.96;17;-18.16;-6.11;185.7;10.70;69534;5123.606;-12841.591;53;-300;-291.1;73;72.7;-20;-20.3;28.8;33.5;
16/06/2019 04:18:03;100;0;9.68;17;-18.16;-6.11;187.7;10.70;69527;5123.606;-12841.591;53;-300;-289.1;73;72.6;-19;-18.5;28.8;31.2;
16/06/2019 04:18:23;100;0;8.11;17;-17.96;-5.00;189.8;10.60;69520;5123.606;-12841.591;53;-300;-291.1;73;72.6;-20;-19.9;28.8;29.3;
16/06/2019 04:18:43;100;0;6.95;17;-18.40;-6.15;191.8;10.60;69506;5123.606;-12841.591;53;-300;-293.1;73;72.7;-21;-21.2;28.8;27.1;
16/06/2019 04:19:03;100;0;6.34;17;-18.87;-6.99;193.9;10.50;69510;5123.606;-12841.591;53;-300;-291.1;73;72.6;-21;-22.1;28.8;25.0;
16/06/2019 04:19:23;100;0;5.22;17;-18.03;-6.95;195.9;10.50;69490;5123.606;-12841.591;53;-300;-291.1;73;72.7;-21;-22.1;28.7;22.9;
16/06/2019 04:19:43;100;0;5.00;17;-17.57;-6.58;197.9;10.40;69498;5123.606;-12841.591;53;-300;-293.1;73;72.7;-21;-21.7;28.8;20.9;
16/06/2019 04:20:03;100;0;6.97;17;-17.59;-6.85;199.9;10.40;69493;5123.606;-12841.591;53;-300;-289.1;73;72.6;-20;-19.4;28.8;19.0;
16/06/2019 04:20:23;118;0;4.81;17;-17.44;-5.12;201.9;10.40;69494;5123.606;-12841.591;53;150;-275.2;57;56.8;0;0.9;28.8;16.8;
16/06/2019 04:20:33;118;0;39.26;17;4.01;3.81;202.7;10.40;69410;5123.606;-12841.591;53;150;-118.8;57;57.1;0;0.9;28.2;16.8;
16/06/2019 04:20:43;118;0;36.94;17;20.08;3.64;202.4;10.30;69195;5123.606;-12841.591;53;150;37.6;57;57.1;0;0.9;28.2;-1.0;
16/06/2019 04:20:53;118;0;36.59;17;23.09;3.86;201.5;10.30;68949;5123.606;-12841.591;53;150;156.4;57;57.1;0;0.9;28.2;-1.0;
16/06/2019 04:21:03;118;0;356.23;17;25.30;3.66;200.4;10.30;68766;5123.606;-12841.591;53;150;158.4;57;57.1;0;0.9;28.8;-1.0;
16/06/2019 04:21:13;118;0;352.04;17;28.78;3.63;198.6;10.30;68770;5123.606;-12841.591;53;150;158.4;57;57.1;0;0.9;28.8;-1.0;
16/06/2019 04:21:23;117;0;356.70;17;27.49;4.12;196.4;10.30;68775;5123.606;-12841.591;53;150;158.4;57;57.1;0;0.9;28.8;-1.0;
16/06/2019 04:21:43;117;0;359.67;17;28.73;3.46;192.2;10.30;68769;5123.606;-12841.591;53;150;158.4;57;57.1;24;23.9;28.8;-1.0;
16/06/2019 04:22:03;117;0;8.01;17;27.37;15.73;187.4;10.20;68756;5123.606;-12841.591;53;150;158.4;57;57.1;18;18.1;28.7;-1.0;
16/06/2019 04:22:24;117;0;16.20;17;27.67;11.58;183.1;10.20;68757;5123.606;-12841.591;53;150;158.4;57;56.9;14;13.5;28.8;-1.0;
16/06/2019 04:22:44;117;0;18.96;17;27.90;9.54;178.8;10.10;68759;5123.606;-12841.591;53;150;158.4;57;57.1;15;14.9;28.7;-1.0;
16/06/2019 04:23:04;117;0;26.67;17;28.27;10.90;174.5;10.10;68758;5123.606;-12841.591;53;150;158.4;57;57.1;12;12.2;28.8;-1.0;
16/06/2019 04:23:24;117;0;32.34;17;27.71;8.77;170.0;10.00;68757;5123.606;-12841.591;53;150;158.4;57;56.9;11;10.8;28.8;-1.0;
16/06/2019 04:23:44;117;0;31.03;17;27.84;8.22;165.7;10.00;68774;5123.606;-12841.591;53;150;158.4;57;56.9;13;13.1;28.8;-1.0;
16/06/2019 04:24:04;117;0;33.85;17;27.44;9.92;161.4;10.00;68772;5123.606;-12841.591;53;150;160.4;57;57.1;13;13.5;28.8;-1.0;
16/06/2019 04:24:24;117;0;40.01;17;27.15;9.83;157.1;9.90;68779;5123.606;-12841.591;53;150;158.4;57;56.9;13;13.5;28.8;-1.0;
16/06/2019 04:24:44;117;0;44.79;17;27.65;9.92;152.9;9.90;68784;5123.606;-12841.591;53;150;158.4;57;56.9;9;9.0;28.8;-1.0;
16/06/2019 04:25:04;117;0;49.39;17;27.27;7.38;148.6;9.90;68783;5123.606;-12841.591;53;150;158.4;57;56.9;8;8.1;28.8;-1.0;
16/06/2019 04:25:24;117;0;56.07;17;27.04;6.80;144.4;9.90;68802;5123.606;-12841.591;53;150;160.4;57;56.9;5;5.0;28.8;-1.0;
16/06/2019 04:25:44;117;0;61.05;17;27.09;5.21;140.2;9.90;68808;5123.606;-12841.591;53;150;158.4;57;56.9;3;3.2;28.8;-1.0;
16/06/2019 04:26:04;117;0;56.30;17;27.02;4.48;136.1;9.80;68802;5123.606;-12841.591;53;150;158.4;57;56.9;8;8.6;28.8;-1.0;
16/06/2019 04:26:24;117;0;51.38;17;26.90;7.73;131.8;9.80;68800;5123.606;-12841.591;53;150;158.4;57;56.9;10;10.4;28.8;-1.0;
16/06/2019 04:26:44;117;0;52.16;17;26.60;8.31;127.9;9.80;68814;5123.606;-12841.591;53;150;158.4;57;56.9;8;7.7;28.8;-1.0;
16/06/2019 04:27:04;117;0;57.89;17;27.02;6.86;123.6;9.80;68803;5123.606;-12841.591;53;150;158.4;57;56.9;4;4.1;28.8;-1.0;
16/06/2019 04:27:24;117;0;63.05;17;26.68;4.96;119.2;9.80;68818;5123.606;-12841.591;53;150;160.4;57;56.9;1;0.9;28.8;-1.0;
16/06/2019 04:27:44;117;0;60.03;17;26.82;3.54;114.7;9.80;68806;5123.606;-12841.591;53;150;160.4;57;56.9;3;3.2;28.8;-1.0;
16/06/2019 04:28:04;117;0;62.39;17;25.36;5.30;110.4;9.70;68823;5123.606;-12841.591;53;150;158.4;57;56.9;2;1.8;28.8;-1.0;
16/06/2019 04:28:24;117;0;70.25;17;25.08;3.34;106.3;9.70;68833;5123.606;-12841.591;53;150;160.4;57;56.9;-2;-1.8;28.8;-1.0;
16/06/2019 04:28:44;117;0;60.35;17;24.80;2.20;102.5;9.70;68838;5123.606;-12841.591;53;150;158.4;57;57.1;4;4.1;28.8;-1.0;
16/06/2019 04:29:04;117;0;55.38;17;24.86;5.48;98.8;9.70;68847;5123.606;-12841.591;53;150;160.4;57;56.9;5;5.0;28.8;-1.0;
16/06/2019 04:29:24;117;0;52.02;17;24.33;6.09;95.2;9.70;68844;5123.606;-12841.591;53;150;160.4;57;57.1;5;5.9;28.8;-1.0;
16/06/2019 04:29:44;117;0;51.96;17;23.40;6.07;91.8;9.70;68856;5123.606;-12841.591;53;150;158.4;57;57.1;4;4.1;28.8;-1.0;
16/06/2019 04:30:04;117;0;48.67;17;23.85;5.12;88.6;9.70;68859;5123.606;-12841.591;53;150;158.4;57;57.1;4;3.6;28.8;-1.0;
16/06/2019 04:30:24;117;0;46.13;17;23.18;4.88;85.4;9.70;68857;5123.606;-12841.591;53;150;160.4;57;56.9;4;3.6;28.7;-1.0;
16/06/2019 04:30:44;117;0;33.95;17;24.13;5.24;82.2;9.70;68874;5123.606;-12841.591;53;150;160.4;57;57.1;4;3.6;28.7;-1.0;
16/06/2019 04:31:04;117;0;30.24;17;22.50;5.00;79.0;9.70;68886;5123.606;-12841.591;53;150;158.4;57;56.9;9;9.5;28.8;-1.0;
16/06/2019 04:31:24;117;0;22.55;17;22.62;8.33;76.2;9.70;68899;5123.606;-12841.591;53;150;160.4;57;56.9;13;13.1;28.8;-1.0;
16/06/2019 04:31:44;117;0;22.58;17;20.84;9.81;73.4;9.70;68901;5123.606;-12841.591;53;150;158.4;57;56.9;11;10.8;28.8;-1.0;
16/06/2019 04:32:04;117;0;25.57;17;20.27;8.13;70.8;9.70;68911;5123.606;-12841.591;53;150;158.4;57;57.1;8;8.1;28.8;-1.0;
16/06/2019 04:32:24;117;0;26.95;17;20.18;6.83;68.3;9.70;68920;5123.606;-12841.591;53;150;158.4;57;57.1;8;7.7;28.8;-1.0;
16/06/2019 04:32:44;117;0;24.05;17;20.03;6.96;65.8;9.70;68926;5123.606;-12841.591;53;150;158.4;57;56.9;10;9.9;28.8;-1.0;
16/06/2019 04:33:04;117;0;26.21;17;19.64;8.36;63.3;9.70;68938;5123.606;-12841.591;53;150;158.4;57;56.9;8;7.7;28.7;-1.0;
16/06/2019 04:33:24;117;0;32.17;17;19.26;6.77;60.7;9.70;68952;5123.606;-12841.591;53;150;160.4;57;56.9;5;5.0;28.8;-1.0;
16/06/2019 04:33:44;117;0;38.81;17;19.26;5.46;58.3;9.70;68964;5123.606;-12841.591;53;150;160.4;57;57.1;5;5.0;28.8;-1.0;
16/06/2019 04:34:04;117;0;45.02;17;19.18;5.57;55.9;9.70;68978;5123.606;-12841.591;53;150;158.4;57;56.9;1;0.5;28.8;-1.0;
16/06/2019 04:34:24;117;0;51.61;17;19.43;3.28;53.6;9.80;68967;5123.606;-12841.591;53;150;158.4;57;57.1;0;0.0;28.8;-1.0;
16/06/2019 04:34:44;117;0;54.41;17;19.32;3.18;51.3;9.80;68983;5123.606;-12841.591;53;150;160.4;57;57.1;0;0.0;28.8;-1.0;
16/06/2019 04:35:04;117;0;57.97;17;19.22;3.13;48.9;9.80;68980;5123.606;-12841.591;53;150;158.4;57;57.1;-1;-0.9;28.8;-1.0;
16/06/2019 04:35:24;117;0;55.78;17;19.23;2.68;46.6;9.80;69001;5123.606;-12841.591;53;150;160.4;57;56.9;0;0.0;28.8;-1.0;
16/06/2019 04:35:44;117;0;53.00;17;19.07;3.39;44.2;9.80;69019;5123.606;-12841.591;53;150;160.4;57;56.9;1;0.9;28.8;-1.0;
16/06/2019 04:36:04;117;0;51.39;17;18.67;4.20;42.0;9.80;69027;5123.606;-12841.591;53;150;156.4;57;57.1;1;1.8;28.8;-1.0;
16/06/2019 04:36:24;117;0;54.50;17;18.72;4.09;39.7;9.80;69041;5123.606;-12841.591;53;150;158.4;57;57.1;-1;-0.9;28.8;-1.0;
16/06/2019 04:36:44;117;0;54.21;17;18.62;2.63;37.6;9.90;69048;5123.606;-12841.591;53;150;158.4;57;57.1;-1;-1.4;28.8;-1.0;
16/06/2019 04:37:04;117;0;54.84;17;18.58;2.77;35.4;9.90;69065;5123.606;-12841.591;53;150;158.4;57;56.9;-1;-1.4;28.8;-1.0;
16/06/2019 04:37:24;117;0;60.28;17;18.32;2.68;33.4;9.90;69089;5123.606;-12841.591;53;150;158.4;57;57.1;-5;-5.0;28.8;-1.0;
16/06/2019 04:37:44;117;0;67.33;17;18.26;0.65;31.3;9.90;69100;5123.606;-12841.591;53;150;158.4;57;57.1;-9;-9.0;28.8;-1.0;
16/06/2019 04:38:04;117;0;60.23;17;18.38;-1.19;29.2;9.90;69114;5123.606;-12841.591;53;150;158.4;57;57.1;-3;-2.7;28.8;-1.0;
16/06/2019 04:38:24;117;0;55.15;17;17.72;2.29;27.3;9.90;69129;5123.606;-12841.591;53;150;158.4;57;57.1;-2;-1.8;28.8;-1.0;
16/06/2019 04:38:44;117;0;53.09;17;18.61;3.23;25.3;10.00;69144;5123.606;-12841.591;53;150;160.4;57;57.1;-2;-0.9;28.8;-1.0;
16/06/2019 04:39:04;117;0;51.78;17;17.86;3.14;23.1;10.00;69148;5123.606;-12841.591;53;150;160.4;57;57.1;-3;-3.6;28.8;-1.0;
16/06/2019 04:39:24;117;0;51.11;17;17.88;1.65;21.2;10.00;69172;5123.606;-12841.591;53;150;160.4;57;57.1;-4;-4.1;28.8;-1.0;
16/06/2019 04:39:44;117;0;56.29;17;16.52;1.55;19.4;10.10;69203;5123.606;-12841.591;53;150;160.4;57;57.1;-8;-8.1;28.8;-1.0;
16/06/2019 04:40:04;117;0;53.56;17;16.82;-0.79;17.7;10.10;69218;5123.606;-12841.591;53;150;160.4;57;57.1;-6;-5.9;28.8;-1.0;
16/06/2019 04:40:24;117;0;50.40;17;16.68;1.08;16.1;10.10;69248;5123.606;-12841.591;53;150;160.4;57;57.1;-5;-5.0;28.7;-1.0;
16/06/2019 04:40:44;117;0;50.45;17;15.94;1.01;14.7;10.20;69271;5123.606;-12841.591;53;150;160.4;57;57.1;-6;-5.9;28.8;-1.0;
16/06/2019 04:41:04;117;0;46.78;17;16.30;0.45;13.2;10.20;69307;5123.606;-12841.591;53;150;158.4;57;57.1;-5;-5.0;28.8;-1.0;
16/06/2019 04:41:24;117;0;39.11;17;16.42;1.28;11.6;10.30;69334;5123.606;-12841.591;53;150;160.4;57;57.1;-2;-1.8;28.8;-1.0;
