Timestamp;NavState;SecurityLevel;Heading;Declination;Pitch;Roll;Depth;Temperature;Pa;Lat;Lon;DesiredH;BallastCmd;BallastPos;LinCmd;LinPos;AngCmd;AngPos;Voltage;Altitude;
17/05/2019 22:49:58;117;1024;334.58;16;0.96;11.21;5.9;23.70;72751;4839.013;-12327.042;-9999;150;156.4;49;48.9;0;-0.5;26.5;-1.0;
17/05/2019 22:50:08;115;1024;334.71;16;0.97;11.24;4.4;23.70;72754;4839.013;-12327.042;-9999;500;204.0;100;100.3;0;-0.5;26.5;-1.0;
17/05/2019 22:50:18;115;1024;4.03;16;0.96;11.22;3.0;23.70;72623;4839.013;-12327.042;-9999;500;358.4;100;100.1;0;-0.5;26.2;-1.0;
17/05/2019 22:50:28;115;1024;3.19;16;0.93;11.23;1.5;23.80;72424;4839.013;-12327.042;-9999;500;503.0;100;100.1;0;-0.5;26.3;-1.0;
17/05/2019 22:50:38;115;1024;349.28;16;0.93;11.23;0.1;23.80;72169;4839.013;-12327.042;-9999;500;505.0;100;100.1;0;-0.5;26.5;-1.0;
17/05/2019 22:50:48;115;1024;339.29;16;0.95;11.23;0.1;23.80;72170;4839.013;-12327.042;-9999;500;505.0;100;100.3;0;0.0;26.5;-1.0;
17/05/2019 22:50:58;116;1024;338.97;16;0.97;11.24;0.1;23.80;72170;4839.012;-12327.048;-9999;500;505.0;100;100.1;0;-0.5;26.5;-1.0;
17/05/2019 22:51:18;116;1024;339.25;16;0.96;11.22;0.1;23.80;72176;4839.018;-12327.047;-9999;500;505.0;100;100.1;0;-0.5;26.5;-1.0;
17/05/2019 22:51:38;116;1024;339.20;16;0.95;11.25;0.1;23.90;72173;4839.017;-12327.046;-9999;500;505.0;100;100.1;0;-0.5;26.5;-1.0;
17/05/2019 22:51:58;116;1024;339.01;16;0.95;11.24;0.1;23.90;72171;4839.017;-12327.046;-9999;500;505.0;100;100.3;0;-0.5;26.6;-1.0;
17/05/2019 22:52:18;116;1024;339.46;16;0.96;11.24;0.1;23.90;72171;4839.018;-12327.045;-9999;500;506.9;100;100.3;0;-0.5;26.4;-1.0;
17/05/2019 22:52:38;116;1024;339.13;16;0.95;11.22;0.1;24.00;72187;4839.017;-12327.046;-9999;500;505.0;100;100.1;0;-0.5;26.5;-1.0;
17/05/2019 22:52:58;116;1024;339.46;16;0.96;11.24;0.1;24.00;72179;4839.015;-12327.047;-9999;500;506.9;100;100.1;0;-0.5;26.5;-1.0;
17/05/2019 22:53:18;116;1024;339.28;16;0.96;11.23;0.1;24.10;72196;4839.015;-12327.044;-9999;500;506.9;100;100.3;0;-0.5;26.6;-1.0;
17/05/2019 22:54:12;116;1024;339.23;16;0.95;11.22;0.1;24.20;72230;4839.016;-12327.044;-9999;500;506.9;100;100.1;0;-0.5;26.5;-1.0;
17/05/2019 22:54:32;116;1024;339.25;16;0.96;11.24;0.1;24.30;72234;4839.015;-12327.045;-9999;500;506.9;100;100.3;0;-0.5;26.5;-1.0;
17/05/2019 22:54:52;116;1024;339.24;16;0.95;11.22;0.1;24.30;72242;4839.015;-12327.046;-9999;500;505.0;100;100.3;0;-0.5;26.5;-1.0;
17/05/2019 22:55:44;116;1024;339.28;16;0.95;11.23;0.1;24.50;72276;4839.015;-12327.046;-9999;500;506.9;100;100.1;0;-0.5;26.5;-1.0;
17/05/2019 22:56:04;116;1024;339.38;16;0.95;11.22;0.1;24.50;72284;4839.016;-12327.044;-9999;500;505.0;100;100.3;0;-0.5;26.5;-1.0;
17/05/2019 22:56:24;116;1024;339.25;16;0.96;11.23;0.1;24.60;72304;4839.014;-12327.046;-9999;500;506.9;100;100.3;0;-0.5;26.5;-1.0;
17/05/2019 23:02:01;116;1024;339.72;16;0.96;11.22;0.1;25.40;72466;4839.014;-12327.046;-9999;500;505.0;100;100.1;0;-0.5;26.5;-1.0;
17/05/2019 23:02:21;116;1024;339.83;16;0.99;11.25;0.1;25.50;72469;4839.013;-12327.044;-9999;500;508.9;100;100.1;0;-0.5;26.5;-1.0;
17/05/2019 23:02:41;116;1024;339.82;16;0.97;11.24;0.1;25.50;72456;4839.013;-12327.044;-9999;500;505.0;100;100.1;0;-0.5;26.5;-1.0;
17/05/2019 23:03:01;116;1024;339.62;16;0.94;11.23;0.1;25.50;72459;4839.013;-12327.045;-9999;500;505.0;100;100.3;0;0.0;26.5;-1.0;
17/05/2019 23:03:21;116;1024;339.85;16;0.98;11.24;0.1;25.60;72466;4839.013;-12327.044;-9999;500;505.0;100;100.3;0;-0.5;26.5;-1.0;
17/05/2019 23:03:41;116;1024;339.68;16;0.95;11.24;0.1;25.60;72458;4839.012;-12327.045;-9999;500;506.9;100;100.3;0;-0.5;26.5;-1.0;
17/05/2019 23:04:01;116;1024;339.81;16;0.97;11.24;0.1;25.60;72466;4839.012;-12327.046;-9999;500;505.0;100;100.3;0;-0.5;26.5;-1.0;
17/05/2019 23:04:21;116;1024;339.76;16;0.97;11.24;0.1;25.70;72478;4839.012;-12327.046;-9999;500;506.9;100;100.3;0;-0.5;26.5;-1.0;
17/05/2019 23:04:41;116;1024;339.63;16;0.98;11.24;0.1;25.70;72485;4839.011;-12327.047;-9999;500;505.0;100;100.1;0;-0.5;26.5;-1.0;
17/05/2019 23:05:01;116;1024;339.64;16;0.96;11.26;0.1;25.70;72499;4839.012;-12327.039;-9999;500;506.9;100;101.0;0;0.5;26.5;-1.0;
17/05/2019 23:05:39;116;1024;99.51;16;-3.80;5.86;0.1;25.80;72497;4839.011;-12327.031;-9999;500;503.0;100;100.4;0;1.8;26.5;-1.0;
17/05/2019 23:05:59;116;1024;52.79;16;-6.90;12.92;0.1;25.80;72504;4839.010;-12327.029;-9999;500;505.0;100;99.9;0;-0.5;26.5;-1.0;
17/05/2019 23:06:19;116;1024;34.46;16;-1.79;6.32;0.1;25.80;72512;4839.012;-12327.022;-9999;500;505.0;100;100.1;0;1.8;26.6;-1.0;
17/05/2019 23:06:39;116;1024;65.63;16;-1.53;2.38;0.1;25.90;72512;4839.018;-12327.015;-9999;500;506.9;100;100.0;0;1.4;26.5;-1.0;
17/05/2019 23:06:59;110;1024;144.46;16;-0.05;2.63;0.1;25.90;72510;4839.018;-12327.015;-9999;-250;398.0;100;99.9;0;1.8;26.5;-1.0;
17/05/2019 23:07:09;110;1024;132.86;16;-0.73;3.19;1.5;25.90;72773;4839.018;-12327.015;-9999;-250;249.5;100;99.9;0;1.8;26.5;-1.0;
17/05/2019 23:07:19;110;1024;132.32;16;-0.80;3.19;3.0;26.00;72967;4839.018;-12327.015;-9999;-250;105.0;100;99.9;0;1.8;26.4;-1.0;
17/05/2019 23:07:29;110;1024;132.27;16;-0.73;3.20;4.4;26.00;73206;4839.018;-12327.015;-9999;-250;-37.6;100;99.9;0;1.8;26.5;-1.0;
17/05/2019 23:07:39;110;1024;132.04;16;-0.72;3.19;5.9;26.00;73461;4839.018;-12327.015;-9999;-250;-174.3;95;94.8;0;1.8;26.4;-1.0;
17/05/2019 23:07:49;110;1024;132.18;16;-0.73;3.19;7.3;26.00;73698;4839.018;-12327.015;-9999;-250;-247.5;95;94.8;0;1.8;26.5;-1.0;
