Timestamp;NavState;SecurityLevel;Heading;Declination;Pitch;Roll;Depth;Temperature;Pa;Lat;Lon;DesiredH;BallastCmd;BallastPos;LinCmd;LinPos;AngCmd;AngPos;Voltage;Altitude;
16/06/2019 05:21:45;117;0;35.74;17;15.77;2.78;9.0;10.00;69338;5123.606;-12841.591;53;150;156.4;57;57.1;-2;-1.4;28.8;-1.0;
16/06/2019 05:21:55;115;0;31.36;17;16.32;2.83;8.2;10.00;69340;5123.606;-12841.591;53;500;170.3;100;100.3;0;0.0;28.8;-1.0;
16/06/2019 05:22:05;115;0;50.24;17;-24.94;4.86;7.6;10.00;69256;5123.606;-12841.591;53;500;320.8;100;100.0;0;0.5;28.4;-1.0;
16/06/2019 05:22:15;115;0;37.99;17;-65.44;1.64;8.4;10.10;69056;5123.606;-12841.591;53;500;471.3;100;100.0;0;0.5;28.4;-1.0;
16/06/2019 05:22:25;115;0;39.62;17;-60.06;3.67;7.2;10.10;68824;5123.606;-12841.591;53;500;506.9;100;100.0;0;0.5;28.4;-1.0;
16/06/2019 05:22:35;115;0;19.21;17;-29.64;3.74;4.5;10.10;68789;5123.606;-12841.591;53;500;506.9;100;100.0;0;0.5;28.7;-1.0;
16/06/2019 05:22:45;116;0;356.70;17;-61.82;11.22;1.4;10.20;68822;5123.606;-12841.591;53;500;506.9;100;100.0;0;0.5;28.8;-1.0;
16/06/2019 05:23:05;116;0;343.75;17;-26.97;11.23;1.4;10.30;68862;5123.606;-12841.591;53;500;506.9;100;100.0;0;0.5;28.7;-1.0;
16/06/2019 05:23:25;116;0;351.86;17;-15.57;0.60;1.4;10.40;68896;5123.606;-12841.591;53;500;508.9;100;99.9;0;0.5;28.8;-1.0;
16/06/2019 05:23:45;116;0;358.75;17;-35.47;0.94;1.6;10.40;68908;5123.606;-12841.591;53;500;508.9;100;100.0;0;0.5;28.9;-1.0;
16/06/2019 05:24:05;116;0;23.21;17;-10.40;3.57;1.4;10.60;68941;5123.606;-12841.591;53;500;508.9;100;99.9;0;0.9;28.8;-1.0;
16/06/2019 05:24:25;116;0;84.69;17;-14.32;0.82;1.4;10.70;68950;5124.415;-12839.861;53;500;510.9;100;99.9;0;0.5;28.7;-1.0;
16/06/2019 05:29:09;116;0;158.36;17;-6.98;2.09;1.4;12.00;69070;5124.415;-12839.861;53;500;510.9;100;99.9;0;0.5;28.8;-1.0;
16/06/2019 05:29:29;116;0;150.05;17;-7.65;0.07;1.4;12.10;69075;5124.412;-12839.857;53;500;508.9;100;99.9;0;0.5;28.7;-1.0;
16/06/2019 05:29:51;116;0;157.34;17;-6.28;3.83;1.3;12.20;69084;5124.411;-12839.855;53;500;508.9;100;99.9;0;0.5;28.7;-1.0;
16/06/2019 05:30:11;116;0;173.51;17;-8.80;3.85;1.4;12.30;69096;5124.412;-12839.851;53;500;508.9;100;99.9;0;0.5;28.8;-1.0;
16/06/2019 05:30:31;116;0;158.78;17;-9.56;7.81;1.3;12.40;69100;5124.411;-12839.849;53;500;510.9;100;99.9;0;0.5;28.7;-1.0;
16/06/2019 05:30:51;116;0;155.69;17;-6.51;0.44;1.3;12.50;69110;5124.411;-12839.848;53;500;508.9;100;99.9;0;0.5;28.7;-1.0;
16/06/2019 05:31:11;116;0;160.68;17;-9.07;1.53;1.3;12.60;69116;5124.410;-12839.835;53;500;510.9;100;99.9;0;0.5;28.7;-1.0;
16/06/2019 05:32:32;116;0;153.15;17;-16.76;1.99;1.4;13.10;69138;5124.410;-12839.835;52;500;508.9;100;99.9;0;0.5;28.7;-1.0;
16/06/2019 05:32:52;116;0;167.51;17;-3.15;2.08;1.3;13.20;69138;5124.409;-12839.828;52;500;510.9;100;100.0;0;0.5;28.8;-1.0;
16/06/2019 05:33:14;116;0;159.90;17;-18.45;5.26;1.4;13.30;69149;5124.410;-12839.826;52;500;508.9;100;100.0;0;0.5;28.7;-1.0;
16/06/2019 05:33:34;116;0;141.77;17;-4.86;5.40;1.3;13.40;69153;5124.401;-12839.797;52;500;510.9;100;99.9;0;0.5;28.7;-1.0;
16/06/2019 05:38:16;116;0;168.91;17;-4.93;2.48;1.3;14.20;69195;5124.401;-12839.797;52;500;510.9;100;99.9;0;0.5;28.7;-1.0;
16/06/2019 05:38:36;116;0;152.38;17;-8.85;-2.16;1.3;14.30;69204;5124.400;-12839.796;52;500;510.9;100;99.9;0;0.5;28.7;-1.0;
16/06/2019 05:38:56;116;0;164.45;17;-7.05;3.99;1.3;14.30;69207;5124.398;-12839.787;52;500;512.9;100;99.9;0;0.5;28.7;-1.0;
16/06/2019 05:39:26;116;0;187.65;17;-6.51;2.08;1.3;14.40;69211;5124.398;-12839.788;52;500;510.9;100;99.9;0;0.5;28.7;-1.0;
16/06/2019 05:39:46;116;0;164.24;17;-7.35;2.44;1.3;14.40;69206;5124.396;-12839.785;52;500;510.9;100;99.9;0;0.5;28.8;-1.0;
16/06/2019 05:40:06;116;0;156.81;17;-5.15;6.75;1.4;14.50;69204;5124.396;-12839.778;52;500;510.9;100;99.9;0;0.5;28.8;-1.0;
16/06/2019 05:41:20;116;0;161.51;17;-5.74;3.50;1.3;14.80;69223;5124.396;-12839.777;52;500;510.9;100;99.9;0;0.5;28.8;-1.0;
16/06/2019 05:41:40;116;0;153.89;17;-10.97;3.60;1.3;14.80;69227;5124.395;-12839.761;52;500;508.9;100;99.9;0;0.5;28.7;-1.0;
16/06/2019 05:42:17;116;0;156.88;17;-6.48;2.92;1.3;15.00;69228;5124.396;-12839.760;52;500;510.9;100;99.9;0;0.5;28.7;-1.0;
16/06/2019 05:42:37;116;0;151.38;17;-8.62;8.18;1.3;15.10;69229;5124.407;-12839.733;52;500;510.9;100;99.9;0;0.5;28.7;-1.0;
16/06/2019 05:42:57;116;0;166.97;17;-11.61;3.27;1.3;15.20;69246;5124.394;-12839.767;52;500;510.9;100;99.9;0;0.5;28.7;-1.0;
16/06/2019 05:43:18;116;0;162.41;17;-11.16;0.77;1.3;15.30;69248;5124.393;-12839.762;52;500;510.9;100;100.0;0;0.5;28.8;-1.0;
16/06/2019 05:43:43;116;0;159.10;17;-5.18;5.21;1.3;15.40;69253;5124.392;-12839.761;52;500;508.9;100;99.9;0;0.5;28.7;-1.0;
16/06/2019 05:44:09;116;0;161.70;17;-5.94;12.14;1.3;15.40;69248;5124.393;-12839.759;52;500;508.9;100;99.9;0;0.5;28.7;-1.0;
16/06/2019 05:44:29;116;0;174.47;17;-6.78;3.82;1.3;15.40;69255;5124.392;-12839.760;52;500;508.9;100;99.9;0;0.5;28.7;-1.0;
16/06/2019 05:44:49;116;0;161.73;17;-15.80;4.64;1.3;15.50;69247;5124.392;-12839.759;52;500;510.9;100;99.9;0;0.5;28.8;-1.0;
16/06/2019 05:45:09;116;0;180.00;17;-6.05;1.39;1.3;15.50;69258;5124.391;-12839.758;52;500;510.9;100;99.9;0;0.5;28.6;-1.0;
16/06/2019 05:45:29;116;0;158.10;17;-16.73;2.84;1.3;15.50;69253;5124.390;-12839.756;52;500;510.9;100;99.9;0;0.5;28.8;-1.0;
16/06/2019 05:45:49;116;0;170.73;17;-10.72;4.75;1.3;15.60;69250;5124.389;-12839.755;52;500;508.9;100;99.9;0;0.5;28.7;-1.0;
16/06/2019 05:46:09;110;0;172.26;17;-3.66;3.10;1.2;15.60;69266;5124.389;-12839.755;52;-300;407.9;100;99.9;0;0.5;28.8;-1.0;
16/06/2019 05:46:19;110;0;159.70;17;-6.28;1.75;1.3;15.60;69504;5124.389;-12839.755;52;-300;263.4;100;99.9;0;0.5;28.7;-1.0;
16/06/2019 05:46:29;110;0;164.85;17;-11.33;-1.62;1.4;15.60;69687;5124.389;-12839.755;52;-300;120.8;100;99.9;0;0.5;28.7;-1.0;
16/06/2019 05:46:39;110;0;155.25;17;-20.80;4.44;1.5;15.60;69930;5124.389;-12839.755;52;-300;-35.6;100;100.0;0;0.5;28.6;-1.0;
16/06/2019 05:46:49;110;0;145.96;17;-46.03;8.05;2.1;15.60;70177;5124.389;-12839.755;52;-300;-223.8;97;96.9;0;0.5;28.7;-1.0;
16/06/2019 05:46:59;110;0;177.95;17;-58.68;-2.85;4.0;15.60;70495;5124.389;-12839.755;52;-300;-301.0;80;79.9;0;0.5;28.6;-1.0;
16/06/2019 05:47:09;110;0;188.41;17;-48.27;3.72;6.9;15.60;70590;5124.389;-12839.755;52;-300;-301.0;73;73.0;0;0.5;28.7;-1.0;
16/06/2019 05:47:19;100;0;178.45;17;-35.41;4.41;10.0;15.50;70557;5124.389;-12839.755;52;-300;-301.0;73;72.9;0;0.5;28.7;-1.0;
16/06/2019 05:47:39;100;0;178.35;17;-27.05;4.13;14.9;15.50;70523;5124.389;-12839.755;52;-300;-295.0;73;72.9;45;45.6;28.7;0.0;
16/06/2019 05:47:59;100;0;161.34;17;-21.88;25.29;19.1;15.40;70433;5124.389;-12839.755;52;-300;-297.0;73;72.9;45;46.0;28.8;0.0;
16/06/2019 05:48:19;100;0;143.54;17;-21.38;25.57;22.4;15.30;70370;5124.389;-12839.755;52;-300;-297.0;73;72.9;39;38.4;28.8;0.0;
16/06/2019 05:48:39;100;0;123.82;17;-22.83;21.27;25.6;15.20;70327;5124.389;-12839.755;52;-300;-297.0;73;72.9;26;26.2;28.8;0.0;
16/06/2019 05:48:59;100;0;107.27;17;-23.28;14.96;28.9;15.10;70285;5124.389;-12839.755;52;-300;-297.0;73;72.9;20;19.4;28.8;0.0;
16/06/2019 05:49:19;100;0;93.95;17;-23.42;12.03;32.3;15.00;70258;5124.389;-12839.755;52;-300;-295.0;73;72.9;16;15.8;28.8;0.0;
16/06/2019 05:49:39;100;0;76.50;17;-23.61;10.23;35.8;14.90;70232;5124.389;-12839.755;52;-300;-295.0;73;72.9;11;10.8;28.8;0.0;
16/06/2019 05:49:59;100;0;63.37;17;-23.81;7.90;39.2;14.80;70210;5124.389;-12839.755;52;-300;-295.0;73;72.9;10;9.9;28.8;0.0;
16/06/2019 05:50:19;100;0;54.18;17;-23.94;7.45;42.6;14.70;70192;5124.389;-12839.755;52;-300;-295.0;73;72.9;10;9.5;28.7;0.0;
16/06/2019 05:50:39;100;0;45.86;17;-23.97;7.51;46.2;14.60;70169;5124.389;-12839.755;52;-300;-295.0;73;72.9;9;9.0;28.7;0.0;
16/06/2019 05:50:59;100;0;38.24;17;-23.77;6.99;49.7;14.50;70148;5124.389;-12839.755;52;-300;-295.0;73;72.9;9;8.1;28.8;0.0;
16/06/2019 05:51:19;100;0;28.09;17;-23.69;7.00;53.3;14.40;70155;5124.389;-12839.755;52;-300;-295.0;73;72.9;9;8.1;28.7;0.0;
16/06/2019 05:51:39;100;0;19.48;17;-23.33;6.91;56.7;14.30;70115;5124.389;-12839.755;52;-300;-297.0;73;72.9;4;3.6;28.8;0.0;
16/06/2019 05:51:59;100;0;15.87;17;-24.20;4.58;59.9;14.20;70090;5124.389;-12839.755;52;-300;-295.0;73;72.9;4;3.2;28.8;0.0;
16/06/2019 05:52:19;100;0;12.67;17;-23.55;4.51;63.3;14.20;70059;5124.389;-12839.755;52;-300;-295.0;73;72.9;5;5.4;28.7;0.0;
16/06/2019 05:52:39;100;0;5.56;17;-23.19;6.00;66.3;14.10;70037;5124.389;-12839.755;52;-300;-295.0;73;72.7;2;1.8;28.8;0.0;
16/06/2019 05:52:59;100;0;359.96;17;-22.74;3.78;69.5;14.00;70026;5124.389;-12839.755;52;-300;-295.0;73;72.7;0;0.0;28.8;0.0;
16/06/2019 05:53:19;100;0;359.41;17;-23.09;2.82;72.6;13.90;70003;5124.389;-12839.755;52;-300;-295.0;73;72.7;1;0.9;28.8;0.0;
16/06/2019 05:53:39;100;0;356.86;17;-22.36;3.96;75.7;13.80;69987;5124.389;-12839.755;52;-300;-293.1;73;72.7;0;-0.5;28.7;0.0;
16/06/2019 05:53:59;100;0;359.22;17;-22.84;3.11;78.6;13.70;69961;5124.389;-12839.755;52;-300;-295.0;73;72.7;2;1.8;28.8;0.0;
16/06/2019 05:54:19;100;0;354.97;17;-22.42;4.48;81.7;13.70;69966;5124.389;-12839.755;52;-300;-293.1;73;72.7;0;0.0;28.8;0.0;
16/06/2019 05:54:39;100;0;351.27;17;-21.87;3.32;84.7;13.60;69947;5124.389;-12839.755;52;-300;-295.0;73;72.7;-1;-1.4;28.7;0.0;
16/06/2019 05:54:59;100;0;351.12;17;-22.13;2.73;87.5;13.50;69937;5124.389;-12839.755;52;-300;-295.0;73;72.7;-1;-1.8;28.8;0.0;
16/06/2019 05:55:19;100;0;352.03;17;-22.36;2.64;90.4;13.40;69918;5124.389;-12839.755;52;-300;-295.0;73;72.7;0;0.0;28.8;0.0;
16/06/2019 05:55:39;100;0;343.71;17;-21.13;3.57;93.2;13.40;69918;5124.389;-12839.755;52;-300;-295.0;73;72.7;-8;-8.1;28.7;0.0;
16/06/2019 05:55:59;100;0;341.75;17;-21.87;-0.68;96.0;13.30;69901;5124.389;-12839.755;52;-300;-295.0;73;72.7;-9;-9.0;28.8;0.0;
16/06/2019 05:56:19;100;0;337.10;17;-21.53;-1.05;98.8;13.20;69892;5124.389;-12839.755;52;-300;-293.1;73;72.7;-13;-13.5;28.8;0.0;
16/06/2019 05:56:39;100;0;334.56;17;-21.53;-3.21;101.5;13.10;69884;5124.389;-12839.755;52;-300;-295.0;73;72.7;-15;-14.9;28.8;0.0;
16/06/2019 05:56:59;100;0;336.80;17;-21.40;-3.63;104.3;13.10;69870;5124.389;-12839.755;52;-300;-293.1;73;72.7;-15;-14.9;28.8;0.0;
16/06/2019 05:57:19;100;0;331.35;17;-21.07;-3.76;107.1;13.00;69868;5124.389;-12839.755;52;-300;-293.1;73;72.7;-20;-19.9;28.8;0.0;
16/06/2019 05:57:39;100;0;326.70;17;-21.20;-6.03;109.7;12.90;69850;5124.389;-12839.755;52;-300;-293.1;73;72.7;-25;-25.3;28.8;0.0;
16/06/2019 05:57:59;100;0;325.28;17;-21.43;-8.40;112.4;12.90;69834;5124.389;-12839.755;52;-300;-293.1;73;72.7;-27;-27.5;28.8;0.0;
16/06/2019 05:58:19;100;0;328.23;17;-20.96;-9.61;115.0;12.80;69830;5124.389;-12839.755;52;-300;-293.1;73;72.7;-27;-28.0;28.8;0.0;
16/06/2019 05:58:39;100;0;336.77;17;-21.07;-9.84;117.5;12.70;69818;5124.389;-12839.755;52;-300;-293.1;73;72.7;-23;-23.0;28.8;0.0;
16/06/2019 05:58:59;100;0;341.49;17;-20.58;-6.77;120.0;12.70;69815;5124.389;-12839.755;52;-300;-295.0;73;72.7;-22;-22.1;28.7;0.0;
16/06/2019 05:59:19;100;0;345.87;17;-20.78;-6.98;122.5;12.60;69796;5124.389;-12839.755;52;-300;-293.1;73;72.7;-21;-21.2;28.8;0.0;
16/06/2019 05:59:39;100;0;349.74;17;-20.06;-5.93;124.8;12.50;69797;5124.389;-12839.755;52;-300;-293.1;73;72.7;-20;-19.4;28.8;0.0;
16/06/2019 05:59:59;100;0;352.87;17;-19.93;-5.20;127.2;12.50;69775;5124.389;-12839.755;52;-300;-293.1;73;72.7;-20;-19.0;28.8;0.0;
16/06/2019 06:00:19;100;0;354.44;17;-20.03;-5.20;129.7;12.40;69764;5124.389;-12839.755;52;-300;-293.1;73;72.7;-20;-19.0;28.8;0.0;
16/06/2019 06:00:39;100;0;355.36;17;-20.17;-5.24;132.1;12.40;69759;5124.389;-12839.755;52;-300;-293.1;73;72.7;-21;-21.2;28.8;0.0;
16/06/2019 06:00:59;100;0;354.88;17;-19.84;-6.59;134.6;12.30;69751;5124.389;-12839.755;52;-300;-293.1;73;72.7;-22;-22.1;28.8;0.0;
16/06/2019 06:01:19;100;0;355.69;17;-19.91;-7.21;137.0;12.20;69753;5124.389;-12839.755;52;-300;-293.1;73;72.7;-22;-22.6;28.7;0.0;
16/06/2019 06:01:39;100;0;356.27;17;-19.94;-7.18;139.4;12.20;69750;5124.389;-12839.755;52;-300;-293.1;73;72.7;-21;-20.8;28.8;0.0;
16/06/2019 06:01:59;100;0;355.56;17;-19.92;-6.04;141.8;12.10;69736;5124.389;-12839.755;52;-300;-293.1;73;72.7;-22;-22.1;28.8;0.0;
16/06/2019 06:02:19;100;0;355.01;17;-19.70;-7.00;144.2;12.10;69733;5124.389;-12839.755;52;-300;-293.1;73;72.7;-22;-22.6;28.8;0.0;
16/06/2019 06:02:39;100;0;354.21;17;-19.69;-7.06;146.6;12.00;69722;5124.389;-12839.755;52;-300;-293.1;73;72.7;-23;-23.0;28.7;0.0;
16/06/2019 06:02:59;100;0;355.97;17;-19.79;-7.63;148.9;12.00;69721;5124.389;-12839.755;52;-300;-293.1;73;72.7;-22;-22.1;28.8;0.0;
16/06/2019 06:03:19;100;0;357.21;17;-19.37;-6.52;151.2;11.90;69724;5124.389;-12839.755;52;-300;-293.1;73;72.7;-21;-21.2;28.7;0.0;
16/06/2019 06:03:39;100;0;359.43;17;-19.31;-6.47;153.4;11.90;69708;5124.389;-12839.755;52;-300;-293.1;73;72.7;-20;-19.9;28.7;0.0;
16/06/2019 06:03:59;100;0;1.36;17;-19.47;-5.65;155.6;11.80;69693;5124.389;-12839.755;52;-300;-293.1;73;72.7;-20;-19.4;28.7;0.0;
16/06/2019 06:04:19;100;0;0.99;17;-19.34;-5.61;157.7;11.70;69701;5124.389;-12839.755;52;-300;-293.1;73;72.7;-21;-21.2;28.8;0.0;
16/06/2019 06:04:39;100;0;2.90;17;-19.17;-6.60;159.7;11.70;69683;5124.389;-12839.755;52;-300;-291.1;73;72.7;-20;-19.9;28.8;0.0;
16/06/2019 06:04:59;100;0;3.80;17;-19.10;-5.58;161.8;11.60;69678;5124.389;-12839.755;52;-300;-293.1;73;72.7;-20;-19.4;28.7;0.0;
16/06/2019 06:05:19;100;0;0.44;17;-19.17;-5.54;163.8;11.60;69672;5124.389;-12839.755;52;-300;-293.1;73;72.7;-22;-22.1;28.8;0.0;
16/06/2019 06:05:39;100;0;0.85;17;-19.18;-7.10;165.9;11.50;69655;5124.389;-12839.755;52;-300;-291.1;73;72.7;-22;-22.6;28.8;0.0;
16/06/2019 06:05:59;100;0;358.86;17;-19.28;-7.09;167.8;11.50;69640;5124.389;-12839.755;52;-300;-293.1;73;72.7;-23;-23.5;28.8;0.0;
16/06/2019 06:06:19;100;0;359.43;17;-19.08;-7.68;169.7;11.40;69645;5124.389;-12839.755;52;-300;-293.1;73;72.7;-22;-22.1;28.8;0.0;
16/06/2019 06:06:39;100;0;358.82;17;-18.97;-6.50;171.7;11.40;69638;5124.389;-12839.755;52;-300;-293.1;73;72.7;-22;-21.2;28.8;0.0;
16/06/2019 06:06:59;100;0;357.70;17;-19.01;-6.55;173.5;11.30;69628;5124.389;-12839.755;52;-300;-291.1;73;72.7;-22;-21.2;28.7;43.3;
16/06/2019 06:07:19;100;0;359.78;17;-18.75;-6.49;175.3;11.30;69614;5124.389;-12839.755;52;-300;-293.1;73;72.7;-21;-21.2;28.8;41.2;
16/06/2019 06:07:39;100;0;0.41;17;-18.58;-6.53;177.3;11.20;69596;5124.389;-12839.755;52;-300;-293.1;73;72.7;-21;-21.2;28.8;39.1;
16/06/2019 06:07:59;100;0;359.04;17;-18.44;-6.43;179.3;11.10;69594;5124.389;-12839.755;52;-300;-293.1;73;72.7;-22;-22.1;28.8;37.1;
16/06/2019 06:08:19;100;0;358.70;17;-18.29;-7.13;181.4;11.10;69580;5124.389;-12839.755;52;-300;-291.1;73;72.7;-22;-22.6;28.8;34.9;
16/06/2019 06:08:39;100;0;355.99;17;-18.90;-7.27;183.4;11.00;69565;5124.389;-12839.755;52;-300;-293.1;73;72.7;-24;-23.9;28.7;32.9;
16/06/2019 06:08:59;100;0;354.62;17;-18.43;-8.31;185.3;11.00;69562;5124.389;-12839.755;52;-300;-293.1;73;72.7;-24;-24.4;28.8;30.9;
16/06/2019 06:09:19;100;0;356.63;17;-19.01;-8.48;187.4;10.90;69562;5124.389;-12839.755;52;-300;-293.1;73;72.7;-22;-22.1;28.7;28.9;
16/06/2019 06:09:39;100;0;355.94;17;-18.19;-6.59;189.3;10.90;69549;5124.389;-12839.755;52;-300;-293.1;73;72.7;-23;-23.5;28.7;26.8;
16/06/2019 06:09:59;100;0;0.02;17;-17.94;-7.61;191.1;10.80;69544;5124.389;-12839.755;52;-300;-291.1;73;72.7;-20;-19.9;28.7;25.0;
16/06/2019 06:10:19;100;0;1.00;17;-18.90;-5.80;193.0;10.80;69536;5124.389;-12839.755;52;-300;-293.1;73;72.7;-20;-19.0;28.8;23.1;
16/06/2019 06:10:39;100;0;359.61;17;-18.29;-5.65;195.1;10.80;69546;5124.389;-12839.755;52;-300;-291.1;73;72.7;-21;-21.2;28.7;21.2;
16/06/2019 06:10:59;100;0;356.00;17;-18.52;-6.96;196.9;10.70;69528;5124.389;-12839.755;52;-300;-293.1;73;72.7;-24;-24.4;28.8;19.4;
16/06/2019 06:11:19;118;0;355.12;17;-19.00;-8.28;198.7;10.70;69517;5124.389;-12839.755;52;150;-277.2;57;56.8;0;0.5;28.7;17.5;
16/06/2019 06:11:29;118;0;34.97;17;3.00;3.94;199.4;10.60;69435;5124.389;-12839.755;52;150;-118.8;57;57.1;0;0.5;28.2;17.5;
16/06/2019 06:11:39;118;0;35.44;17;18.68;3.91;199.1;10.60;69239;5124.389;-12839.755;52;150;35.6;57;57.1;0;0.5;28.2;-1.0;
16/06/2019 06:11:49;118;0;35.53;17;23.75;3.63;198.3;10.60;68987;5124.389;-12839.755;52;150;154.5;57;57.1;0;0.5;28.2;-1.0;
16/06/2019 06:11:59;118;0;355.86;17;25.04;3.75;197.1;10.60;68798;5124.389;-12839.755;52;150;156.4;57;57.1;0;0.5;28.7;-1.0;
16/06/2019 06:12:09;118;0;356.94;17;27.18;4.12;195.6;10.60;68812;5124.389;-12839.755;52;150;156.4;57;57.1;0;0.5;28.8;-1.0;
16/06/2019 06:12:20;117;0;356.52;17;28.05;3.81;193.8;10.60;68808;5124.389;-12839.755;52;150;156.4;57;56.9;0;0.5;28.7;-1.0;
16/06/2019 06:12:40;117;0;359.39;17;27.95;3.01;189.3;10.50;68800;5124.389;-12839.755;52;150;156.4;57;56.9;21;21.2;28.7;-1.0;
16/06/2019 06:13:00;117;0;4.59;17;27.86;14.47;184.4;10.50;68797;5124.389;-12839.755;52;150;156.4;57;56.9;18;17.6;28.8;-1.0;
16/06/2019 06:13:20;117;0;13.66;17;27.63;11.23;180.0;10.50;68799;5124.389;-12839.755;52;150;158.4;57;56.9;14;14.0;28.8;-1.0;
16/06/2019 06:13:40;117;0;16.89;17;28.03;9.47;175.5;10.40;68782;5124.389;-12839.755;52;150;156.4;57;56.9;15;15.3;28.7;-1.0;
16/06/2019 06:14:00;117;0;20.58;17;27.78;10.85;171.0;10.40;68787;5124.389;-12839.755;52;150;158.4;57;57.1;14;13.5;28.7;-1.0;
16/06/2019 06:14:20;117;0;27.04;17;27.83;9.52;166.7;10.30;68788;5124.389;-12839.755;52;150;156.4;57;56.9;12;11.7;28.7;-1.0;
16/06/2019 06:14:40;117;0;36.53;17;27.48;8.51;162.4;10.30;68794;5124.389;-12839.755;52;150;158.4;57;56.9;12;11.3;28.8;-1.0;
16/06/2019 06:15:00;117;0;41.93;17;27.55;8.44;158.1;10.20;68803;5124.389;-12839.755;52;150;156.4;57;56.9;9;8.6;28.7;-1.0;
16/06/2019 06:15:20;117;0;44.00;17;27.24;7.16;153.9;10.20;68813;5124.389;-12839.755;52;150;156.4;57;56.9;9;8.6;28.8;-1.0;
16/06/2019 06:15:40;117;0;46.39;17;27.54;7.37;149.5;10.20;68823;5124.389;-12839.755;52;150;156.4;57;56.9;9;8.6;28.7;-1.0;
16/06/2019 06:16:00;117;0;47.64;17;26.94;7.25;145.2;10.20;68834;5124.389;-12839.755;52;150;158.4;57;56.9;9;8.6;28.7;-1.0;
16/06/2019 06:16:20;117;0;49.20;17;26.73;7.17;141.1;10.10;68822;5124.389;-12839.755;52;150;156.4;57;56.9;8;8.1;28.7;-1.0;
16/06/2019 06:16:40;117;0;53.02;17;26.86;7.12;136.8;10.10;68843;5124.389;-12839.755;52;150;158.4;57;56.9;6;5.9;28.7;-1.0;
16/06/2019 06:17:00;117;0;58.14;17;26.55;5.60;132.6;10.10;68844;5124.389;-12839.755;52;150;156.4;57;56.9;4;4.1;28.8;-1.0;
16/06/2019 06:17:20;117;0;54.71;17;26.52;4.94;128.3;10.10;68851;5124.389;-12839.755;52;150;158.4;57;57.1;7;7.7;28.7;-1.0;
16/06/2019 06:17:40;117;0;55.13;17;26.85;7.37;123.9;10.10;68849;5124.389;-12839.755;52;150;158.4;57;56.9;6;5.9;28.7;-1.0;
16/06/2019 06:18:00;117;0;53.07;17;26.44;5.84;119.5;10.00;68853;5124.389;-12839.755;52;150;158.4;57;57.1;6;5.4;28.7;-1.0;
16/06/2019 06:18:20;117;0;58.01;17;25.86;5.91;115.2;10.00;68845;5124.389;-12839.755;52;150;158.4;57;56.9;3;2.7;28.8;-1.0;
16/06/2019 06:18:40;117;0;56.48;17;24.58;4.20;111.4;10.00;68866;5124.389;-12839.755;52;150;158.4;57;56.9;4;4.1;28.8;-1.0;
16/06/2019 06:19:00;117;0;59.23;17;24.60;5.48;108.1;10.00;68877;5124.389;-12839.755;52;150;158.4;57;56.9;2;1.8;28.7;-1.0;
16/06/2019 06:19:20;117;0;58.98;17;24.41;3.81;104.8;10.00;68878;5124.389;-12839.755;52;150;156.4;57;56.9;2;1.4;28.7;-1.0;
16/06/2019 06:19:40;117;0;61.42;17;24.20;3.89;101.5;10.00;68880;5124.389;-12839.755;52;150;158.4;57;56.9;0;0.0;28.7;-1.0;
16/06/2019 06:20:00;117;0;57.56;17;23.45;2.92;98.4;10.00;68901;5124.389;-12839.755;52;150;158.4;57;56.9;2;2.3;28.8;-1.0;
16/06/2019 06:20:20;117;0;54.47;17;23.78;4.50;95.7;10.00;68904;5124.389;-12839.755;52;150;156.4;57;56.9;3;3.2;28.7;-1.0;
16/06/2019 06:20:40;117;0;47.81;17;23.23;5.23;92.6;10.00;68899;5124.389;-12839.755;52;150;156.4;57;56.9;6;6.3;28.7;-1.0;
16/06/2019 06:21:00;117;0;43.71;17;22.62;6.62;89.7;10.00;68910;5124.389;-12839.755;52;150;156.4;57;56.9;6;6.8;28.8;-1.0;
16/06/2019 06:21:20;117;0;43.53;17;22.76;6.35;86.8;9.90;68922;5124.389;-12839.755;52;150;158.4;57;56.9;4;4.1;28.7;-1.0;
16/06/2019 06:21:40;117;0;41.27;17;22.82;4.62;83.9;9.90;68914;5124.389;-12839.755;52;150;156.4;57;56.9;4;3.6;28.8;-1.0;
16/06/2019 06:22:00;117;0;37.23;17;22.59;4.47;80.9;9.90;68925;5124.389;-12839.755;52;150;158.4;57;57.1;6;6.3;28.7;-1.0;
16/06/2019 06:22:20;117;0;33.35;17;22.45;6.64;77.8;9.90;68925;5124.389;-12839.755;52;150;156.4;57;56.9;6;6.8;28.8;-1.0;
16/06/2019 06:22:40;117;0;24.63;17;22.32;6.83;74.8;9.90;68930;5124.389;-12839.755;52;150;158.4;57;56.9;11;10.8;28.7;-1.0;
16/06/2019 06:23:00;117;0;27.92;17;20.91;8.98;71.9;9.90;68932;5124.389;-12839.755;52;150;156.4;57;57.1;7;6.8;28.8;-1.0;
16/06/2019 06:23:20;117;0;33.28;17;20.75;6.38;69.4;9.90;68946;5124.389;-12839.755;52;150;156.4;57;56.9;3;2.7;28.8;-1.0;
16/06/2019 06:23:40;117;0;36.35;17;21.16;4.23;66.9;9.90;68956;5124.389;-12839.755;52;150;158.4;57;57.1;3;2.3;28.7;-1.0;
16/06/2019 06:24:00;117;0;33.22;17;21.01;4.27;64.1;9.90;68952;5124.389;-12839.755;52;150;156.4;57;57.1;3;2.3;28.8;-1.0;
16/06/2019 06:24:20;117;0;32.71;17;20.71;4.35;61.1;9.90;68967;5124.389;-12839.755;52;150;158.4;57;57.1;3;2.3;28.7;-1.0;
16/06/2019 06:24:40;117;0;30.41;17;20.38;4.27;58.3;9.90;68975;5124.389;-12839.755;52;150;158.4;57;56.9;6;5.9;28.7;-1.0;
16/06/2019 06:25:00;117;0;31.79;17;20.16;6.26;55.7;9.90;68975;5124.389;-12839.755;52;150;158.4;57;56.9;6;6.3;28.8;-1.0;
16/06/2019 06:25:20;117;0;34.02;17;19.83;6.31;53.0;9.90;68987;5124.389;-12839.755;52;150;158.4;57;57.1;6;5.9;28.7;-1.0;
16/06/2019 06:25:40;117;0;38.37;17;19.16;6.24;50.6;10.00;68994;5124.389;-12839.755;52;150;158.4;57;56.9;2;1.8;28.7;-1.0;
16/06/2019 06:26:00;117;0;39.45;17;19.06;3.80;48.3;9.90;69020;5124.389;-12839.755;52;150;158.4;57;56.9;3;3.2;28.8;-1.0;
16/06/2019 06:26:20;117;0;38.93;17;19.22;5.09;46.2;10.00;69026;5124.389;-12839.755;52;150;158.4;57;57.1;4;4.1;28.8;-1.0;
16/06/2019 06:26:40;117;0;39.93;17;19.03;5.20;44.1;10.00;69044;5124.389;-12839.755;52;150;158.4;57;56.9;3;3.2;28.7;-1.0;
16/06/2019 06:27:00;117;0;42.73;17;19.13;4.60;42.0;10.00;69052;5124.389;-12839.755;52;150;158.4;57;56.9;1;0.5;28.7;-1.0;
16/06/2019 06:27:20;117;0;45.58;17;19.42;3.25;39.8;10.00;69076;5124.389;-12839.755;52;150;158.4;57;57.1;0;0.0;28.7;-1.0;
16/06/2019 06:27:40;117;0;46.83;17;19.11;3.18;37.6;10.00;69083;5124.389;-12839.755;52;150;158.4;57;56.9;0;0.0;28.7;-1.0;
16/06/2019 06:28:00;117;0;45.64;17;18.79;3.31;35.3;10.00;69073;5124.389;-12839.755;52;150;158.4;57;56.9;0;0.0;28.8;-1.0;
16/06/2019 06:28:20;117;0;48.00;17;18.86;3.29;33.1;10.10;69095;5124.389;-12839.755;52;150;158.4;57;56.9;0;0.0;28.8;-1.0;
16/06/2019 06:28:40;117;0;45.40;17;18.91;3.19;31.2;10.10;69104;5124.389;-12839.755;52;150;158.4;57;57.1;0;0.0;28.7;-1.0;
16/06/2019 06:29:00;117;0;42.98;17;18.81;3.28;29.0;10.10;69111;5124.389;-12839.755;52;150;158.4;57;56.9;1;0.9;28.8;-1.0;
16/06/2019 06:29:20;117;0;42.54;17;19.20;3.99;26.8;10.10;69122;5124.389;-12839.755;52;150;158.4;57;56.9;1;1.8;28.7;-1.0;
16/06/2019 06:29:40;117;0;41.38;17;17.98;3.89;24.5;10.10;69117;5124.389;-12839.755;52;150;158.4;57;57.1;1;1.4;28.7;-1.0;
16/06/2019 06:30:00;117;0;44.42;17;18.73;3.58;22.3;10.10;69128;5124.389;-12839.755;52;150;158.4;57;56.9;-1;-0.9;28.8;-1.0;
16/06/2019 06:30:20;117;0;45.90;17;18.29;2.65;20.0;10.20;69149;5124.389;-12839.755;52;150;158.4;57;57.1;-1;-1.4;28.7;-1.0;
16/06/2019 06:30:40;117;0;47.48;17;18.26;2.61;17.7;10.20;69171;5124.389;-12839.755;52;150;156.4;57;57.1;-3;-3.2;28.8;-1.0;
16/06/2019 06:31:00;117;0;52.87;17;17.14;1.32;15.6;10.20;69190;5124.389;-12839.755;52;150;158.4;57;56.9;-6;-6.3;28.7;-1.0;
16/06/2019 06:31:20;117;0;48.31;17;16.82;-0.10;13.9;10.20;69230;5124.389;-12839.755;52;150;158.4;57;56.9;-3;-3.2;28.8;-1.0;
16/06/2019 06:31:40;117;0;46.67;17;16.10;2.05;12.4;10.30;69274;5124.389;-12839.755;52;150;158.4;57;57.1;-2;-1.8;28.7;-1.0;
16/06/2019 06:32:00;117;0;45.02;17;16.62;2.76;10.8;10.30;69300;5124.389;-12839.755;52;150;158.4;57;56.9;-2;-0.9;28.7;-1.0;
