Timestamp;NavState;SecurityLevel;Heading;Declination;Pitch;Roll;Depth;Temperature;Pa;Lat;Lon;DesiredH;BallastCmd;BallastPos;LinCmd;LinPos;AngCmd;AngPos;Voltage;Altitude;
15/06/2019 14:13:09;117;0;268.18;17;16.06;2.45;8.6;10.40;69416;5123.906;-12835.989;271;150;158.4;57;57.1;-4;-4.1;28.9;-1.0;
15/06/2019 14:13:19;110;0;269.21;17;16.08;1.21;7.9;10.40;69439;5123.906;-12835.989;271;-300;-47.5;73;73.3;0;0.9;28.9;-1.0;
15/06/2019 14:13:29;110;0;279.90;17;-10.04;4.14;7.5;10.40;69911;5123.906;-12835.989;271;-300;-303.0;73;72.9;0;0.9;28.9;-1.0;
15/06/2019 14:13:39;110;0;284.29;17;-22.97;4.23;8.2;10.40;70219;5123.906;-12835.989;271;-300;-303.0;73;72.9;0;0.9;28.9;-1.0;
15/06/2019 14:13:49;100;0;280.57;17;-27.29;4.26;9.9;10.50;70217;5123.906;-12835.989;271;-300;-305.0;73;72.9;0;0.9;28.9;-1.0;
15/06/2019 14:14:09;100;0;265.65;17;-25.96;4.07;14.1;10.50;70215;5123.906;-12835.989;271;-300;-305.0;73;72.9;3;3.2;28.9;0.0;
15/06/2019 14:14:29;100;0;251.15;17;-25.92;5.25;18.6;10.60;70192;5123.906;-12835.989;271;-300;-305.0;73;72.9;3;3.6;28.9;0.0;
15/06/2019 14:14:49;100;0;239.44;17;-25.13;5.38;22.8;10.60;70187;5123.906;-12835.989;271;-300;-305.0;73;73.0;-8;-8.1;28.9;0.0;
15/06/2019 14:15:09;100;0;226.75;17;-25.84;-0.32;27.1;10.60;70166;5123.906;-12835.989;271;-300;-305.0;73;72.9;-13;-13.5;28.9;0.0;
15/06/2019 14:15:29;100;0;221.47;17;-24.73;-2.88;31.2;10.70;70125;5123.906;-12835.989;271;-300;-306.9;73;73.0;-12;-12.2;28.9;0.0;
15/06/2019 14:15:49;100;0;224.86;17;-25.07;-2.02;34.9;10.70;70076;5123.906;-12835.989;271;-300;-305.0;73;73.0;-8;-8.1;28.9;0.0;
15/06/2019 14:16:09;100;0;217.62;17;-24.65;0.26;38.5;10.70;70056;5123.906;-12835.989;271;-300;-305.0;73;72.9;-12;-12.2;28.9;0.0;
15/06/2019 14:16:29;100;0;214.77;17;-24.91;-2.27;42.1;10.70;70017;5123.906;-12835.989;271;-300;-306.9;73;72.9;-12;-12.2;28.9;0.0;
15/06/2019 14:16:49;100;0;208.91;17;-24.73;-2.43;45.8;10.70;69994;5123.906;-12835.989;271;-300;-305.0;73;72.9;-16;-16.2;28.9;0.0;
15/06/2019 14:17:10;100;0;204.48;17;-24.87;-4.24;49.6;10.70;69985;5123.906;-12835.989;271;-300;-305.0;73;73.0;-18;-18.1;28.9;0.0;
15/06/2019 14:17:30;100;0;203.54;17;-24.44;-5.04;53.3;10.70;69968;5123.906;-12835.989;271;-300;-305.0;73;73.0;-19;-19.0;28.9;0.0;
15/06/2019 14:17:50;100;0;201.89;17;-24.76;-5.60;56.9;10.60;69948;5123.906;-12835.989;271;-300;-306.9;73;72.9;-21;-21.2;28.9;0.0;
15/06/2019 14:18:10;100;0;200.99;17;-24.54;-6.53;60.6;10.60;69929;5123.906;-12835.989;271;-300;-305.0;73;72.9;-23;-23.0;28.9;0.0;
15/06/2019 14:18:30;100;0;201.32;17;-24.69;-7.35;64.2;10.60;69920;5123.906;-12835.989;271;-300;-305.0;73;72.9;-24;-24.4;28.9;0.0;
15/06/2019 14:18:50;100;0;199.33;17;-24.19;-8.02;67.9;10.60;69916;5123.906;-12835.989;271;-300;-305.0;73;72.9;-26;-26.2;28.9;0.0;
15/06/2019 14:19:10;100;0;198.29;17;-24.42;-8.93;71.7;10.60;69909;5123.906;-12835.989;271;-300;-305.0;73;72.9;-26;-26.6;28.9;0.0;
15/06/2019 14:19:30;100;0;197.40;17;-24.26;-8.89;75.3;10.60;69893;5123.906;-12835.989;271;-300;-305.0;73;72.9;-26;-26.6;28.9;0.0;
15/06/2019 14:19:50;100;0;200.10;17;-23.65;-9.27;78.9;10.60;69888;5123.906;-12835.989;271;-300;-305.0;73;72.9;-24;-23.9;28.9;0.0;
15/06/2019 14:20:10;100;0;207.55;17;-24.20;-7.46;82.1;10.60;69872;5123.906;-12835.989;271;-300;-306.9;73;73.0;-21;-20.8;28.9;0.0;
15/06/2019 14:20:30;100;0;217.71;17;-24.01;-6.01;85.3;10.60;69858;5123.906;-12835.989;271;-300;-306.9;73;72.9;-16;-15.8;28.9;0.0;
15/06/2019 14:20:50;100;0;219.56;17;-23.97;-3.53;88.5;10.50;69843;5123.906;-12835.989;271;-300;-305.0;73;73.0;-18;-18.5;28.9;0.0;
15/06/2019 14:21:10;100;0;219.68;17;-23.07;-5.26;91.8;10.50;69831;5123.906;-12835.989;271;-300;-305.0;73;72.9;-20;-19.9;28.9;0.0;
15/06/2019 14:21:30;100;0;216.40;17;-22.99;-5.73;95.1;10.50;69821;5123.906;-12835.989;271;-300;-305.0;73;72.9;-22;-22.1;28.9;0.0;
15/06/2019 14:21:50;100;0;213.23;17;-23.06;-6.84;98.4;10.50;69814;5123.906;-12835.989;271;-300;-305.0;73;72.9;-24;-23.9;28.9;16.8;
15/06/2019 14:22:10;118;0;210.63;17;-22.73;-7.82;101.7;10.50;69809;5123.906;-12835.989;271;150;-293.1;57;56.8;0;0.0;28.9;0.0;
15/06/2019 14:22:20;118;0;165.41;17;-4.96;3.70;103.1;10.50;69712;5123.906;-12835.989;271;150;-136.6;57;57.1;0;0.5;28.4;0.0;
15/06/2019 14:22:30;118;0;166.22;17;11.04;3.62;103.0;10.50;69513;5123.906;-12835.989;271;150;19.8;57;57.1;0;0.0;28.5;-1.0;
15/06/2019 14:22:40;118;0;167.88;17;18.79;3.56;102.3;10.50;69255;5123.906;-12835.989;271;150;154.5;57;56.9;0;0.0;28.4;-1.0;
15/06/2019 14:22:50;118;0;203.97;17;19.77;4.37;101.5;10.50;69033;5123.906;-12835.989;271;150;156.4;57;57.1;0;0.0;28.9;-1.0;
15/06/2019 14:23:00;118;0;202.78;17;21.71;3.62;100.3;10.50;69053;5123.906;-12835.989;271;150;156.4;57;56.9;0;0.5;28.9;-1.0;
15/06/2019 14:23:10;117;0;206.36;17;22.22;3.82;99.0;10.50;69050;5123.906;-12835.989;271;150;156.4;57;57.1;0;0.0;28.9;-1.0;
15/06/2019 14:23:30;117;0;208.61;17;22.13;3.71;96.4;10.50;69043;5123.906;-12835.989;271;150;156.4;57;56.9;26;26.2;28.9;-1.0;
15/06/2019 14:23:50;117;0;223.35;17;20.83;16.72;93.3;10.50;69046;5123.906;-12835.989;271;150;156.4;57;56.9;17;17.1;28.9;-1.0;
15/06/2019 14:24:10;117;0;225.08;17;21.08;11.21;90.5;10.50;69054;5123.906;-12835.989;271;150;156.4;57;57.1;17;16.7;28.9;-1.0;
15/06/2019 14:24:30;117;0;228.33;17;21.04;11.19;87.8;10.40;69039;5123.906;-12835.989;271;150;156.4;57;57.1;17;16.2;28.9;-1.0;
15/06/2019 14:24:50;117;0;231.69;17;21.45;11.18;85.2;10.40;69036;5123.906;-12835.989;271;150;156.4;57;56.9;17;16.2;28.9;-1.0;
15/06/2019 14:25:10;117;0;228.39;17;22.08;11.32;82.3;10.40;69048;5123.906;-12835.989;271;150;156.4;57;56.9;19;19.0;28.9;-1.0;
15/06/2019 14:25:30;117;0;231.37;17;21.25;13.14;79.3;10.40;69035;5123.906;-12835.989;271;150;156.4;57;56.9;18;18.1;28.9;-1.0;
15/06/2019 14:25:50;117;0;237.68;17;20.01;11.62;76.2;10.40;69047;5123.906;-12835.989;271;150;156.4;57;56.9;15;14.9;28.9;-1.0;
15/06/2019 14:26:10;117;0;241.30;17;19.71;10.29;73.8;10.40;69070;5123.906;-12835.989;271;150;156.4;57;57.1;14;14.0;28.9;-1.0;
15/06/2019 14:26:30;117;0;244.46;17;19.64;9.62;71.3;10.40;69064;5123.906;-12835.989;271;150;156.4;57;56.9;14;13.1;28.9;-1.0;
15/06/2019 14:26:50;117;0;246.21;17;19.98;9.74;68.9;10.30;69065;5123.906;-12835.989;271;150;156.4;57;56.9;14;13.1;28.9;-1.0;
15/06/2019 14:27:10;117;0;249.31;17;19.80;9.63;66.5;10.30;69066;5123.906;-12835.989;271;150;156.4;57;56.9;13;13.1;28.9;-1.0;
15/06/2019 14:27:30;117;0;250.31;17;19.64;9.65;64.1;10.30;69069;5123.906;-12835.989;271;150;156.4;57;56.9;14;14.4;28.9;-1.0;
15/06/2019 14:27:50;117;0;253.70;17;19.52;10.62;61.8;10.30;69074;5123.906;-12835.989;271;150;156.4;57;56.9;14;14.9;28.9;-1.0;
15/06/2019 14:28:10;117;0;256.74;17;19.42;10.55;59.5;10.30;69074;5123.906;-12835.989;271;150;156.4;57;57.1;14;14.9;28.9;-1.0;
15/06/2019 14:28:30;117;0;259.59;17;19.36;10.59;57.1;10.30;69089;5123.906;-12835.989;271;150;156.4;57;56.9;11;10.8;28.9;-1.0;
15/06/2019 14:28:50;117;0;262.76;17;19.37;8.23;54.6;10.30;69089;5123.906;-12835.989;271;150;156.4;57;56.9;10;9.9;28.9;-1.0;
15/06/2019 14:29:10;117;0;265.46;17;19.08;8.19;52.1;10.30;69103;5123.906;-12835.989;271;150;156.4;57;57.1;9;9.0;28.9;-1.0;
15/06/2019 14:29:30;117;0;265.68;17;19.33;7.45;49.6;10.30;69101;5123.906;-12835.989;271;150;156.4;57;56.9;10;9.9;28.9;-1.0;
15/06/2019 14:29:50;117;0;268.29;17;18.83;8.55;47.1;10.30;69109;5123.906;-12835.989;271;150;158.4;57;57.1;8;8.1;28.9;-1.0;
15/06/2019 14:30:10;117;0;268.97;17;18.94;7.08;44.7;10.30;69119;5123.906;-12835.989;271;150;156.4;57;57.1;8;7.7;28.9;-1.0;
15/06/2019 14:30:30;117;0;268.70;17;18.87;7.13;42.2;10.30;69126;5123.906;-12835.989;271;150;154.5;57;57.1;8;7.7;28.9;-1.0;
15/06/2019 14:30:50;117;0;269.48;17;18.97;7.09;39.9;10.30;69126;5123.906;-12835.989;271;150;156.4;57;56.9;7;6.8;28.9;-1.0;
15/06/2019 14:31:10;117;0;270.21;17;18.84;6.44;37.6;10.30;69120;5123.906;-12835.989;271;150;156.4;57;56.9;6;5.9;28.9;-1.0;
15/06/2019 14:31:30;117;0;270.23;17;18.78;5.99;35.3;10.30;69131;5123.906;-12835.989;271;150;156.4;57;56.9;6;5.4;28.9;-1.0;
15/06/2019 14:31:50;117;0;275.05;17;18.83;5.86;33.2;10.30;69143;5123.906;-12835.989;271;150;158.4;57;57.1;3;3.2;28.9;-1.0;
15/06/2019 14:32:10;117;0;276.79;17;18.33;4.54;30.9;10.30;69159;5123.906;-12835.989;271;150;156.4;57;57.1;3;2.7;28.9;-1.0;
15/06/2019 14:32:30;117;0;279.79;17;17.13;4.57;28.7;10.30;69181;5123.906;-12835.989;271;150;156.4;57;57.1;1;0.9;28.9;-1.0;
15/06/2019 14:32:50;117;0;275.00;17;17.18;3.43;26.8;10.40;69202;5123.906;-12835.989;271;150;156.4;57;56.9;4;4.5;28.9;-1.0;
15/06/2019 14:33:10;117;0;280.62;17;16.22;5.90;25.2;10.40;69233;5123.906;-12835.989;271;150;156.4;57;57.1;0;0.0;28.9;-1.0;
15/06/2019 14:33:30;117;0;282.16;17;16.47;2.92;23.7;10.40;69273;5123.906;-12835.989;271;150;156.4;57;56.9;0;-0.9;28.9;-1.0;
15/06/2019 14:33:50;117;0;283.53;17;16.34;2.97;22.3;10.40;69298;5123.906;-12835.989;271;150;156.4;57;57.1;-1;-0.9;28.9;-1.0;
15/06/2019 14:34:10;117;0;285.58;17;16.34;2.92;20.9;10.50;69325;5123.906;-12835.989;271;150;158.4;57;56.9;-2;-1.8;28.9;-1.0;
15/06/2019 14:34:30;117;0;292.40;17;16.51;2.09;19.4;10.50;69349;5123.906;-12835.989;271;150;156.4;57;56.9;-6;-6.3;28.9;-1.0;
15/06/2019 14:34:50;117;0;299.90;17;16.00;0.02;18.0;10.50;69378;5123.906;-12835.989;271;150;156.4;57;56.9;-10;-10.4;28.9;-1.0;
15/06/2019 14:35:10;117;0;300.37;17;16.03;-2.01;16.5;10.60;69407;5123.906;-12835.989;271;150;156.4;57;57.1;-10;-10.8;28.9;-1.0;
15/06/2019 14:35:30;117;0;296.01;17;16.01;-2.11;15.0;10.60;69418;5123.906;-12835.989;271;150;156.4;57;57.1;-7;-7.2;28.9;-1.0;
15/06/2019 14:35:50;117;0;292.37;17;16.06;0.08;13.6;10.60;69441;5123.906;-12835.989;271;150;156.4;57;56.9;-6;-5.4;28.9;-1.0;
15/06/2019 14:36:10;117;0;291.53;17;16.18;0.84;12.2;10.70;69451;5123.906;-12835.989;271;150;158.4;57;57.1;-7;-7.2;28.9;-1.0;
15/06/2019 14:36:30;117;0;292.50;17;16.30;-0.36;10.8;10.70;69475;5123.906;-12835.989;271;150;156.4;57;56.9;-8;-8.6;28.9;-1.0;
