Timestamp;NavState;SecurityLevel;Heading;Declination;Pitch;Roll;Depth;Temperature;Pa;Lat;Lon;DesiredH;BallastCmd;BallastPos;LinCmd;LinPos;AngCmd;AngPos;Voltage;Altitude;
14/06/2019 15:47:05;117;0;190.16;17;11.20;-0.42;9.0;10.90;69501;5133.760;-12823.783;212;150;158.4;58;58.0;-3;-3.2;29.1;-1.0;
14/06/2019 15:47:15;110;0;193.79;17;10.34;2.55;8.6;11.00;69500;5133.760;-12823.783;212;-300;-61.4;73;73.0;0;0.9;29.1;-1.0;
14/06/2019 15:47:25;110;0;182.96;17;-19.76;4.24;8.2;11.00;70012;5133.760;-12823.783;212;-300;-303.0;73;73.0;0;0.9;29.0;-1.0;
14/06/2019 15:47:35;110;0;188.64;17;-29.26;4.98;9.1;11.00;70283;5133.760;-12823.783;212;-300;-303.0;73;73.0;0;0.9;29.1;-1.0;
14/06/2019 15:47:45;100;0;196.65;17;-29.90;3.84;11.1;11.00;70274;5133.760;-12823.783;212;-300;-303.0;73;73.0;0;0.9;29.1;-1.0;
14/06/2019 15:48:05;100;0;183.03;17;-26.71;4.07;15.4;11.10;70281;5133.760;-12823.783;212;-300;-303.0;73;73.0;0;0.9;29.1;0.0;
14/06/2019 15:48:25;100;0;168.41;17;-25.73;3.94;19.9;11.10;70282;5133.760;-12823.783;212;-300;-303.0;73;73.0;-6;-5.9;29.1;0.0;
14/06/2019 15:48:45;100;0;167.41;17;-26.11;0.52;24.0;11.10;70280;5133.760;-12823.783;212;-300;-303.0;73;73.0;-4;-3.6;29.1;0.0;
14/06/2019 15:49:05;100;0;161.11;17;-25.77;2.26;27.9;11.20;70235;5133.760;-12823.783;212;-300;-303.0;73;73.0;-6;-5.9;29.1;0.0;
14/06/2019 15:49:25;100;0;151.82;17;-25.08;0.64;31.7;11.10;70174;5133.760;-12823.783;212;-300;-303.0;73;73.0;-10;-9.9;29.1;0.0;
14/06/2019 15:49:45;100;0;148.85;17;-25.07;-1.33;35.4;11.10;70125;5133.760;-12823.783;212;-300;-303.0;73;73.0;-11;-11.3;29.1;0.0;
14/06/2019 15:50:06;100;0;149.48;17;-25.19;-1.87;39.0;11.10;70088;5133.760;-12823.783;212;-300;-303.0;73;73.0;-10;-9.9;29.1;0.0;
14/06/2019 15:50:26;100;0;150.43;17;-25.23;-0.61;42.9;11.10;70056;5133.760;-12823.783;212;-300;-303.0;73;73.0;-9;-9.0;29.1;0.0;
14/06/2019 15:50:46;100;0;149.61;17;-24.19;-0.78;46.7;11.10;70032;5133.760;-12823.783;212;-300;-303.0;73;73.0;-11;-10.8;29.1;0.0;
14/06/2019 15:51:06;100;0;145.02;17;-24.99;-1.85;50.2;11.10;70005;5133.760;-12823.783;212;-300;-303.0;73;73.0;-15;-15.3;29.1;0.0;
14/06/2019 15:51:26;100;0;137.85;17;-24.42;-3.72;54.0;11.10;69986;5133.760;-12823.783;212;-300;-303.0;73;73.0;-21;-21.2;29.1;0.0;
14/06/2019 15:51:46;100;0;137.84;17;-24.67;-6.41;57.7;11.00;69952;5133.760;-12823.783;212;-300;-303.0;73;73.0;-22;-22.1;29.1;0.0;
14/06/2019 15:52:06;100;0;135.85;17;-23.75;-7.04;61.4;11.00;69942;5133.760;-12823.783;212;-300;-303.0;73;73.0;-24;-23.9;29.1;0.0;
14/06/2019 15:52:26;100;0;136.94;17;-23.66;-7.84;64.9;11.00;69918;5133.760;-12823.783;212;-300;-303.0;73;73.0;-25;-24.8;29.1;0.0;
14/06/2019 15:52:46;100;0;136.16;17;-24.23;-8.28;68.2;11.00;69915;5133.760;-12823.783;212;-300;-303.0;73;73.0;-26;-26.2;29.1;0.0;
14/06/2019 15:53:06;100;0;128.63;17;-23.73;-8.82;71.7;11.00;69905;5133.760;-12823.783;212;-300;-303.0;73;73.0;-31;-31.1;29.1;0.0;
14/06/2019 15:53:26;100;0;128.58;17;-23.86;-11.19;74.8;10.90;69906;5133.760;-12823.783;212;-300;-305.0;73;73.0;-29;-28.4;29.1;0.0;
14/06/2019 15:53:46;100;0;130.15;17;-23.15;-9.43;77.9;10.90;69876;5133.760;-12823.783;212;-300;-303.0;73;73.0;-27;-27.1;29.1;0.0;
14/06/2019 15:54:06;100;0;136.57;17;-22.60;-8.95;80.9;10.90;69867;5133.760;-12823.783;212;-300;-303.0;73;73.0;-24;-23.5;29.1;0.0;
14/06/2019 15:54:26;100;0;137.56;17;-22.36;-7.12;83.8;10.90;69863;5133.760;-12823.783;212;-300;-305.0;73;73.0;-24;-23.0;29.1;0.0;
14/06/2019 15:54:46;100;0;133.31;17;-22.30;-7.14;86.8;10.80;69854;5133.760;-12823.783;212;-300;-303.0;73;73.0;-27;-27.1;29.1;0.0;
14/06/2019 15:55:06;100;0;139.95;17;-22.07;-9.37;89.6;10.80;69841;5133.760;-12823.783;212;-300;-303.0;73;73.0;-24;-23.9;29.1;0.0;
14/06/2019 15:55:26;100;0;147.20;17;-22.16;-7.26;92.4;10.80;69846;5133.760;-12823.783;212;-300;-303.0;73;72.9;-20;-19.4;29.1;0.0;
14/06/2019 15:55:46;100;0;146.94;17;-21.54;-5.16;95.3;10.80;69825;5133.760;-12823.783;212;-300;-303.0;73;73.0;-23;-23.0;29.1;0.0;
14/06/2019 15:56:06;100;0;147.80;17;-21.22;-7.49;98.0;10.80;69827;5133.760;-12823.783;212;-300;-303.0;73;73.0;-23;-23.5;29.1;0.0;
14/06/2019 15:56:26;100;0;146.02;17;-21.58;-7.48;100.7;10.70;69803;5133.760;-12823.783;212;-300;-303.0;73;72.9;-24;-23.9;29.1;0.0;
14/06/2019 15:56:46;100;0;143.41;17;-21.15;-7.97;103.4;10.70;69806;5133.760;-12823.783;212;-300;-303.0;73;72.9;-26;-26.6;29.1;0.0;
14/06/2019 15:57:06;100;0;142.98;17;-21.54;-9.13;106.1;10.70;69796;5133.760;-12823.783;212;-300;-303.0;73;73.0;-26;-26.6;29.1;0.0;
14/06/2019 15:57:26;100;0;145.52;17;-21.20;-9.10;108.8;10.70;69789;5133.760;-12823.783;212;-300;-301.0;73;73.0;-24;-23.9;29.1;0.0;
14/06/2019 15:57:46;100;0;144.17;17;-20.87;-7.45;111.6;10.60;69780;5133.760;-12823.783;212;-300;-303.0;73;73.0;-25;-24.8;29.1;0.0;
14/06/2019 15:58:06;100;0;146.68;17;-20.72;-8.62;114.2;10.60;69767;5133.760;-12823.783;212;-300;-303.0;73;73.0;-23;-22.6;29.1;0.0;
14/06/2019 15:58:26;100;0;148.64;17;-21.02;-6.79;116.7;10.60;69771;5133.760;-12823.783;212;-300;-303.0;73;73.0;-23;-21.7;29.1;0.0;
14/06/2019 15:58:46;100;0;144.49;17;-20.68;-6.86;119.2;10.60;69759;5133.760;-12823.783;212;-300;-305.0;73;72.9;-25;-24.8;29.1;0.0;
14/06/2019 15:59:06;100;0;142.08;17;-20.89;-8.55;121.8;10.50;69744;5133.760;-12823.783;212;-300;-303.0;73;73.0;-26;-26.2;29.1;0.0;
14/06/2019 15:59:26;100;0;142.30;17;-20.81;-9.12;124.3;10.50;69750;5133.760;-12823.783;212;-300;-303.0;73;73.0;-26;-26.6;29.1;0.0;
14/06/2019 15:59:46;100;0;151.76;17;-20.72;-9.18;126.9;10.50;69737;5133.760;-12823.783;212;-300;-303.0;73;73.0;-20;-19.9;29.1;0.0;
14/06/2019 16:00:06;100;0;157.93;17;-19.86;-5.59;129.4;10.50;69734;5133.760;-12823.783;212;-300;-303.0;73;73.0;-18;-18.1;29.1;0.0;
14/06/2019 16:00:26;100;0;164.08;17;-20.27;-4.65;131.9;10.40;69722;5133.760;-12823.783;212;-300;-303.0;73;73.0;-16;-15.3;29.1;44.1;
14/06/2019 16:00:46;100;0;164.21;17;-19.97;-3.45;134.3;10.40;69713;5133.760;-12823.783;212;-300;-303.0;73;73.0;-18;-18.1;29.1;41.6;
14/06/2019 16:01:06;100;0;170.99;17;-19.61;-5.16;136.7;10.40;69694;5133.760;-12823.783;212;-300;-303.0;73;73.0;-16;-15.3;29.1;39.1;
14/06/2019 16:01:26;100;0;176.30;17;-19.31;-3.42;139.0;10.40;69694;5133.760;-12823.783;212;-300;-303.0;73;73.0;-14;-14.0;29.1;36.8;
14/06/2019 16:01:46;100;0;174.17;17;-19.12;-2.94;141.2;10.30;69681;5133.760;-12823.783;212;-300;-303.0;73;73.0;-17;-17.1;29.1;34.6;
14/06/2019 16:02:06;100;0;172.50;17;-19.21;-4.77;143.5;10.30;69669;5133.760;-12823.783;212;-300;-303.0;73;73.0;-19;-19.0;29.1;32.3;
14/06/2019 16:02:26;100;0;170.94;17;-19.31;-5.61;145.7;10.30;69660;5133.760;-12823.783;212;-300;-303.0;73;73.0;-20;-19.9;29.1;30.1;
14/06/2019 16:02:46;100;0;170.41;17;-19.40;-6.13;147.7;10.20;69659;5133.760;-12823.783;212;-300;-303.0;73;73.0;-20;-20.3;29.1;28.0;
14/06/2019 16:03:06;100;0;170.86;17;-19.55;-6.14;149.8;10.20;69642;5133.760;-12823.783;212;-300;-303.0;73;73.0;-20;-20.3;29.1;25.9;
14/06/2019 16:03:26;100;0;172.13;17;-19.57;-6.20;151.8;10.20;69643;5133.760;-12823.783;212;-300;-303.0;73;73.0;-18;-18.1;29.1;23.9;
14/06/2019 16:03:46;100;0;169.71;17;-19.42;-4.66;153.8;10.20;69634;5133.760;-12823.783;212;-300;-303.0;73;73.0;-20;-19.9;29.1;21.7;
14/06/2019 16:04:06;100;0;169.75;17;-19.28;-6.05;156.0;10.10;69628;5133.760;-12823.783;212;-300;-305.0;73;73.0;-20;-20.3;29.1;19.6;
14/06/2019 16:04:26;118;0;170.98;17;-19.11;-6.07;158.2;10.10;69621;5133.760;-12823.783;212;150;-289.1;58;57.7;0;0.9;29.1;17.3;
14/06/2019 16:04:36;118;0;138.34;17;0.09;3.97;159.1;10.10;69529;5133.760;-12823.783;212;150;-132.7;58;58.0;0;0.9;28.6;17.3;
14/06/2019 16:04:46;118;0;138.24;17;15.83;3.75;158.9;10.10;69319;5133.760;-12823.783;212;150;21.8;58;58.1;0;0.9;28.6;-1.0;
14/06/2019 16:04:56;118;0;138.17;17;21.01;3.91;158.1;10.10;69065;5133.760;-12823.783;212;150;154.5;58;58.0;0;0.9;28.6;-1.0;
14/06/2019 16:05:06;118;0;174.53;17;21.80;4.12;157.0;10.10;68855;5133.760;-12823.783;212;150;154.5;58;58.1;0;0.9;29.1;-1.0;
14/06/2019 16:05:16;118;0;174.47;17;24.10;3.93;155.6;10.00;68867;5133.760;-12823.783;212;150;156.4;58;58.1;0;0.9;29.1;-1.0;
14/06/2019 16:05:26;117;0;174.31;17;24.83;3.79;154.0;10.00;68867;5133.760;-12823.783;212;150;156.4;58;58.1;0;0.9;29.1;-1.0;
14/06/2019 16:05:46;117;0;175.87;17;25.24;3.74;150.4;10.00;68866;5133.760;-12823.783;212;150;154.5;58;58.0;16;15.8;29.1;-1.0;
14/06/2019 16:06:06;117;0;181.18;17;25.27;11.52;146.3;10.00;68851;5133.760;-12823.783;212;150;156.4;58;58.0;14;14.0;29.1;-1.0;
14/06/2019 16:06:26;117;0;185.05;17;25.05;9.65;142.3;9.90;68859;5133.760;-12823.783;212;150;156.4;58;58.1;13;13.1;29.1;-1.0;
14/06/2019 16:06:46;117;0;187.17;17;24.98;9.64;138.6;9.90;68855;5133.760;-12823.783;212;150;156.4;58;58.1;14;14.0;29.1;-1.0;
14/06/2019 16:07:06;117;0;183.18;17;25.15;10.49;134.8;9.90;68869;5133.760;-12823.783;212;150;156.4;58;58.1;17;17.6;29.1;-1.0;
14/06/2019 16:07:26;117;0;185.42;17;23.77;12.03;130.9;9.90;68868;5133.760;-12823.783;212;150;156.4;58;58.1;16;15.8;29.1;-1.0;
14/06/2019 16:07:46;117;0;180.67;17;24.26;10.82;127.4;9.90;68877;5133.760;-12823.783;212;150;156.4;58;58.1;19;19.0;29.1;-1.0;
14/06/2019 16:08:06;117;0;180.28;17;24.33;13.15;123.7;9.80;68882;5133.760;-12823.783;212;150;156.4;58;58.1;18;18.1;29.1;-1.0;
14/06/2019 16:08:26;117;0;189.44;17;22.95;11.93;120.1;9.80;68892;5133.760;-12823.783;212;150;154.5;58;58.0;13;13.1;29.1;-1.0;
14/06/2019 16:08:46;117;0;196.99;17;22.68;9.77;116.8;9.80;68889;5133.760;-12823.783;212;150;156.4;58;58.1;13;12.6;29.1;-1.0;
14/06/2019 16:09:06;117;0;200.03;17;23.29;9.46;113.4;9.80;68896;5133.760;-12823.783;212;150;156.4;58;58.1;10;9.9;29.1;-1.0;
14/06/2019 16:09:26;117;0;203.17;17;22.61;7.91;110.0;9.80;68913;5133.760;-12823.783;212;150;156.4;58;58.0;10;9.5;29.1;-1.0;
14/06/2019 16:09:46;117;0;201.34;17;22.73;8.14;106.7;9.80;68897;5133.760;-12823.783;212;150;156.4;58;58.1;12;12.2;29.1;-1.0;
14/06/2019 16:10:06;117;0;205.84;17;22.19;9.74;103.4;9.70;68908;5133.760;-12823.783;212;150;156.4;58;58.1;9;9.0;29.1;-1.0;
14/06/2019 16:10:26;117;0;207.41;17;22.26;7.47;100.1;9.70;68913;5133.760;-12823.783;212;150;156.4;58;58.0;9;8.1;29.1;-1.0;
14/06/2019 16:10:46;117;0;212.28;17;21.93;7.36;97.1;9.70;68911;5133.760;-12823.783;212;150;156.4;58;58.1;6;5.9;29.1;-1.0;
14/06/2019 16:11:06;117;0;213.10;17;21.69;5.77;94.0;9.70;68932;5133.760;-12823.783;212;150;156.4;58;58.0;6;5.4;29.1;-1.0;
14/06/2019 16:11:26;117;0;209.41;17;22.09;6.08;91.0;9.70;68933;5133.760;-12823.783;212;150;156.4;58;58.1;9;9.5;29.1;-1.0;
14/06/2019 16:11:46;117;0;213.35;17;21.46;8.33;87.9;9.70;68929;5133.760;-12823.783;212;150;156.4;58;58.0;6;5.9;29.1;-1.0;
14/06/2019 16:12:06;117;0;214.88;17;20.87;5.85;84.9;9.70;68926;5133.760;-12823.783;212;150;156.4;58;58.1;5;5.0;29.1;-1.0;
14/06/2019 16:12:26;117;0;216.45;17;20.65;5.55;82.0;9.70;68945;5133.760;-12823.783;212;150;156.4;58;58.0;4;4.1;29.1;-1.0;
14/06/2019 16:12:46;117;0;219.74;17;20.57;5.07;79.1;9.70;68946;5133.760;-12823.783;212;150;156.4;58;58.0;2;1.8;29.1;-1.0;
14/06/2019 16:13:06;117;0;217.84;17;20.30;3.86;76.3;9.70;68954;5133.760;-12823.783;212;150;156.4;58;58.0;4;4.1;29.1;-1.0;
14/06/2019 16:13:26;117;0;219.95;17;19.71;5.88;73.8;9.70;68945;5133.760;-12823.783;212;150;158.4;58;58.1;2;1.8;29.1;-1.0;
14/06/2019 16:13:46;117;0;226.01;17;18.84;3.96;71.4;9.70;68950;5133.760;-12823.783;212;150;156.4;58;58.0;-1;-1.4;29.1;-1.0;
14/06/2019 16:14:06;117;0;225.83;17;18.98;2.61;69.1;9.70;68967;5133.760;-12823.783;212;150;156.4;58;58.1;0;0.0;29.1;-1.0;
14/06/2019 16:14:26;117;0;222.64;17;18.88;3.71;66.9;9.70;68962;5133.760;-12823.783;212;150;158.4;58;58.0;1;0.9;29.1;-1.0;
14/06/2019 16:14:46;117;0;224.00;17;18.60;3.96;64.6;9.70;68962;5133.760;-12823.783;212;150;156.4;58;58.0;0;0.0;29.1;-1.0;
14/06/2019 16:15:06;117;0;226.21;17;18.23;3.19;62.3;9.70;68985;5133.760;-12823.783;212;150;156.4;58;58.0;-2;-1.8;29.1;-1.0;
14/06/2019 16:15:26;117;0;225.48;17;17.98;2.18;60.1;9.70;68967;5133.760;-12823.783;212;150;156.4;58;58.1;-1;-0.5;29.1;-1.0;
14/06/2019 16:15:46;117;0;225.18;17;17.92;3.56;57.9;9.70;68982;5133.760;-12823.783;212;150;158.4;58;58.0;-2;-2.3;29.1;-1.0;
14/06/2019 16:16:06;117;0;217.45;17;17.60;1.99;55.8;9.70;68978;5133.760;-12823.783;212;150;156.4;58;58.0;1;0.9;29.1;-1.0;
14/06/2019 16:16:26;117;0;212.90;17;17.69;4.16;53.7;9.70;68985;5133.760;-12823.783;212;150;156.4;58;58.1;2;2.3;29.1;-1.0;
14/06/2019 16:16:46;117;0;217.16;17;16.96;4.95;51.8;9.70;68994;5133.760;-12823.783;212;150;156.4;58;58.0;-2;-1.8;29.1;-1.0;
14/06/2019 16:17:06;117;0;214.71;17;16.86;2.44;49.9;9.70;68996;5133.760;-12823.783;212;150;156.4;58;58.0;-1;-0.9;29.1;-1.0;
14/06/2019 16:17:26;117;0;217.28;17;16.75;3.26;48.1;9.70;68996;5133.760;-12823.783;212;150;156.4;58;58.1;-4;-4.5;29.1;-1.0;
14/06/2019 16:17:46;117;0;214.07;17;16.69;1.00;46.2;9.70;69012;5133.760;-12823.783;212;150;158.4;58;58.0;-2;-1.8;29.1;-1.0;
14/06/2019 16:18:06;117;0;213.63;17;16.49;3.01;44.3;9.70;69018;5133.760;-12823.783;212;150;156.4;58;58.0;-3;-3.2;29.1;-1.0;
14/06/2019 16:18:26;117;0;209.95;17;16.50;1.70;42.4;9.70;69033;5133.760;-12823.783;212;150;156.4;58;58.1;-1;-0.5;29.1;-1.0;
14/06/2019 16:18:46;117;0;210.44;17;16.23;3.58;40.5;9.70;69038;5133.760;-12823.783;212;150;156.4;58;58.0;-4;-4.1;29.1;-1.0;
14/06/2019 16:19:06;117;0;208.63;17;16.22;1.25;38.7;9.70;69038;5133.760;-12823.783;212;150;156.4;58;58.0;-3;-3.2;29.1;-1.0;
14/06/2019 16:19:26;117;0;204.12;17;16.07;2.44;36.9;9.70;69051;5133.760;-12823.783;212;150;156.4;58;58.1;-2;-1.8;29.1;-1.0;
14/06/2019 16:19:46;117;0;204.27;17;15.99;3.10;35.0;9.70;69058;5133.760;-12823.783;212;150;156.4;58;58.0;-3;-3.6;29.1;-1.0;
14/06/2019 16:20:06;117;0;204.81;17;15.56;1.54;33.0;9.80;69075;5133.760;-12823.783;212;150;156.4;58;58.1;-4;-4.1;29.1;-1.0;
14/06/2019 16:20:26;117;0;204.80;17;15.77;1.68;31.2;9.80;69086;5133.760;-12823.783;212;150;158.4;58;58.0;-5;-5.4;29.1;-1.0;
14/06/2019 16:20:46;117;0;204.36;17;15.34;0.77;29.4;9.80;69097;5133.760;-12823.783;212;150;156.4;58;58.1;-5;-5.9;29.1;-1.0;
14/06/2019 16:21:07;117;0;203.68;17;15.37;0.63;27.5;9.80;69117;5133.760;-12823.783;212;150;156.4;58;58.1;-5;-5.9;29.1;-1.0;
14/06/2019 16:21:27;117;0;206.74;17;15.06;0.84;25.6;9.80;69123;5133.760;-12823.783;212;150;156.4;58;58.0;-7;-7.7;29.1;-1.0;
14/06/2019 16:21:47;117;0;194.45;17;14.70;-0.47;23.9;9.80;69157;5133.760;-12823.783;212;150;158.4;58;58.0;-7;-8.1;29.1;-1.0;
14/06/2019 16:22:07;117;0;197.60;17;13.91;-0.36;22.3;9.90;69198;5133.760;-12823.783;212;150;158.4;58;58.0;-7;-8.1;29.1;-1.0;
14/06/2019 16:22:27;117;0;195.91;17;13.46;-0.51;20.9;9.90;69234;5133.760;-12823.783;212;150;156.4;58;58.0;-7;-8.1;29.1;-1.0;
14/06/2019 16:22:47;117;0;191.39;17;13.36;-0.46;19.6;10.00;69279;5133.760;-12823.783;212;150;156.4;58;58.0;-2;-1.4;29.1;-1.0;
14/06/2019 16:23:07;117;0;192.85;17;13.21;3.25;18.1;10.00;69308;5133.760;-12823.783;212;150;156.4;58;58.1;-3;-3.2;29.1;-1.0;
14/06/2019 16:23:27;117;0;192.94;17;13.26;1.80;16.7;10.00;69333;5133.760;-12823.783;212;150;156.4;58;58.1;-3;-3.6;29.1;-1.0;
14/06/2019 16:23:47;117;0;194.17;17;13.84;1.70;15.3;10.10;69362;5133.760;-12823.783;212;150;158.4;58;58.1;-3;-3.6;29.1;-1.0;
14/06/2019 16:24:07;117;0;196.99;17;13.88;1.71;14.0;10.10;69371;5133.760;-12823.783;212;150;156.4;58;58.1;-3;-3.6;29.1;-1.0;
14/06/2019 16:24:27;117;0;198.65;17;13.50;1.47;12.5;10.20;69399;5133.760;-12823.783;212;150;156.4;58;58.1;-6;-5.9;29.1;-1.0;
14/06/2019 16:24:47;117;0;193.57;17;13.53;0.28;11.0;10.20;69413;5133.760;-12823.783;212;150;158.4;58;58.1;-6;-6.8;29.1;-1.0;
