Timestamp;NavState;SecurityLevel;Heading;Declination;Pitch;Roll;Depth;Temperature;Pa;Lat;Lon;DesiredH;BallastCmd;BallastPos;LinCmd;LinPos;AngCmd;AngPos;Voltage;Altitude;
16/06/2019 17:23:11;117;0;33.13;17;16.05;2.79;8.6;10.00;69404;5125.617;-12838.252;54;150;156.4;57;57.1;0;-0.9;28.7;-1.0;
16/06/2019 17:23:21;115;0;31.79;17;15.78;2.81;7.7;10.10;69410;5125.617;-12838.252;54;500;168.3;100;100.1;0;-0.9;28.7;-1.0;
16/06/2019 17:23:31;115;0;49.77;17;-25.78;3.49;7.2;10.10;69340;5125.617;-12838.252;54;500;318.8;100;99.9;0;-0.9;28.3;-1.0;
16/06/2019 17:23:41;115;0;39.61;17;-66.97;4.83;7.8;10.10;69146;5125.617;-12838.252;54;500;469.3;100;99.9;0;-0.9;28.3;-1.0;
16/06/2019 17:23:51;115;0;43.83;17;-55.67;2.50;6.6;10.20;68906;5125.617;-12838.252;54;500;506.9;100;99.9;0;-0.9;28.3;-1.0;
16/06/2019 17:24:01;115;0;33.32;17;-29.80;1.90;3.6;10.20;68872;5125.617;-12838.252;54;500;505.0;100;99.9;0;-0.9;28.7;-1.0;
16/06/2019 17:24:11;116;0;69.46;17;-27.95;1.77;1.6;10.30;68892;5125.617;-12838.252;54;500;508.9;100;99.7;0;-0.9;28.7;-1.0;
16/06/2019 17:24:31;116;0;129.61;17;-15.35;0.44;1.4;10.30;68912;5125.617;-12838.252;54;500;506.9;100;99.9;0;-0.9;28.7;-1.0;
16/06/2019 17:24:51;116;0;170.90;17;-20.02;1.34;1.5;10.40;68935;5125.617;-12838.252;54;500;508.9;100;99.7;0;-0.9;28.7;-1.0;
16/06/2019 17:25:11;116;0;185.44;17;-17.36;2.02;1.5;10.60;68941;5125.617;-12838.252;54;500;506.9;100;99.7;0;-0.9;28.7;-1.0;
16/06/2019 17:25:30;116;0;189.86;17;-20.98;2.59;1.5;10.70;68958;5126.283;-12837.377;54;500;508.9;100;99.7;0;-0.9;28.6;-1.0;
16/06/2019 17:25:50;116;0;197.43;17;-16.90;4.52;1.4;10.80;68961;5126.291;-12837.370;61;500;506.9;100;99.7;0;-0.9;28.7;-1.0;
16/06/2019 17:26:52;116;0;183.54;17;-19.69;2.54;1.5;11.30;69007;5126.291;-12837.369;61;500;510.9;100;99.7;0;-0.9;28.6;-1.0;
16/06/2019 17:27:12;116;0;185.45;17;-18.69;3.15;1.5;11.50;69010;5126.292;-12837.369;61;500;508.9;100;99.7;0;-0.9;28.6;-1.0;
16/06/2019 17:27:32;116;0;191.24;17;-18.55;-0.35;1.4;11.60;69027;5126.305;-12837.363;61;500;508.9;100;99.7;0;-0.9;28.7;-1.0;
16/06/2019 17:27:53;116;0;190.87;17;-19.06;4.39;1.5;11.80;69037;5126.309;-12837.362;61;500;508.9;100;99.7;0;-0.9;28.6;-1.0;
16/06/2019 17:28:13;116;0;189.24;17;-20.75;0.83;1.5;11.90;69040;5126.344;-12837.344;61;500;506.9;100;99.7;0;-0.9;28.6;-1.0;
16/06/2019 17:28:33;116;0;197.42;17;-13.94;1.96;1.4;12.10;69058;5126.302;-12837.355;61;500;506.9;100;99.7;0;-0.9;28.7;-1.0;
16/06/2019 17:29:37;116;0;184.49;17;-19.39;0.12;1.4;12.80;69090;5126.303;-12837.355;61;500;508.9;100;99.7;0;-0.9;28.6;-1.0;
16/06/2019 17:29:57;116;0;199.83;17;-15.41;1.84;1.5;12.90;69092;5126.304;-12837.353;61;500;506.9;100;99.7;0;-0.9;28.6;-1.0;
16/06/2019 17:30:17;116;0;200.51;17;-18.59;1.92;1.5;13.10;69093;5126.318;-12837.344;61;500;508.9;100;99.7;0;-0.9;28.6;-1.0;
16/06/2019 17:30:41;116;0;197.97;17;-18.64;3.95;1.6;13.20;69096;5126.321;-12837.343;61;500;508.9;100;99.7;0;-0.9;28.6;-1.0;
16/06/2019 17:31:01;116;0;188.45;17;-19.03;1.87;1.5;13.40;69106;5126.340;-12837.337;61;500;508.9;100;99.7;0;-0.9;28.6;-1.0;
16/06/2019 17:31:21;116;0;189.77;17;-17.75;2.10;1.5;13.50;69116;5126.320;-12837.351;61;500;508.9;100;99.7;0;-0.9;28.6;-1.0;
16/06/2019 17:31:41;116;0;182.11;17;-21.27;2.45;1.5;13.70;69130;5126.320;-12837.351;61;500;506.9;100;99.7;0;-0.9;28.7;-1.0;
16/06/2019 17:32:01;110;0;176.21;17;-16.06;3.25;1.5;13.80;69125;5126.320;-12837.351;61;-300;407.9;100;99.7;0;-0.9;28.6;-1.0;
16/06/2019 17:32:11;110;0;166.15;17;-21.30;3.01;1.5;13.90;69374;5126.320;-12837.351;61;-300;259.4;100;99.7;0;-0.9;28.6;-1.0;
16/06/2019 17:32:21;110;0;172.24;17;-31.17;-0.84;1.8;13.90;69552;5126.320;-12837.351;61;-300;103.0;100;99.7;0;-0.9;28.6;-1.0;
16/06/2019 17:32:31;110;0;163.13;17;-55.25;-0.25;2.4;13.90;69823;5126.320;-12837.351;61;-300;-73.3;100;100.0;0;-0.9;28.5;-1.0;
16/06/2019 17:32:41;110;0;193.17;17;-63.59;-6.74;2.9;13.90;70111;5126.320;-12837.351;61;-300;-261.4;94;94.0;0;-0.9;28.6;-1.0;
16/06/2019 17:32:51;110;0;190.13;17;-54.85;4.97;4.1;13.90;70418;5126.320;-12837.351;61;-300;-303.0;76;76.0;0;-0.9;28.5;-1.0;
16/06/2019 17:33:01;110;0;204.17;17;-43.14;2.82;6.6;14.00;70455;5126.320;-12837.351;61;-300;-303.0;73;72.9;0;-0.9;28.7;-1.0;
16/06/2019 17:33:11;100;0;197.79;17;-32.57;3.06;9.3;14.00;70460;5126.320;-12837.351;61;-300;-301.0;73;72.9;0;-0.9;28.7;-1.0;
16/06/2019 17:33:31;100;0;186.91;17;-26.77;3.20;14.0;14.00;70443;5126.320;-12837.351;61;-300;-297.0;73;72.9;45;45.1;28.6;0.0;
16/06/2019 17:33:51;100;0;174.70;17;-24.18;25.35;18.3;14.00;70418;5126.320;-12837.351;61;-300;-299.0;73;72.9;45;45.6;28.7;0.0;
16/06/2019 17:34:11;100;0;153.87;17;-22.09;25.23;22.2;13.90;70378;5126.320;-12837.351;61;-300;-299.0;73;72.9;40;40.2;28.7;0.0;
16/06/2019 17:34:31;100;0;134.95;17;-23.87;21.62;25.6;13.90;70319;5126.320;-12837.351;61;-300;-297.0;73;72.9;27;26.6;28.6;0.0;
16/06/2019 17:34:51;100;0;126.62;17;-23.66;15.26;29.2;13.80;70276;5126.320;-12837.351;61;-300;-297.0;73;72.9;25;24.8;28.7;0.0;
16/06/2019 17:35:11;100;0;114.93;17;-23.88;14.44;32.5;13.70;70235;5126.320;-12837.351;61;-300;-297.0;73;72.7;21;21.2;28.7;0.0;
16/06/2019 17:35:32;100;0;97.95;17;-23.68;12.95;35.9;13.70;70195;5126.320;-12837.351;61;-300;-297.0;73;72.9;15;14.9;28.6;0.0;
16/06/2019 17:35:52;100;0;87.79;17;-23.75;9.63;39.2;13.60;70152;5126.320;-12837.351;61;-300;-295.0;73;72.7;14;14.0;28.6;0.0;
16/06/2019 17:36:12;100;0;79.66;17;-23.35;9.03;42.7;13.50;70112;5126.320;-12837.351;61;-300;-297.0;73;72.7;14;13.1;28.7;0.0;
16/06/2019 17:36:32;100;0;70.32;17;-23.92;9.10;46.1;13.40;70093;5126.320;-12837.351;61;-300;-297.0;73;72.7;13;13.1;28.7;0.0;
16/06/2019 17:36:52;100;0;62.17;17;-23.73;9.03;49.5;13.40;70081;5126.320;-12837.351;61;-300;-297.0;73;72.7;12;12.2;28.6;0.0;
16/06/2019 17:37:12;100;0;53.41;17;-23.52;8.39;52.9;13.30;70064;5126.320;-12837.351;61;-300;-297.0;73;72.7;10;9.5;28.6;0.0;
16/06/2019 17:37:32;100;0;44.58;17;-23.58;7.10;56.5;13.20;70044;5126.320;-12837.351;61;-300;-295.0;73;72.7;10;9.0;28.6;0.0;
16/06/2019 17:37:52;100;0;32.51;17;-22.84;7.10;60.0;13.20;70021;5126.320;-12837.351;61;-300;-297.0;73;72.9;4;4.1;28.7;0.0;
16/06/2019 17:38:12;100;0;28.35;17;-23.75;4.69;63.3;13.10;69999;5126.320;-12837.351;61;-300;-295.0;73;72.7;5;5.0;28.7;0.0;
16/06/2019 17:38:32;100;0;25.42;17;-23.49;5.53;66.6;13.00;69983;5126.320;-12837.351;61;-300;-297.0;73;72.7;6;5.9;28.7;0.0;
16/06/2019 17:38:52;100;0;17.12;17;-22.66;6.17;70.0;13.00;69956;5126.320;-12837.351;61;-300;-297.0;73;72.7;2;1.8;28.6;0.0;
16/06/2019 17:39:12;100;0;9.87;17;-22.41;3.73;73.3;12.90;69935;5126.320;-12837.351;61;-300;-295.0;73;72.7;0;0.0;28.6;0.0;
16/06/2019 17:39:32;100;0;3.20;17;-22.72;2.98;76.5;12.80;69923;5126.320;-12837.351;61;-300;-295.0;73;72.7;-1;-0.9;28.7;0.0;
16/06/2019 17:39:52;100;0;359.39;17;-22.48;2.45;79.7;12.80;69906;5126.320;-12837.351;61;-300;-297.0;73;72.7;-1;-1.4;28.6;0.0;
16/06/2019 17:40:12;100;0;0.89;17;-22.60;2.56;82.8;12.70;69888;5126.320;-12837.351;61;-300;-297.0;73;72.7;0;0.0;28.7;0.0;
16/06/2019 17:40:32;100;0;357.99;17;-22.44;3.72;86.0;12.60;69883;5126.320;-12837.351;61;-300;-297.0;73;72.7;-2;-1.8;28.7;0.0;
16/06/2019 17:40:52;100;0;353.56;17;-22.08;2.32;89.0;12.60;69868;5126.320;-12837.351;61;-300;-295.0;73;72.7;-5;-5.0;28.7;0.0;
16/06/2019 17:41:12;100;0;350.05;17;-22.23;0.72;92.0;12.50;69856;5126.320;-12837.351;61;-300;-295.0;73;72.7;-8;-8.1;28.7;0.0;
16/06/2019 17:41:32;100;0;348.44;17;-22.53;-0.66;95.0;12.50;69843;5126.320;-12837.351;61;-300;-297.0;73;72.7;-10;-10.4;28.7;0.0;
16/06/2019 17:41:52;100;0;347.39;17;-22.19;-1.71;97.9;12.40;69843;5126.320;-12837.351;61;-300;-295.0;73;72.7;-12;-12.2;28.7;0.0;
16/06/2019 17:42:12;100;0;350.78;17;-21.97;-2.68;100.9;12.40;69824;5126.320;-12837.351;61;-300;-295.0;73;72.7;-12;-12.6;28.7;0.0;
16/06/2019 17:42:32;100;0;351.77;17;-21.83;-2.73;103.7;12.30;69821;5126.320;-12837.351;61;-300;-297.0;73;72.7;-14;-14.0;28.7;0.0;
16/06/2019 17:42:52;100;0;351.10;17;-21.88;-3.38;106.5;12.20;69814;5126.320;-12837.351;61;-300;-295.0;73;72.7;-16;-15.8;28.7;0.0;
16/06/2019 17:43:12;100;0;350.86;17;-21.13;-4.28;109.5;12.20;69793;5126.320;-12837.351;61;-300;-295.0;73;72.7;-19;-19.0;28.7;0.0;
16/06/2019 17:43:32;100;0;350.88;17;-20.02;-5.36;112.2;12.10;69770;5126.320;-12837.351;61;-300;-295.0;73;72.7;-21;-21.7;28.6;0.0;
16/06/2019 17:43:52;100;0;356.14;17;-21.43;-7.62;114.7;12.10;69766;5126.320;-12837.351;61;-300;-295.0;73;72.7;-19;-19.0;28.6;0.0;
16/06/2019 17:44:12;100;0;2.33;17;-20.47;-5.28;117.1;12.00;69767;5126.320;-12837.351;61;-300;-295.0;73;72.7;-17;-16.7;28.6;0.0;
16/06/2019 17:44:32;100;0;4.60;17;-20.73;-4.12;119.6;12.00;69749;5126.320;-12837.351;61;-300;-295.0;73;72.7;-19;-19.0;28.7;0.0;
16/06/2019 17:44:52;100;0;4.85;17;-20.40;-5.61;122.2;11.90;69746;5126.320;-12837.351;61;-300;-295.0;73;72.7;-20;-19.9;28.6;0.0;
16/06/2019 17:45:12;100;0;6.03;17;-20.24;-5.62;124.8;11.90;69731;5126.320;-12837.351;61;-300;-295.0;73;72.7;-20;-19.9;28.6;0.0;
16/06/2019 17:45:32;100;0;6.72;17;-20.05;-5.59;127.5;11.80;69729;5126.320;-12837.351;61;-300;-295.0;73;72.7;-21;-21.7;28.7;0.0;
16/06/2019 17:45:52;100;0;2.71;17;-20.19;-6.69;129.8;11.80;69715;5126.320;-12837.351;61;-300;-295.0;73;72.7;-24;-23.9;28.7;0.0;
16/06/2019 17:46:12;100;0;1.89;17;-20.09;-8.02;132.3;11.70;69708;5126.320;-12837.351;61;-300;-295.0;73;72.7;-24;-24.4;28.7;0.0;
16/06/2019 17:46:32;100;0;358.27;17;-20.14;-8.06;134.6;11.60;69697;5126.320;-12837.351;61;-300;-295.0;73;72.6;-25;-24.8;28.7;0.0;
16/06/2019 17:46:52;100;0;354.54;17;-20.28;-8.35;136.8;11.60;69685;5126.320;-12837.351;61;-300;-295.0;73;72.7;-27;-27.1;28.6;0.0;
16/06/2019 17:47:12;100;0;353.23;17;-19.59;-9.39;139.3;11.50;69691;5126.320;-12837.351;61;-300;-295.0;73;72.7;-26;-26.2;28.7;0.0;
16/06/2019 17:47:32;100;0;355.28;17;-19.28;-8.49;141.6;11.50;69673;5126.320;-12837.351;61;-300;-295.0;73;72.7;-24;-23.5;28.7;0.0;
16/06/2019 17:47:52;100;0;353.62;17;-19.08;-7.36;143.5;11.40;69654;5126.320;-12837.351;61;-300;-295.0;73;72.7;-25;-24.8;28.7;0.0;
16/06/2019 17:48:12;100;0;357.18;17;-19.21;-8.49;145.5;11.40;69638;5126.320;-12837.351;61;-300;-293.1;73;72.7;-23;-23.0;28.7;0.0;
16/06/2019 17:48:32;100;0;359.60;17;-19.30;-7.16;147.5;11.30;69622;5126.320;-12837.351;61;-300;-295.0;73;72.7;-22;-22.1;28.7;0.0;
16/06/2019 17:48:52;100;0;0.81;17;-20.03;-7.17;149.4;11.30;69619;5126.320;-12837.351;61;-300;-293.1;73;72.7;-22;-22.1;28.6;0.0;
16/06/2019 17:49:12;100;0;3.30;17;-18.54;-7.26;151.5;11.20;69600;5126.320;-12837.351;61;-300;-295.0;73;72.7;-21;-21.2;28.6;0.0;
16/06/2019 17:49:32;100;0;3.97;17;-18.90;-6.19;153.1;11.20;69601;5126.320;-12837.351;61;-300;-293.1;73;72.6;-22;-22.6;28.6;0.0;
16/06/2019 17:49:52;100;0;4.78;17;-19.23;-7.37;154.8;11.10;69585;5126.320;-12837.351;61;-300;-295.0;73;72.7;-22;-22.6;28.7;0.0;
16/06/2019 17:50:12;100;0;5.57;17;-19.03;-7.27;156.6;11.10;69582;5126.320;-12837.351;61;-300;-295.0;73;72.7;-21;-20.8;28.7;0.0;
16/06/2019 17:50:32;100;0;6.23;17;-18.97;-6.20;158.5;11.00;69567;5126.320;-12837.351;61;-300;-295.0;73;72.7;-21;-20.3;28.7;0.0;
16/06/2019 17:50:52;100;0;4.33;17;-19.05;-6.09;160.3;11.00;69558;5126.320;-12837.351;61;-300;-295.0;73;72.7;-23;-23.5;28.6;0.0;
16/06/2019 17:51:12;100;0;4.65;17;-18.71;-7.72;162.3;10.90;69553;5126.320;-12837.351;61;-300;-297.0;73;72.6;-22;-21.7;28.7;0.0;
16/06/2019 17:51:32;100;0;4.63;17;-18.56;-6.58;164.2;10.90;69545;5126.320;-12837.351;61;-300;-295.0;73;72.7;-22;-21.2;28.7;0.0;
16/06/2019 17:51:52;100;0;4.82;17;-18.43;-6.58;166.1;10.80;69538;5126.320;-12837.351;61;-300;-293.1;73;72.7;-22;-21.2;28.6;0.0;
16/06/2019 17:52:12;100;0;6.04;17;-18.62;-6.56;168.1;10.80;69521;5126.320;-12837.351;61;-300;-295.0;73;72.7;-21;-21.2;28.6;43.4;
16/06/2019 17:52:32;100;0;6.35;17;-18.62;-6.61;170.1;10.70;69506;5126.320;-12837.351;61;-300;-295.0;73;72.7;-22;-22.1;28.6;41.3;
16/06/2019 17:52:52;100;0;7.18;17;-18.54;-7.14;172.0;10.60;69510;5126.320;-12837.351;61;-300;-297.0;73;72.7;-21;-21.2;28.6;39.2;
16/06/2019 17:53:12;100;0;7.76;17;-18.60;-6.26;173.9;10.60;69499;5126.320;-12837.351;61;-300;-293.1;73;72.7;-21;-20.8;28.6;37.1;
16/06/2019 17:53:32;100;0;7.43;17;-18.39;-6.24;175.9;10.60;69501;5126.320;-12837.351;61;-300;-295.0;73;72.7;-22;-22.1;28.6;35.1;
16/06/2019 17:53:52;100;0;8.55;17;-18.57;-7.03;177.9;10.50;69490;5126.320;-12837.351;61;-300;-295.0;73;72.7;-21;-21.2;28.6;33.0;
16/06/2019 17:54:12;100;0;8.61;17;-18.47;-6.19;180.0;10.50;69487;5126.320;-12837.351;61;-300;-295.0;73;72.7;-21;-20.3;28.6;30.9;
16/06/2019 17:54:32;100;0;9.31;17;-18.57;-6.14;181.9;10.40;69485;5126.320;-12837.351;61;-300;-293.1;73;72.7;-21;-20.3;28.6;29.1;
16/06/2019 17:54:52;100;0;9.50;17;-18.46;-6.08;183.9;10.40;69473;5126.320;-12837.351;61;-300;-295.0;73;72.7;-21;-20.3;28.6;27.1;
16/06/2019 17:55:12;100;0;10.82;17;-18.25;-6.18;186.0;10.30;69467;5126.320;-12837.351;61;-300;-295.0;73;72.7;-21;-20.3;28.7;24.9;
16/06/2019 17:55:32;100;0;11.01;17;-18.39;-6.14;188.0;10.30;69472;5126.320;-12837.351;61;-300;-293.1;73;72.7;-20;-19.4;28.6;22.7;
16/06/2019 17:55:52;100;0;10.95;17;-18.44;-5.47;189.9;10.30;69464;5126.320;-12837.351;61;-300;-293.1;73;72.7;-21;-21.2;28.6;20.6;
16/06/2019 17:56:12;100;0;11.57;17;-18.38;-6.77;191.9;10.20;69466;5126.320;-12837.351;61;-300;-295.0;73;72.6;-21;-21.7;28.7;18.5;
16/06/2019 17:56:32;118;0;12.35;17;-18.57;-6.91;193.9;10.20;69463;5126.320;-12837.351;61;150;-279.2;57;56.8;0;0.9;28.7;16.8;
16/06/2019 17:56:42;118;0;45.63;17;2.79;4.00;194.7;10.20;69379;5126.320;-12837.351;61;150;-120.8;57;57.1;0;0.5;28.1;16.8;
16/06/2019 17:56:52;118;0;43.01;17;20.00;3.52;194.3;10.10;69170;5126.320;-12837.351;61;150;33.7;57;57.1;0;0.5;28.1;-1.0;
16/06/2019 17:57:02;118;0;41.40;17;24.26;3.73;193.6;10.10;68917;5126.320;-12837.351;61;150;154.5;57;57.1;0;0.9;28.1;-1.0;
16/06/2019 17:57:12;118;0;6.75;17;24.83;3.60;192.2;10.10;68737;5126.320;-12837.351;61;150;154.5;57;57.1;0;0.9;28.6;-1.0;
16/06/2019 17:57:22;118;0;7.06;17;27.09;3.70;190.6;10.10;68743;5126.320;-12837.351;61;150;154.5;57;57.1;0;0.5;28.7;-1.0;
16/06/2019 17:57:32;117;0;7.05;17;28.11;3.58;188.8;10.10;68742;5126.320;-12837.351;61;150;154.5;57;57.1;0;0.9;28.7;-1.0;
16/06/2019 17:57:52;117;0;5.70;17;28.33;3.82;184.5;10.10;68741;5126.320;-12837.351;61;150;154.5;57;57.1;24;23.9;28.6;-1.0;
16/06/2019 17:58:12;117;0;11.78;17;27.89;15.42;179.7;10.00;68738;5126.320;-12837.351;61;150;154.5;57;56.9;20;19.4;28.6;-1.0;
16/06/2019 17:58:32;117;0;20.01;17;27.88;12.48;175.3;10.00;68731;5126.320;-12837.351;61;150;156.4;57;57.1;15;14.9;28.6;-1.0;
16/06/2019 17:58:52;117;0;24.18;17;28.37;10.22;170.8;9.90;68723;5126.320;-12837.351;61;150;154.5;57;57.1;15;14.4;28.7;-1.0;
16/06/2019 17:59:12;117;0;28.23;17;27.93;10.02;166.3;9.90;68713;5126.320;-12837.351;61;150;156.4;57;57.1;14;14.0;28.7;-1.0;
16/06/2019 17:59:32;117;0;34.69;17;27.72;9.51;161.9;9.90;68715;5126.320;-12837.351;61;150;156.4;57;56.9;12;12.2;28.7;-1.0;
16/06/2019 17:59:52;117;0;41.74;17;27.97;8.84;157.7;9.80;68737;5126.320;-12837.351;61;150;156.4;57;57.1;10;9.5;28.7;-1.0;
16/06/2019 18:00:12;117;0;53.30;17;28.16;8.65;153.1;9.80;68731;5126.320;-12837.351;61;150;154.5;57;57.1;10;9.0;28.7;-1.0;
16/06/2019 18:00:32;117;0;64.67;17;27.83;7.70;148.5;9.80;68735;5126.320;-12837.351;61;150;156.4;57;56.9;2;1.4;28.7;-1.0;
16/06/2019 18:00:52;117;0;63.87;17;27.92;3.56;143.8;9.70;68736;5126.320;-12837.351;61;150;156.4;57;57.1;6;5.9;28.7;-1.0;
16/06/2019 18:01:12;117;0;60.73;17;26.86;6.33;139.4;9.70;68754;5126.320;-12837.351;61;150;156.4;57;57.1;9;9.0;28.7;-1.0;
16/06/2019 18:01:32;117;0;66.03;17;25.80;7.64;135.5;9.70;68774;5126.320;-12837.351;61;150;156.4;57;56.9;5;5.0;28.7;-1.0;
16/06/2019 18:01:52;117;0;68.29;17;25.65;5.32;131.8;9.70;68766;5126.320;-12837.351;61;150;156.4;57;57.1;4;4.1;28.7;-1.0;
16/06/2019 18:02:12;117;0;71.23;17;25.29;4.51;128.5;9.70;68788;5126.320;-12837.351;61;150;154.5;57;57.1;3;3.2;28.6;-1.0;
16/06/2019 18:02:32;117;0;64.02;17;25.79;4.36;125.0;9.70;68799;5126.320;-12837.351;61;150;156.4;57;57.1;7;7.2;28.7;-1.0;
16/06/2019 18:02:52;117;0;58.11;17;25.96;7.04;121.5;9.60;68803;5126.320;-12837.351;61;150;154.5;57;57.1;10;10.4;28.7;-1.0;
16/06/2019 18:03:12;117;0;53.64;17;25.92;8.51;117.7;9.60;68809;5126.320;-12837.351;61;150;154.5;57;57.1;11;10.8;28.7;-1.0;
16/06/2019 18:03:32;117;0;48.32;17;26.14;8.84;113.8;9.60;68809;5126.320;-12837.351;61;150;156.4;57;56.9;12;12.2;28.6;-1.0;
16/06/2019 18:03:52;117;0;46.79;17;24.48;9.32;110.1;9.60;68824;5126.320;-12837.351;61;150;156.4;57;56.9;11;10.8;28.6;-1.0;
16/06/2019 18:04:12;117;0;40.85;17;24.25;8.22;107.0;9.60;68828;5126.320;-12837.351;61;150;156.4;57;56.9;11;10.4;28.7;-1.0;
16/06/2019 18:04:32;117;0;37.69;17;24.44;8.16;103.7;9.60;68838;5126.320;-12837.351;61;150;154.5;57;57.1;13;13.1;28.7;-1.0;
16/06/2019 18:04:52;117;0;39.59;17;23.37;9.97;100.5;9.60;68838;5126.320;-12837.351;61;150;156.4;57;57.1;11;10.4;28.6;-1.0;
16/06/2019 18:05:12;117;0;41.26;17;23.41;8.10;97.2;9.60;68852;5126.320;-12837.351;61;150;156.4;57;57.1;9;9.0;28.7;-1.0;
16/06/2019 18:05:32;117;0;44.58;17;22.86;7.30;94.1;9.60;68856;5126.320;-12837.351;61;150;156.4;57;57.1;9;8.6;28.6;-1.0;
16/06/2019 18:05:52;117;0;44.09;17;23.00;7.33;91.0;9.60;68863;5126.320;-12837.351;61;150;156.4;57;57.1;9;8.6;28.6;-1.0;
16/06/2019 18:06:12;117;0;46.72;17;23.01;7.29;88.0;9.60;68872;5126.320;-12837.351;61;150;156.4;57;57.1;9;8.6;28.6;-1.0;
16/06/2019 18:06:32;117;0;49.34;17;22.41;7.36;85.0;9.60;68873;5126.320;-12837.351;61;150;156.4;57;56.9;6;5.4;28.7;-1.0;
16/06/2019 18:06:53;117;0;57.03;17;22.98;6.09;82.1;9.60;68884;5126.320;-12837.351;61;150;156.4;57;56.9;2;1.8;28.7;-1.0;
16/06/2019 18:07:13;117;0;59.13;17;21.90;3.69;78.9;9.60;68881;5126.320;-12837.351;61;150;158.4;57;57.1;2;0.9;28.7;-1.0;
16/06/2019 18:07:33;117;0;64.38;17;21.49;3.55;76.1;9.60;68888;5126.320;-12837.351;61;150;156.4;57;57.1;0;0.0;28.6;-1.0;
16/06/2019 18:07:53;117;0;64.04;17;21.35;2.78;73.4;9.60;68886;5126.320;-12837.351;61;150;156.4;57;57.1;1;0.9;28.7;-1.0;
16/06/2019 18:08:13;117;0;63.36;17;21.47;4.30;70.8;9.60;68904;5126.320;-12837.351;61;150;156.4;57;57.1;2;1.8;28.7;-1.0;
16/06/2019 18:08:33;117;0;69.35;17;20.38;4.10;68.2;9.60;68907;5126.320;-12837.351;61;150;156.4;57;57.1;-1;-0.9;28.7;-1.0;
16/06/2019 18:08:53;117;0;66.04;17;20.96;2.63;65.6;9.60;68916;5126.320;-12837.351;61;150;158.4;57;57.1;0;0.0;28.7;-1.0;
16/06/2019 18:09:13;117;0;61.14;17;20.20;3.46;63.1;9.60;68912;5126.320;-12837.351;61;150;156.4;57;57.1;3;3.6;28.6;-1.0;
16/06/2019 18:09:33;117;0;63.55;17;20.74;5.09;60.8;9.60;68927;5126.320;-12837.351;61;150;158.4;57;56.9;0;0.0;28.7;-1.0;
16/06/2019 18:09:53;117;0;62.13;17;19.72;2.94;58.3;9.60;68939;5126.320;-12837.351;61;150;156.4;57;57.1;0;-0.5;28.6;-1.0;
16/06/2019 18:10:13;117;0;61.45;17;19.71;2.94;55.9;9.60;68958;5126.320;-12837.351;61;150;156.4;57;56.9;0;-0.5;28.6;-1.0;
16/06/2019 18:10:33;117;0;61.98;17;19.83;2.88;53.7;9.60;68952;5126.320;-12837.351;61;150;156.4;57;57.1;0;-0.5;28.6;-1.0;
16/06/2019 18:10:53;117;0;66.42;17;19.10;3.45;51.5;9.70;68957;5126.320;-12837.351;61;150;156.4;57;56.9;-4;-4.1;28.6;-1.0;
16/06/2019 18:11:13;117;0;67.19;17;19.34;0.78;49.4;9.70;68977;5126.320;-12837.351;61;150;158.4;57;57.1;-4;-5.0;28.7;-1.0;
16/06/2019 18:11:33;117;0;59.89;17;20.19;0.75;47.3;9.70;68978;5126.320;-12837.351;61;150;156.4;57;57.1;0;0.0;28.6;-1.0;
16/06/2019 18:11:53;117;0;58.83;17;19.13;3.58;45.2;9.70;68996;5126.320;-12837.351;61;150;156.4;57;56.9;-1;-0.9;28.7;-1.0;
16/06/2019 18:12:13;117;0;58.66;17;19.43;2.56;43.1;9.70;68998;5126.320;-12837.351;61;150;156.4;57;57.1;-2;-1.8;28.7;-1.0;
16/06/2019 18:12:33;117;0;60.57;17;19.32;2.41;41.0;9.70;69006;5126.320;-12837.351;61;150;156.4;57;57.1;-4;-4.1;28.6;-1.0;
16/06/2019 18:12:53;117;0;57.98;17;19.63;0.91;39.0;9.70;69011;5126.320;-12837.351;61;150;156.4;57;57.1;-3;-3.2;28.6;-1.0;
16/06/2019 18:13:13;117;0;57.92;17;18.67;2.28;36.9;9.70;69027;5126.320;-12837.351;61;150;156.4;57;57.1;-4;-4.1;28.7;-1.0;
16/06/2019 18:13:33;117;0;57.03;17;18.91;1.12;35.0;9.80;69043;5126.320;-12837.351;61;150;156.4;57;57.1;-4;-4.5;28.7;-1.0;
16/06/2019 18:13:53;117;0;57.36;17;18.54;1.04;33.1;9.80;69056;5126.320;-12837.351;61;150;156.4;57;57.1;-5;-5.4;28.7;-1.0;
16/06/2019 18:14:13;117;0;50.57;17;18.06;0.49;31.3;9.80;69077;5126.320;-12837.351;61;150;156.4;57;57.1;-1;-0.9;28.6;-1.0;
16/06/2019 18:14:33;117;0;42.37;17;18.15;3.05;29.6;9.80;69085;5126.320;-12837.351;61;150;156.4;57;56.9;-1;-0.5;28.7;-1.0;
16/06/2019 18:14:53;117;0;35.74;17;17.82;3.14;27.9;9.80;69109;5126.320;-12837.351;61;150;156.4;57;57.1;3;3.2;28.6;-1.0;
16/06/2019 18:15:13;117;0;40.39;17;17.17;5.24;26.4;9.90;69129;5126.320;-12837.351;61;150;156.4;57;56.9;-1;-0.9;28.7;-1.0;
16/06/2019 18:15:33;117;0;40.70;17;17.10;2.63;24.8;9.90;69161;5126.320;-12837.351;61;150;156.4;57;57.1;-1;-0.9;28.7;-1.0;
16/06/2019 18:15:53;117;0;37.53;17;17.20;2.72;23.4;9.90;69167;5126.320;-12837.351;61;150;156.4;57;56.9;0;0.5;28.7;-1.0;
16/06/2019 18:16:13;117;0;39.08;17;16.64;3.89;21.9;10.00;69200;5126.320;-12837.351;61;150;156.4;57;57.1;-1;-0.9;28.7;-1.0;
16/06/2019 18:16:33;117;0;40.81;17;16.26;2.74;20.4;10.00;69224;5126.320;-12837.351;61;150;156.4;57;56.9;-2;-2.3;28.7;-1.0;
16/06/2019 18:16:53;117;0;48.03;17;15.83;2.19;18.9;10.00;69255;5126.320;-12837.351;61;150;158.4;57;57.1;-2;-2.3;28.7;-1.0;
16/06/2019 18:17:13;117;0;45.61;17;15.67;2.01;17.4;10.10;69290;5126.320;-12837.351;61;150;156.4;57;57.1;-2;-2.3;28.7;-1.0;
16/06/2019 18:17:33;117;0;48.49;17;15.46;2.11;15.9;10.10;69324;5126.320;-12837.351;61;150;158.4;57;56.9;-4;-4.1;28.6;-1.0;
16/06/2019 18:17:53;117;0;43.71;17;15.90;1.02;14.5;10.20;69346;5126.320;-12837.351;61;150;156.4;57;57.1;-4;-4.5;28.7;-1.0;
16/06/2019 18:18:13;117;0;40.60;17;16.29;1.15;13.1;10.20;69374;5126.320;-12837.351;61;150;156.4;57;56.9;0;0.0;28.6;-1.0;
16/06/2019 18:18:33;117;0;37.96;17;15.58;3.53;11.7;10.30;69412;5126.320;-12837.351;61;150;156.4;57;57.1;0;0.5;28.7;-1.0;
16/06/2019 18:18:53;117;0;37.79;17;16.03;3.51;10.3;10.30;69434;5126.320;-12837.351;61;150;156.4;57;57.1;0;0.5;28.6;-1.0;
16/06/2019 18:19:13;117;0;37.16;17;15.69;3.70;8.9;10.40;69448;5126.320;-12837.351;61;150;156.4;57;57.1;0;0.5;28.6;-1.0;
16/06/2019 18:19:33;117;0;31.37;17;15.99;3.84;7.3;10.40;69464;5126.320;-12837.351;61;150;158.4;57;57.1;3;3.6;28.7;-1.0;
16/06/2019 18:19:53;117;0;39.96;17;14.51;5.14;6.0;10.50;69484;5126.320;-12837.351;61;150;156.4;57;57.1;-2;-1.8;28.7;-1.0;
