Timestamp;NavState;SecurityLevel;Heading;Declination;Pitch;Roll;Depth;Temperature;Pa;Lat;Lon;DesiredH;BallastCmd;BallastPos;LinCmd;LinPos;AngCmd;AngPos;Voltage;Altitude;
15/06/2019 15:49:06;117;0;282.69;17;15.70;-0.91;9.4;10.70;69470;5123.708;-12836.878;275;150;156.4;57;57.1;-6;-5.9;28.9;-1.0;
15/06/2019 15:49:16;115;0;279.20;17;15.87;0.97;8.6;10.70;69486;5123.708;-12836.878;275;500;170.3;100;100.1;0;0.9;28.9;-1.0;
15/06/2019 15:49:26;115;0;316.19;17;-26.13;5.02;8.1;10.70;69417;5123.708;-12836.878;275;500;318.8;100;100.0;0;0.9;28.5;-1.0;
15/06/2019 15:49:36;115;0;325.94;17;-66.54;3.22;8.7;10.70;69210;5123.708;-12836.878;275;500;471.3;100;99.9;0;1.4;28.5;-1.0;
15/06/2019 15:49:46;115;0;328.74;17;-57.88;2.05;7.4;10.80;68966;5123.708;-12836.878;275;500;506.9;100;99.7;0;0.9;28.6;-1.0;
15/06/2019 15:49:56;115;0;321.82;17;-29.53;3.21;4.6;10.80;68933;5123.708;-12836.878;275;500;506.9;100;99.9;0;0.9;28.9;-1.0;
15/06/2019 15:50:06;116;0;9.94;17;-69.45;-9.63;1.5;10.80;68947;5123.708;-12836.878;275;500;506.9;100;99.9;0;1.4;28.9;-1.0;
15/06/2019 15:50:26;116;0;33.70;17;-19.18;2.30;1.3;10.90;68958;5123.605;-12837.415;275;500;508.9;100;99.7;0;1.4;28.9;-1.0;
15/06/2019 15:50:46;116;0;32.55;17;-19.90;2.87;1.3;11.00;68971;5123.606;-12837.410;275;500;508.9;100;99.7;0;0.9;28.9;-1.0;
15/06/2019 15:51:06;116;0;29.34;17;-18.23;1.34;1.4;11.10;68991;5123.606;-12837.410;275;500;506.9;100;99.7;0;1.4;28.9;-1.0;
15/06/2019 15:51:26;116;0;38.63;17;-21.27;3.89;1.4;11.10;69001;5123.606;-12837.407;277;500;508.9;100;99.7;0;1.4;28.9;-1.0;
15/06/2019 15:51:46;116;0;39.96;17;-19.96;1.41;1.3;11.30;69019;5123.609;-12837.395;277;500;508.9;100;99.7;0;0.9;28.8;-1.0;
15/06/2019 15:52:49;116;0;49.08;17;-21.88;3.76;1.4;11.70;69040;5123.609;-12837.395;277;500;506.9;100;99.7;0;1.4;28.9;-1.0;
15/06/2019 15:53:09;116;0;51.94;17;-21.16;1.90;1.3;11.80;69053;5123.610;-12837.391;277;500;508.9;100;99.7;0;1.4;28.9;-1.0;
15/06/2019 15:53:29;116;0;48.38;17;-20.47;2.16;1.3;12.00;69057;5123.616;-12837.327;277;500;508.9;100;99.7;0;0.9;28.9;-1.0;
15/06/2019 15:59:05;116;0;63.77;17;-21.01;3.81;1.3;13.10;69147;5123.616;-12837.327;277;500;508.9;100;99.7;0;1.4;28.9;-1.0;
15/06/2019 15:59:25;116;0;50.35;17;-19.32;3.17;1.4;13.10;69154;5123.616;-12837.323;277;500;508.9;100;99.7;0;0.9;28.9;-1.0;
15/06/2019 15:59:45;116;0;42.59;17;-21.48;3.83;1.3;13.20;69140;5123.616;-12837.319;277;500;508.9;100;99.7;0;0.9;28.9;-1.0;
15/06/2019 16:00:05;116;0;45.26;17;-18.39;2.73;1.3;13.20;69163;5123.616;-12837.315;277;500;506.9;100;99.7;0;0.9;28.9;-1.0;
15/06/2019 16:00:25;116;0;52.97;17;-21.86;5.75;1.4;13.30;69162;5123.616;-12837.311;277;500;508.9;100;99.7;0;0.9;28.9;-1.0;
15/06/2019 16:00:45;116;0;56.67;17;-18.70;3.17;1.3;13.40;69163;5123.616;-12837.308;277;500;506.9;100;99.7;0;0.9;28.9;-1.0;
15/06/2019 16:01:05;116;0;64.14;17;-22.05;3.23;1.3;13.40;69168;5123.616;-12837.304;277;500;506.9;100;99.7;0;0.9;28.9;-1.0;
15/06/2019 16:01:25;116;0;63.92;17;-19.04;-0.20;1.4;13.50;69173;5123.616;-12837.301;277;500;508.9;100;99.7;0;0.9;28.9;-1.0;
15/06/2019 16:01:45;116;0;65.66;17;-19.55;4.48;1.3;13.50;69172;5123.617;-12837.299;277;500;508.9;100;99.9;0;0.9;28.9;-1.0;
15/06/2019 16:02:05;116;0;69.07;17;-18.40;3.69;1.3;13.60;69179;5123.616;-12837.288;277;500;508.9;100;99.7;0;1.4;28.9;-1.0;
15/06/2019 16:02:43;116;0;61.79;17;-18.64;3.41;1.4;13.70;69184;5123.616;-12837.285;277;500;506.9;100;99.7;0;0.9;28.8;-1.0;
15/06/2019 16:03:03;116;0;54.56;17;-20.38;3.34;1.3;13.70;69187;5123.616;-12837.284;277;500;508.9;100;99.7;0;0.9;28.9;-1.0;
15/06/2019 16:03:23;116;0;49.87;17;-17.41;2.56;1.4;13.80;69175;5123.616;-12837.280;277;500;506.9;100;99.7;0;1.4;28.9;-1.0;
15/06/2019 16:03:43;116;0;50.80;17;-20.97;1.71;1.4;13.80;69194;5123.616;-12837.265;277;500;508.9;100;99.7;0;1.4;28.9;-1.0;
15/06/2019 16:04:46;116;0;67.14;17;-19.61;4.14;1.3;14.10;69209;5123.616;-12837.265;277;500;508.9;100;99.7;0;0.9;28.9;-1.0;
15/06/2019 16:05:06;116;0;64.80;17;-21.18;1.87;1.3;14.30;69209;5123.617;-12837.261;277;500;508.9;100;99.7;0;0.9;28.9;-1.0;
15/06/2019 16:05:26;116;0;66.17;17;-18.71;4.28;1.3;14.30;69201;5123.617;-12837.260;277;500;508.9;100;99.7;0;0.9;28.9;-1.0;
15/06/2019 16:05:47;116;0;70.59;17;-20.14;2.81;1.3;14.40;69212;5123.618;-12837.261;277;500;508.9;100;99.7;0;0.9;28.9;-1.0;
15/06/2019 16:06:07;116;0;65.47;17;-18.18;3.31;1.4;14.50;69209;5123.617;-12837.259;277;500;508.9;100;99.9;0;0.9;28.9;-1.0;
15/06/2019 16:06:27;116;0;58.02;17;-20.00;5.97;1.3;14.60;69223;5123.616;-12837.247;277;500;506.9;100;99.7;0;1.4;28.9;-1.0;
15/06/2019 16:06:47;116;0;57.99;17;-19.81;5.80;1.4;14.80;69225;5123.616;-12837.242;277;500;508.9;100;99.7;0;0.9;28.9;-1.0;
15/06/2019 16:07:07;110;0;51.36;17;-18.28;3.25;1.3;14.80;69219;5123.616;-12837.242;277;-300;404.0;100;99.7;0;0.9;28.9;-1.0;
15/06/2019 16:07:17;110;0;58.00;17;-20.50;5.29;1.4;14.90;69481;5123.616;-12837.242;277;-300;253.5;100;99.7;0;0.9;28.8;-1.0;
15/06/2019 16:07:27;110;0;55.99;17;-30.14;0.59;1.6;14.90;69670;5123.616;-12837.242;277;-300;93.1;100;99.9;0;1.4;28.8;-1.0;
15/06/2019 16:07:37;110;0;49.83;17;-55.64;2.34;2.1;14.90;69932;5123.616;-12837.242;277;-300;-83.2;100;99.9;0;0.9;28.8;-1.0;
15/06/2019 16:07:47;110;0;45.77;17;-62.34;0.64;2.7;14.90;70223;5123.616;-12837.242;277;-300;-279.2;92;91.8;0;1.4;28.8;-1.0;
15/06/2019 16:07:57;110;0;48.82;17;-53.17;3.07;4.1;14.90;70548;5123.616;-12837.242;277;-300;-303.0;75;74.8;0;0.9;28.8;-1.0;
15/06/2019 16:08:07;110;0;39.63;17;-41.83;3.79;6.6;15.00;70556;5123.616;-12837.242;277;-300;-301.0;73;73.0;0;0.9;28.9;-1.0;
15/06/2019 16:08:17;100;0;38.97;17;-32.24;3.80;9.2;14.90;70545;5123.616;-12837.242;277;-300;-301.0;73;73.0;0;1.4;28.8;-1.0;
15/06/2019 16:08:37;100;0;38.70;17;-27.63;4.43;14.1;14.90;70528;5123.616;-12837.242;277;-300;-297.0;73;73.0;45;45.1;28.9;0.0;
15/06/2019 16:08:57;100;0;21.55;17;-22.97;25.64;18.8;14.90;70497;5123.616;-12837.242;277;-300;-297.0;73;73.0;45;45.6;28.9;0.0;
15/06/2019 16:09:17;100;0;4.33;17;-22.02;25.69;22.6;14.80;70463;5123.616;-12837.242;277;-300;-297.0;73;73.0;36;35.6;28.9;0.0;
15/06/2019 16:09:37;100;0;357.10;17;-22.71;19.78;26.3;14.70;70429;5123.616;-12837.242;277;-300;-297.0;73;73.0;32;32.0;28.9;0.0;
15/06/2019 16:09:57;100;0;346.79;17;-23.04;18.21;29.7;14.70;70362;5123.616;-12837.242;277;-300;-297.0;73;73.0;27;27.1;28.9;0.0;
15/06/2019 16:10:17;100;0;336.96;17;-23.73;15.39;33.0;14.60;70310;5123.616;-12837.242;277;-300;-297.0;73;73.0;23;23.0;28.9;0.0;
15/06/2019 16:10:37;100;0;328.20;17;-23.60;13.60;36.3;14.50;70265;5123.616;-12837.242;277;-300;-295.0;73;73.0;22;21.7;28.9;0.0;
15/06/2019 16:10:57;100;0;321.34;17;-23.64;12.95;39.7;14.40;70231;5123.616;-12837.242;277;-300;-297.0;73;73.0;21;21.2;28.9;0.0;
15/06/2019 16:11:17;100;0;315.15;17;-23.77;12.88;43.2;14.30;70201;5123.616;-12837.242;277;-300;-295.0;73;73.0;20;19.9;28.9;0.0;
15/06/2019 16:11:37;100;0;307.11;17;-23.60;12.24;46.7;14.20;70179;5123.616;-12837.242;277;-300;-295.0;73;73.0;18;17.6;28.8;0.0;
15/06/2019 16:11:57;100;0;298.51;17;-23.90;10.96;50.3;14.10;70159;5123.616;-12837.242;277;-300;-297.0;73;73.0;16;15.3;28.9;0.0;
15/06/2019 16:12:17;100;0;292.28;17;-24.05;9.83;53.7;14.00;70148;5123.616;-12837.242;277;-300;-297.0;73;72.9;16;14.9;28.9;0.0;
15/06/2019 16:12:37;100;0;285.31;17;-23.77;9.92;57.3;13.90;70123;5123.616;-12837.242;277;-300;-297.0;73;72.9;14;13.5;28.9;0.0;
15/06/2019 16:12:57;100;0;274.73;17;-23.69;9.33;60.9;13.90;70112;5123.616;-12837.242;277;-300;-297.0;73;72.9;11;10.4;28.9;0.0;
15/06/2019 16:13:17;100;0;268.25;17;-23.83;7.83;64.4;13.80;70095;5123.616;-12837.242;277;-300;-297.0;73;72.9;11;10.4;28.9;0.0;
15/06/2019 16:13:37;100;0;258.56;17;-23.32;7.85;67.8;13.70;70082;5123.616;-12837.242;277;-300;-297.0;73;72.9;11;10.4;28.9;0.0;
15/06/2019 16:13:57;100;0;252.05;17;-23.98;7.79;71.3;13.70;70057;5123.616;-12837.242;277;-300;-297.0;73;73.0;7;6.8;28.9;0.0;
15/06/2019 16:14:17;100;0;243.34;17;-23.68;6.07;74.7;13.60;70044;5123.616;-12837.242;277;-300;-297.0;73;72.9;4;4.1;28.9;0.0;
15/06/2019 16:14:37;100;0;233.71;17;-23.58;4.87;77.9;13.50;70042;5123.616;-12837.242;277;-300;-295.0;73;72.9;1;0.5;28.9;0.0;
15/06/2019 16:14:57;100;0;242.20;17;-24.02;3.23;81.1;13.40;70016;5123.616;-12837.242;277;-300;-297.0;73;72.9;9;9.5;28.9;0.0;
15/06/2019 16:15:17;100;0;231.53;17;-23.10;7.96;84.3;13.40;70003;5123.616;-12837.242;277;-300;-297.0;73;72.9;2;1.8;28.8;0.0;
15/06/2019 16:15:37;100;0;220.40;17;-23.22;3.80;87.4;13.30;69978;5123.616;-12837.242;277;-300;-297.0;73;72.9;-2;-1.8;28.9;0.0;
15/06/2019 16:15:57;100;0;205.87;17;-23.28;2.49;90.4;13.20;69966;5123.616;-12837.242;277;-300;-297.0;73;72.9;-9;-9.0;28.9;19.9;
15/06/2019 16:16:17;118;0;193.55;17;-22.43;-1.02;93.4;13.10;69953;5123.616;-12837.242;277;150;-279.2;57;56.6;0;0.9;28.9;0.0;
15/06/2019 16:16:27;118;0;153.33;17;-4.38;4.25;94.6;13.10;69870;5123.616;-12837.242;277;150;-122.8;57;57.1;0;0.9;28.4;0.0;
15/06/2019 16:16:37;118;0;154.88;17;12.32;3.93;94.6;13.10;69657;5123.616;-12837.242;277;150;29.7;57;57.1;0;0.9;28.4;-1.0;
15/06/2019 16:16:47;118;0;157.81;17;19.07;4.02;93.9;13.10;69392;5123.616;-12837.242;277;150;158.4;57;57.1;0;0.9;28.4;-1.0;
15/06/2019 16:16:57;118;0;192.77;17;19.96;4.04;92.8;13.00;69195;5123.616;-12837.242;277;150;156.4;57;57.1;0;0.9;28.9;-1.0;
15/06/2019 16:17:07;118;0;195.55;17;21.61;4.16;91.5;13.00;69205;5123.616;-12837.242;277;150;158.4;57;57.1;0;0.9;28.9;-1.0;
15/06/2019 16:17:17;117;0;197.78;17;21.82;4.05;90.2;13.00;69207;5123.616;-12837.242;277;150;158.4;57;57.1;0;0.9;28.9;-1.0;
15/06/2019 16:17:37;117;0;199.85;17;22.42;3.75;87.4;12.90;69196;5123.616;-12837.242;277;150;158.4;57;57.1;11;10.8;28.9;-1.0;
15/06/2019 16:17:57;117;0;206.52;17;22.04;9.19;84.0;12.80;69191;5123.616;-12837.242;277;150;158.4;57;57.1;6;5.9;28.9;-1.0;
15/06/2019 16:18:17;117;0;208.75;17;21.34;6.11;81.1;12.80;69187;5123.616;-12837.242;277;150;158.4;57;57.1;7;7.7;28.9;-1.0;
15/06/2019 16:18:37;117;0;204.68;17;21.29;7.37;78.4;12.70;69186;5123.616;-12837.242;277;150;158.4;57;57.1;11;11.3;28.9;-1.0;
15/06/2019 16:18:57;117;0;198.33;17;21.80;9.20;75.7;12.70;69192;5123.616;-12837.242;277;150;158.4;57;57.1;16;15.8;28.9;-1.0;
15/06/2019 16:19:17;117;0;198.48;17;20.35;11.54;73.1;12.60;69191;5123.616;-12837.242;277;150;158.4;57;57.1;17;17.1;28.9;-1.0;
15/06/2019 16:19:37;117;0;199.96;17;19.93;12.36;70.5;12.50;69192;5123.616;-12837.242;277;150;158.4;57;57.1;19;19.4;28.9;-1.0;
15/06/2019 16:19:57;117;0;204.12;17;19.82;13.60;68.1;12.50;69204;5123.616;-12837.242;277;150;158.4;57;57.1;18;18.1;28.9;-1.0;
15/06/2019 16:20:17;117;0;206.25;17;19.53;12.07;65.6;12.40;69193;5123.616;-12837.242;277;150;158.4;57;57.1;20;19.9;28.8;-1.0;
15/06/2019 16:20:37;117;0;211.94;17;19.41;13.70;63.4;12.40;69201;5123.616;-12837.242;277;150;158.4;57;57.1;19;19.0;28.9;-1.0;
15/06/2019 16:20:57;117;0;216.64;17;19.04;12.52;61.1;12.40;69211;5123.616;-12837.242;277;150;156.4;57;57.1;18;18.1;28.9;-1.0;
15/06/2019 16:21:17;117;0;220.95;17;19.32;12.62;58.8;12.30;69208;5123.616;-12837.242;277;150;158.4;57;57.1;18;18.5;28.9;-1.0;
15/06/2019 16:21:37;117;0;224.83;17;19.33;12.63;56.5;12.30;69202;5123.616;-12837.242;277;150;156.4;57;57.1;18;18.5;28.9;-1.0;
15/06/2019 16:21:57;117;0;227.03;17;19.12;12.56;54.2;12.20;69213;5123.616;-12837.242;277;150;158.4;57;57.1;18;18.5;28.8;-1.0;
15/06/2019 16:22:17;117;0;230.22;17;18.93;12.52;51.9;12.20;69210;5123.616;-12837.242;277;150;158.4;57;57.1;18;18.1;28.9;-1.0;
15/06/2019 16:22:37;117;0;235.40;17;18.64;12.55;49.6;12.20;69218;5123.616;-12837.242;277;150;158.4;57;57.1;16;15.3;28.9;-1.0;
15/06/2019 16:22:57;117;0;238.51;17;19.05;10.88;47.4;12.10;69214;5123.616;-12837.242;277;150;158.4;57;57.1;16;14.9;28.9;-1.0;
15/06/2019 16:23:17;117;0;242.14;17;18.94;10.91;45.2;12.10;69221;5123.616;-12837.242;277;150;158.4;57;57.1;15;14.9;28.9;-1.0;
15/06/2019 16:23:37;117;0;245.05;17;18.72;10.82;42.8;12.10;69232;5123.616;-12837.242;277;150;156.4;57;57.1;15;14.9;28.9;-1.0;
15/06/2019 16:23:57;117;0;248.91;17;18.64;10.91;40.6;12.10;69237;5123.616;-12837.242;277;150;158.4;57;57.1;14;13.5;28.9;-1.0;
15/06/2019 16:24:17;117;0;250.75;17;18.70;10.05;38.5;12.00;69236;5123.616;-12837.242;277;150;160.4;57;57.1;14;13.5;28.9;-1.0;
15/06/2019 16:24:37;117;0;253.74;17;18.63;10.09;36.3;12.00;69239;5123.616;-12837.242;277;150;158.4;57;57.1;14;13.5;28.9;-1.0;
15/06/2019 16:24:57;117;0;256.92;17;18.53;10.11;34.2;12.00;69248;5123.616;-12837.242;277;150;158.4;57;57.1;13;13.1;28.9;-1.0;
15/06/2019 16:25:17;117;0;263.11;17;18.44;10.17;32.0;11.90;69244;5123.616;-12837.242;277;150;158.4;57;57.1;13;13.5;28.9;-1.0;
15/06/2019 16:25:37;117;0;266.79;17;18.25;9.95;29.9;11.90;69248;5123.616;-12837.242;277;150;158.4;57;57.1;10;9.9;28.9;-1.0;
15/06/2019 16:25:57;117;0;263.89;17;18.57;8.06;27.7;11.90;69262;5123.616;-12837.242;277;150;158.4;57;57.1;13;13.1;28.9;-1.0;
15/06/2019 16:26:17;117;0;265.39;17;18.12;10.21;25.6;11.90;69271;5123.616;-12837.242;277;150;158.4;57;57.1;12;12.2;28.9;-1.0;
15/06/2019 16:26:37;117;0;264.90;17;17.77;8.99;23.4;11.90;69286;5123.616;-12837.242;277;150;158.4;57;57.1;13;13.1;28.9;-1.0;
15/06/2019 16:26:57;117;0;264.44;17;17.20;10.16;21.4;11.90;69306;5123.616;-12837.242;277;150;158.4;57;57.1;13;13.5;28.9;-1.0;
15/06/2019 16:27:17;117;0;274.91;17;15.91;10.62;19.6;11.90;69338;5123.616;-12837.242;277;150;158.4;57;57.1;6;5.4;28.9;-1.0;
15/06/2019 16:27:37;117;0;274.65;17;16.13;6.22;17.9;11.90;69372;5123.616;-12837.242;277;150;160.4;57;57.1;8;8.1;28.9;-1.0;
15/06/2019 16:27:57;117;0;281.19;17;15.76;8.00;16.1;11.90;69423;5123.616;-12837.242;277;150;158.4;57;57.1;4;4.1;28.9;-1.0;
15/06/2019 16:28:17;117;0;285.38;17;15.81;5.30;14.3;11.90;69450;5123.616;-12837.242;277;150;158.4;57;57.1;3;3.2;28.9;-1.0;
15/06/2019 16:28:37;117;0;292.84;17;15.54;5.24;12.6;11.90;69476;5123.616;-12837.242;277;150;160.4;57;57.1;0;0.0;28.8;-1.0;
15/06/2019 16:28:57;117;0;297.02;17;15.82;3.20;11.0;11.90;69513;5123.616;-12837.242;277;150;158.4;57;57.1;0;-0.5;28.9;-1.0;
