Timestamp;NavState;SecurityLevel;Heading;Declination;Pitch;Roll;Depth;Temperature;Pa;Lat;Lon;DesiredH;BallastCmd;BallastPos;LinCmd;LinPos;AngCmd;AngPos;Voltage;Altitude;
13/06/2019 20:22:20;117;0;196.41;17;25.59;-0.84;8.9;11.70;69762;5140.045;-12818.414;170;100;108.9;53;53.2;-8;-8.6;29.3;-1.0;
13/06/2019 20:22:30;115;0;188.40;17;23.15;-1.65;7.9;11.70;69783;5140.045;-12818.414;170;500;118.8;100;99.3;0;0.5;29.3;-1.0;
13/06/2019 20:22:40;115;0;153.68;17;-21.26;3.44;7.2;11.70;69695;5140.045;-12818.414;170;500;269.3;100;100.0;0;0.5;29.0;-1.0;
13/06/2019 20:22:50;115;0;163.19;17;-67.72;-1.79;7.8;11.70;69485;5140.045;-12818.414;170;500;425.7;100;99.9;0;0.9;29.0;-1.0;
13/06/2019 20:23:00;115;0;211.92;17;-56.98;-2.36;7.2;11.70;69240;5140.045;-12818.414;170;500;505.0;100;99.9;0;0.5;29.0;-1.0;
13/06/2019 20:23:10;115;0;322.71;17;-41.82;-2.76;4.5;11.80;69139;5140.045;-12818.414;170;500;506.9;100;99.9;0;0.5;29.3;-1.0;
13/06/2019 20:23:20;116;0;16.44;17;-63.98;-19.59;1.3;11.80;69159;5140.045;-12818.414;170;500;506.9;100;99.9;0;0.5;29.3;-1.0;
13/06/2019 20:23:40;116;0;323.25;17;-8.16;6.39;1.1;11.80;69191;5139.760;-12818.402;170;500;508.9;100;99.9;0;0.9;29.3;-1.0;
13/06/2019 20:24:00;116;0;308.63;17;-8.31;3.69;1.1;11.90;69225;5139.752;-12818.408;170;500;506.9;100;99.7;0;0.5;29.3;-1.0;
13/06/2019 20:24:25;116;0;317.52;17;-8.90;3.25;1.1;11.90;69241;5139.750;-12818.409;170;500;508.9;100;99.7;0;0.9;29.3;-1.0;
13/06/2019 20:24:45;116;0;318.17;17;-9.19;1.50;1.0;12.00;69250;5139.748;-12818.409;161;500;508.9;100;99.7;0;0.9;29.3;-1.0;
13/06/2019 20:25:05;116;0;330.03;17;-7.85;1.81;1.1;12.10;69259;5139.742;-12818.418;161;500;508.9;100;99.7;0;0.9;29.4;-1.0;
13/06/2019 20:25:25;116;0;301.77;17;-4.85;3.63;1.1;12.20;69282;5139.742;-12818.416;161;500;508.9;100;99.7;0;0.9;29.3;-1.0;
13/06/2019 20:25:45;116;0;289.05;17;-8.15;-0.37;1.1;12.20;69276;5139.737;-12818.417;161;500;508.9;100;99.7;0;0.5;29.3;-1.0;
13/06/2019 20:26:05;116;0;305.51;17;-7.85;1.05;1.1;12.40;69295;5139.712;-12818.418;161;500;506.9;100;99.9;0;0.9;29.3;-1.0;
13/06/2019 20:26:33;116;0;323.54;17;-18.47;6.54;1.1;12.50;69314;5139.708;-12818.416;161;500;508.9;100;99.7;0;0.9;29.3;-1.0;
13/06/2019 20:26:53;116;0;286.33;17;-9.29;4.51;1.1;12.60;69313;5139.703;-12818.429;161;500;508.9;100;99.7;0;0.9;29.3;-1.0;
13/06/2019 20:27:13;116;0;297.35;17;-20.74;1.69;1.1;12.70;69314;5139.673;-12818.415;161;500;508.9;100;99.7;0;0.9;29.3;-1.0;
13/06/2019 20:27:33;116;0;328.21;17;-8.35;4.99;1.1;12.90;69319;5139.674;-12818.425;161;500;508.9;100;99.9;0;0.9;29.3;-1.0;
13/06/2019 20:27:53;110;0;317.65;17;-5.64;5.49;1.0;13.00;69323;5139.674;-12818.425;161;-250;409.9;100;99.7;0;0.5;29.3;-1.0;
13/06/2019 20:28:03;110;0;331.81;17;-8.49;4.05;1.1;13.10;69569;5139.674;-12818.425;161;-250;273.3;100;99.7;0;0.5;29.3;-1.0;
13/06/2019 20:28:13;110;0;304.30;17;-9.46;7.33;1.1;13.10;69757;5139.674;-12818.425;161;-250;138.6;100;99.9;0;0.9;29.2;-1.0;
13/06/2019 20:28:23;110;0;291.15;17;-7.20;6.80;1.1;13.10;69981;5139.674;-12818.425;161;-250;2.0;100;99.7;0;0.5;29.2;-1.0;
13/06/2019 20:28:33;110;0;269.29;17;-14.36;7.38;1.1;13.20;70194;5139.674;-12818.425;161;-250;-144.6;100;99.9;0;0.9;29.2;-1.0;
13/06/2019 20:28:43;110;0;297.38;17;-45.76;4.55;2.1;13.20;70448;5139.674;-12818.425;161;-250;-249.5;83;82.7;0;0.9;29.2;-1.0;
13/06/2019 20:28:53;110;0;302.46;17;-49.53;1.86;4.7;13.20;70590;5139.674;-12818.425;161;-250;-249.5;71;70.9;0;0.9;29.3;-1.0;
13/06/2019 20:29:03;100;0;304.81;17;-34.38;2.16;7.4;13.20;70589;5139.674;-12818.425;161;-250;-249.5;71;70.8;0;0.9;29.3;-1.0;
13/06/2019 20:29:23;100;0;292.85;17;-23.51;4.31;11.5;13.30;70562;5139.674;-12818.425;161;-250;-247.5;71;70.8;45;45.1;29.3;0.0;
13/06/2019 20:29:43;100;0;274.30;17;-19.24;25.56;15.0;13.30;70533;5139.674;-12818.425;161;-250;-245.5;71;70.8;45;45.6;29.3;0.0;
13/06/2019 20:30:03;100;0;257.01;17;-19.11;25.59;17.8;13.30;70512;5139.674;-12818.425;161;-250;-245.5;71;70.8;37;36.6;29.3;0.0;
13/06/2019 20:30:23;100;0;240.86;17;-20.56;20.21;20.6;13.30;70485;5139.674;-12818.425;161;-250;-245.5;71;70.8;28;27.5;29.3;0.0;
13/06/2019 20:30:43;100;0;226.25;17;-20.20;15.78;23.4;13.20;70465;5139.674;-12818.425;161;-250;-245.5;71;70.8;23;23.0;29.3;0.0;
13/06/2019 20:31:03;100;0;212.49;17;-20.33;13.71;26.4;13.20;70442;5139.674;-12818.425;161;-250;-245.5;71;70.8;19;19.0;29.3;0.0;
13/06/2019 20:31:23;100;0;198.62;17;-20.08;11.66;29.3;13.10;70410;5139.674;-12818.425;161;-250;-243.6;71;70.8;15;14.9;29.3;0.0;
13/06/2019 20:31:43;100;0;182.06;17;-19.75;9.59;32.3;13.10;70394;5139.674;-12818.425;161;-250;-245.5;71;70.8;11;10.8;29.3;0.0;
13/06/2019 20:32:03;100;0;168.56;17;-18.98;7.89;35.2;13.10;70357;5139.674;-12818.425;161;-250;-243.6;71;70.8;9;9.0;29.3;0.0;
13/06/2019 20:32:23;100;0;158.25;17;-19.71;7.02;37.8;13.00;70321;5139.674;-12818.425;161;-250;-245.5;71;70.8;8;8.1;29.3;0.0;
13/06/2019 20:32:43;100;0;148.44;17;-19.46;7.08;40.7;13.00;70316;5139.674;-12818.425;161;-250;-245.5;71;70.8;7;6.8;29.3;0.0;
13/06/2019 20:33:03;100;0;136.85;17;-19.78;6.08;43.3;13.00;70287;5139.674;-12818.425;161;-250;-243.6;71;70.8;7;6.3;29.3;0.0;
13/06/2019 20:33:23;100;0;128.61;17;-20.38;6.13;45.7;12.90;70283;5139.674;-12818.425;161;-250;-243.6;71;70.8;3;3.2;29.3;0.0;
13/06/2019 20:33:43;100;0;121.79;17;-20.48;4.21;48.4;12.90;70259;5139.674;-12818.425;161;-250;-245.5;71;70.8;2;1.8;29.3;0.0;
13/06/2019 20:34:03;100;0;116.31;17;-19.67;3.64;51.1;12.80;70239;5139.674;-12818.425;161;-250;-243.6;71;70.6;2;1.4;29.3;0.0;
13/06/2019 20:34:23;100;0;105.37;17;-19.38;3.74;53.9;12.80;70222;5139.674;-12818.425;161;-250;-243.6;71;70.8;-1;-0.9;29.3;0.0;
13/06/2019 20:34:43;100;0;95.40;17;-19.79;2.69;56.5;12.70;70206;5139.674;-12818.425;161;-250;-245.5;71;70.8;-6;-5.9;29.2;0.0;
13/06/2019 20:35:03;100;0;85.67;17;-19.99;0.65;59.1;12.70;70189;5139.674;-12818.425;161;-250;-243.6;71;70.6;-10;-9.9;29.3;0.0;
13/06/2019 20:35:23;100;0;78.47;17;-20.09;-1.37;61.6;12.70;70177;5139.674;-12818.425;161;-250;-243.6;71;70.6;-13;-13.1;29.3;0.0;
13/06/2019 20:35:43;100;0;73.95;17;-19.81;-3.05;64.3;12.60;70157;5139.674;-12818.425;161;-250;-243.6;71;70.6;-16;-15.8;29.3;0.0;
13/06/2019 20:36:03;100;0;74.01;17;-18.92;-4.08;67.0;12.60;70148;5139.674;-12818.425;161;-250;-243.6;71;70.6;-16;-16.2;29.3;0.0;
13/06/2019 20:36:23;100;0;74.76;17;-19.28;-4.29;69.5;12.50;70142;5139.674;-12818.425;161;-250;-243.6;71;70.6;-17;-17.6;29.3;0.0;
13/06/2019 20:36:43;100;0;75.68;17;-19.37;-5.14;72.0;12.50;70132;5139.674;-12818.425;161;-250;-243.6;71;70.6;-19;-19.0;29.3;0.0;
13/06/2019 20:37:03;100;0;79.82;17;-18.68;-5.53;74.5;12.40;70117;5139.674;-12818.425;161;-250;-243.6;71;70.6;-19;-19.4;29.3;0.0;
13/06/2019 20:37:23;100;0;73.13;17;-18.90;-5.36;76.8;12.40;70101;5139.674;-12818.425;161;-250;-243.6;71;70.6;-26;-26.2;29.3;0.0;
13/06/2019 20:37:43;100;0;67.26;17;-18.89;-9.23;79.1;12.40;70088;5139.674;-12818.425;161;-250;-243.6;71;70.6;-32;-32.0;29.3;0.0;
13/06/2019 20:38:03;100;0;72.89;17;-18.04;-11.80;81.5;12.30;70068;5139.674;-12818.425;161;-250;-243.6;71;70.6;-28;-28.0;29.3;0.0;
13/06/2019 20:38:23;100;0;80.13;17;-17.99;-9.33;83.7;12.30;70072;5139.674;-12818.425;161;-250;-243.6;71;70.8;-24;-23.9;29.3;0.0;
13/06/2019 20:38:43;100;0;80.07;17;-17.87;-7.45;85.8;12.20;70055;5139.674;-12818.425;161;-250;-243.6;71;70.6;-26;-26.2;29.3;0.0;
13/06/2019 20:39:03;100;0;80.62;17;-18.09;-9.29;87.8;12.20;70043;5139.674;-12818.425;161;-250;-245.5;71;70.6;-26;-26.6;29.3;0.0;
13/06/2019 20:39:23;100;0;79.33;17;-17.85;-9.16;89.8;12.10;70032;5139.674;-12818.425;161;-250;-243.6;71;70.6;-27;-27.1;29.3;0.0;
13/06/2019 20:39:43;100;0;76.01;17;-17.68;-9.38;91.8;12.10;70026;5139.674;-12818.425;161;-250;-243.6;71;70.6;-29;-28.9;29.3;0.0;
13/06/2019 20:40:03;100;0;82.01;17;-16.48;-10.46;93.9;12.10;70018;5139.674;-12818.425;161;-250;-245.5;71;70.6;-25;-24.8;29.3;0.0;
13/06/2019 20:40:23;100;0;87.03;17;-16.43;-7.89;95.8;12.00;70012;5139.674;-12818.425;161;-250;-243.6;71;70.6;-23;-23.0;29.3;0.0;
13/06/2019 20:40:43;100;0;92.03;17;-16.26;-7.04;97.7;12.00;69994;5139.674;-12818.425;161;-250;-243.6;71;70.6;-21;-21.2;29.3;43.7;
13/06/2019 20:41:03;100;0;92.98;17;-16.01;-6.02;99.5;11.90;69984;5139.674;-12818.425;161;-250;-243.6;71;70.6;-23;-23.0;29.3;41.9;
13/06/2019 20:41:23;118;0;91.42;17;-16.17;-7.68;101.3;11.90;69993;5139.674;-12818.425;161;100;-241.6;53;52.9;0;0.5;29.3;40.0;
13/06/2019 20:41:33;118;0;94.15;17;0.54;3.99;102.0;11.80;69968;5139.674;-12818.425;161;100;-130.7;53;53.2;0;0.5;29.3;40.0;
13/06/2019 20:41:43;118;0;90.78;17;23.79;3.80;101.9;11.80;69775;5139.674;-12818.425;161;100;21.8;53;53.2;0;0.5;28.9;-1.0;
13/06/2019 20:41:53;118;0;91.91;17;29.95;3.68;101.0;11.80;69524;5139.674;-12818.425;161;100;105.0;53;53.2;0;0.5;28.9;-1.0;
13/06/2019 20:42:03;118;0;104.71;17;30.92;3.83;99.8;11.80;69406;5139.674;-12818.425;161;100;105.0;53;53.2;0;0.5;29.3;-1.0;
13/06/2019 20:42:13;117;0;105.32;17;32.28;3.38;98.2;11.80;69406;5139.674;-12818.425;161;100;106.9;53;53.2;0;0.5;29.3;-1.0;
13/06/2019 20:42:33;117;0;92.86;17;32.36;3.69;94.7;11.80;69409;5139.674;-12818.425;161;100;105.0;53;53.2;24;23.9;29.3;-1.0;
13/06/2019 20:42:53;117;0;97.64;17;31.21;15.45;90.6;11.70;69403;5139.674;-12818.425;161;100;105.0;53;53.1;22;22.1;29.3;-1.0;
13/06/2019 20:43:13;117;0;119.53;17;31.87;14.61;86.9;11.70;69401;5139.674;-12818.425;161;100;105.0;53;53.2;9;9.0;29.3;-1.0;
13/06/2019 20:43:33;117;0;116.86;17;31.83;7.12;82.9;11.60;69411;5139.674;-12818.425;161;100;106.9;53;53.2;16;15.8;29.3;-1.0;
13/06/2019 20:43:53;117;0;112.19;17;31.01;11.66;78.9;11.60;69393;5139.674;-12818.425;161;100;105.0;53;53.1;20;19.9;29.3;-1.0;
13/06/2019 20:44:13;117;0;130.55;17;28.95;13.67;75.6;11.60;69405;5139.674;-12818.425;161;100;105.0;53;53.2;10;9.9;29.3;-1.0;
13/06/2019 20:44:33;117;0;136.32;17;30.07;7.69;72.5;11.50;69405;5139.674;-12818.425;161;100;106.9;53;53.2;10;9.5;29.3;-1.0;
13/06/2019 20:44:53;117;0;136.79;17;29.65;7.93;69.3;11.50;69410;5139.674;-12818.425;161;100;105.0;53;53.2;13;13.5;29.3;-1.0;
13/06/2019 20:45:13;117;0;136.83;17;29.16;10.22;66.2;11.50;69412;5139.674;-12818.425;161;100;105.0;53;53.1;14;14.0;29.3;-1.0;
13/06/2019 20:45:33;117;0;135.50;17;29.12;9.97;63.2;11.40;69425;5139.674;-12818.425;161;100;105.0;53;53.2;16;15.8;29.3;-1.0;
13/06/2019 20:45:53;117;0;134.33;17;28.14;11.27;60.4;11.40;69421;5139.674;-12818.425;161;100;105.0;53;53.1;17;17.1;29.3;-1.0;
13/06/2019 20:46:13;117;0;141.23;17;28.32;12.13;58.0;11.40;69432;5139.674;-12818.425;161;100;106.9;53;53.2;12;11.7;29.3;-1.0;
13/06/2019 20:46:33;117;0;154.00;17;28.15;8.82;55.7;11.40;69428;5139.674;-12818.425;161;100;105.0;53;53.2;12;11.3;29.3;-1.0;
13/06/2019 20:46:53;117;0;160.46;17;27.61;8.63;53.3;11.30;69435;5139.674;-12818.425;161;100;106.9;53;53.1;5;5.0;29.3;-1.0;
13/06/2019 20:47:13;117;0;163.43;17;27.31;5.30;50.8;11.30;69439;5139.674;-12818.425;161;100;106.9;53;53.2;5;4.5;29.3;-1.0;
13/06/2019 20:47:33;117;0;164.28;17;27.60;5.43;48.5;11.30;69453;5139.674;-12818.425;161;100;106.9;53;53.2;6;6.3;29.3;-1.0;
13/06/2019 20:47:53;117;0;165.66;17;27.56;6.61;46.1;11.30;69455;5139.674;-12818.425;161;100;108.9;53;53.2;6;6.8;29.3;-1.0;
13/06/2019 20:48:13;117;0;169.24;17;27.78;6.74;43.7;11.30;69469;5139.674;-12818.425;161;100;106.9;53;53.1;4;4.1;29.3;-1.0;
13/06/2019 20:48:33;117;0;169.66;17;27.60;4.86;41.0;11.30;69477;5139.674;-12818.425;161;100;106.9;53;53.2;4;3.6;29.3;-1.0;
13/06/2019 20:48:53;117;0;172.69;17;27.11;4.78;38.4;11.30;69485;5139.674;-12818.425;161;100;106.9;53;53.1;3;2.7;29.3;-1.0;
13/06/2019 20:49:13;117;0;177.78;17;27.11;4.25;35.8;11.30;69492;5139.674;-12818.425;161;100;106.9;53;53.2;0;0.0;29.3;-1.0;
13/06/2019 20:49:33;117;0;181.18;17;27.31;2.69;33.4;11.30;69504;5139.674;-12818.425;161;100;106.9;53;53.1;-1;-0.9;29.3;-1.0;
13/06/2019 20:49:53;117;0;185.60;17;27.15;2.40;31.1;11.30;69515;5139.674;-12818.425;161;100;106.9;53;53.1;-2;-1.8;29.3;-1.0;
13/06/2019 20:50:13;117;0;188.10;17;26.94;1.88;28.7;11.30;69521;5139.674;-12818.425;161;100;106.9;53;53.1;-3;-3.2;29.3;-1.0;
13/06/2019 20:50:33;117;0;195.09;17;25.52;1.28;26.4;11.30;69546;5139.674;-12818.425;161;100;106.9;53;53.2;-8;-8.1;29.3;-1.0;
13/06/2019 20:50:53;117;0;197.57;17;26.81;-1.14;24.4;11.30;69574;5139.674;-12818.425;161;100;106.9;53;53.2;-9;-9.0;29.3;-1.0;
13/06/2019 20:51:13;117;0;192.34;17;25.72;-1.84;22.2;11.30;69605;5139.674;-12818.425;161;100;106.9;53;53.2;-7;-7.2;29.3;-1.0;
13/06/2019 20:51:33;117;0;186.28;17;25.60;-0.11;20.1;11.30;69638;5139.674;-12818.425;161;100;106.9;53;53.2;-4;-3.6;29.3;-1.0;
13/06/2019 20:51:53;117;0;186.75;17;25.49;1.88;18.1;11.30;69681;5139.674;-12818.425;161;100;106.9;53;53.2;-6;-5.9;29.3;-1.0;
13/06/2019 20:52:13;117;0;183.46;17;26.08;-0.15;16.1;11.30;69705;5139.674;-12818.425;161;100;106.9;53;53.2;-5;-5.0;29.3;-1.0;
13/06/2019 20:52:33;117;0;184.79;17;24.59;1.10;13.9;11.40;69736;5139.674;-12818.425;161;100;106.9;53;53.2;-7;-7.2;29.3;-1.0;
13/06/2019 20:52:53;117;0;183.20;17;25.53;-0.94;11.9;11.40;69761;5139.674;-12818.425;161;100;105.0;53;53.2;-8;-8.6;29.3;-1.0;
