Timestamp;NavState;SecurityLevel;Heading;Declination;Pitch;Roll;Depth;Temperature;Pa;Lat;Lon;DesiredH;BallastCmd;BallastPos;LinCmd;LinPos;AngCmd;AngPos;Voltage;Altitude;
15/06/2019 22:20:22;117;0;263.90;17;15.64;4.93;8.6;10.40;69485;5122.995;-12838.476;294;150;156.4;57;57.1;3;3.6;28.8;-1.0;
15/06/2019 22:20:32;115;0;263.82;17;16.20;5.00;7.8;10.40;69494;5122.995;-12838.476;294;500;168.3;100;100.1;0;-0.9;28.8;-1.0;
15/06/2019 22:20:42;115;0;272.73;17;-24.76;3.85;7.2;10.40;69408;5122.995;-12838.476;294;500;318.8;100;100.0;0;-0.9;28.5;-1.0;
15/06/2019 22:20:52;115;0;285.17;17;-64.52;2.58;8.0;10.40;69213;5122.995;-12838.476;294;500;469.3;100;100.0;0;-0.5;28.5;-1.0;
15/06/2019 22:21:02;115;0;264.02;17;-58.61;2.39;6.9;10.50;68968;5122.995;-12838.476;294;500;505.0;100;100.0;0;-0.9;28.5;-1.0;
15/06/2019 22:21:12;115;0;259.50;17;-28.12;3.87;4.2;10.50;68929;5122.995;-12838.476;294;500;506.9;100;100.0;0;-0.9;28.8;-1.0;
15/06/2019 22:21:22;116;0;211.86;17;-66.69;7.55;1.5;10.50;68940;5122.995;-12838.476;294;500;506.9;100;100.0;0;-0.9;28.8;-1.0;
15/06/2019 22:21:42;116;0;175.33;17;-8.52;1.34;1.2;10.60;68977;5122.665;-12839.738;294;500;506.9;100;100.0;0;-0.9;28.8;-1.0;
15/06/2019 22:22:02;116;0;166.83;17;-5.92;2.13;1.3;10.70;69006;5122.662;-12839.739;294;500;506.9;100;99.9;0;-0.5;28.8;-1.0;
15/06/2019 22:22:22;116;0;164.30;17;-8.32;2.11;1.3;10.80;69025;5122.661;-12839.739;294;500;508.9;100;99.9;0;-0.9;28.8;-1.0;
15/06/2019 22:22:42;116;0;165.24;17;-6.01;-0.21;1.3;10.90;69050;5122.658;-12839.739;313;500;508.9;100;99.9;0;-0.9;28.8;-1.0;
15/06/2019 22:23:02;116;0;168.44;17;-8.45;4.27;1.3;11.10;69068;5122.643;-12839.740;313;500;508.9;100;99.9;0;-0.5;28.8;-1.0;
15/06/2019 22:24:18;116;0;161.81;17;-17.60;2.17;1.4;11.60;69110;5122.643;-12839.741;313;500;508.9;100;100.0;0;-0.9;28.8;-1.0;
15/06/2019 22:24:38;116;0;160.22;17;-10.25;5.24;1.3;11.80;69118;5122.641;-12839.740;313;500;508.9;100;99.9;0;-0.9;28.8;-1.0;
15/06/2019 22:24:58;116;0;173.81;17;-6.12;3.01;1.3;12.00;69126;5122.638;-12839.736;313;500;508.9;100;100.0;0;-0.9;28.8;-1.0;
15/06/2019 22:25:33;116;0;168.63;17;-6.94;4.25;1.3;12.20;69137;5122.638;-12839.736;313;500;508.9;100;100.0;0;-0.9;28.8;-1.0;
15/06/2019 22:25:53;116;0;162.06;17;-5.70;3.66;1.3;12.40;69144;5122.652;-12839.739;313;500;508.9;100;99.9;0;-0.9;28.8;-1.0;
15/06/2019 22:26:13;116;0;164.07;17;-11.44;2.23;1.4;12.50;69164;5122.666;-12839.804;313;500;508.9;100;99.9;0;-0.9;28.8;-1.0;
15/06/2019 22:26:33;116;0;173.23;17;-8.17;1.84;1.3;12.70;69166;5122.590;-12839.741;313;500;506.9;100;99.9;0;-0.9;28.8;-1.0;
15/06/2019 22:31:16;116;0;171.76;17;-15.09;2.35;1.4;14.00;69258;5122.589;-12839.741;313;500;508.9;100;100.0;0;-0.9;28.8;-1.0;
15/06/2019 22:31:36;116;0;169.82;17;-7.42;2.90;1.2;14.00;69263;5122.587;-12839.742;313;500;508.9;100;99.9;0;-0.9;28.8;-1.0;
15/06/2019 22:31:56;116;0;173.78;17;-6.91;-1.21;1.3;14.10;69266;5122.585;-12839.740;313;500;508.9;100;99.9;0;-0.9;28.8;-1.0;
15/06/2019 22:32:16;116;0;167.54;17;-10.19;5.43;1.4;14.20;69270;5122.578;-12839.737;313;500;506.9;100;100.0;0;-0.9;28.8;-1.0;
15/06/2019 22:32:52;116;0;171.67;17;-7.54;1.01;1.3;14.30;69268;5122.577;-12839.737;313;500;508.9;100;99.9;0;-0.9;28.8;-1.0;
15/06/2019 22:33:12;116;0;177.19;17;-6.58;4.25;1.4;14.40;69285;5122.575;-12839.738;313;500;508.9;100;99.9;0;-0.9;28.8;-1.0;
15/06/2019 22:33:32;116;0;166.22;17;-5.97;-0.86;1.3;14.50;69280;5122.563;-12839.742;313;500;506.9;100;99.9;0;-0.9;28.8;-1.0;
15/06/2019 22:34:50;116;0;166.40;17;-6.48;2.89;1.3;15.00;69295;5122.563;-12839.742;313;500;508.9;100;100.0;0;-0.9;28.8;-1.0;
15/06/2019 22:35:10;116;0;173.19;17;-5.88;1.60;1.3;15.10;69293;5122.560;-12839.741;313;500;508.9;100;99.9;0;-0.9;28.8;-1.0;
15/06/2019 22:35:30;116;0;159.79;17;-8.78;4.01;1.3;15.20;69307;5122.558;-12839.741;313;500;506.9;100;100.0;0;-0.9;28.8;-1.0;
15/06/2019 22:35:50;116;0;159.63;17;-8.84;1.95;1.3;15.20;69304;5122.557;-12839.740;313;500;508.9;100;99.9;0;-0.9;28.9;-1.0;
15/06/2019 22:36:10;110;0;176.08;17;-6.32;2.94;1.2;15.30;69296;5122.557;-12839.740;313;-300;405.9;100;99.9;0;-0.9;28.8;-1.0;
15/06/2019 22:36:20;110;0;164.63;17;-7.10;-0.67;1.4;15.30;69550;5122.557;-12839.740;313;-300;261.4;100;99.9;0;-0.9;28.7;-1.0;
15/06/2019 22:36:30;110;0;158.77;17;-10.15;3.23;1.3;15.30;69739;5122.557;-12839.740;313;-300;122.8;100;99.9;0;-0.9;28.7;-1.0;
15/06/2019 22:36:40;110;0;160.49;17;-5.66;0.68;1.3;15.30;69970;5122.557;-12839.740;313;-300;-15.8;100;99.9;0;-0.9;28.7;-1.0;
15/06/2019 22:36:50;110;0;157.56;17;-11.81;5.50;1.3;15.30;70200;5122.557;-12839.740;313;-300;-164.4;99;98.8;0;-0.5;28.7;-1.0;
15/06/2019 22:37:00;110;0;156.02;17;-32.99;3.39;1.9;15.30;70448;5122.557;-12839.740;313;-300;-301.0;85;84.8;0;-0.9;28.8;-1.0;
15/06/2019 22:37:10;110;0;165.81;17;-46.91;2.84;4.0;15.30;70659;5122.557;-12839.740;313;-300;-303.0;73;73.0;0;-0.9;28.8;-1.0;
15/06/2019 22:37:20;100;0;174.79;17;-38.91;3.63;6.9;15.30;70631;5122.557;-12839.740;313;-300;-301.0;73;73.0;0;-0.9;28.8;-1.0;
15/06/2019 22:37:40;100;0;170.09;17;-28.08;3.37;12.0;15.30;70602;5122.557;-12839.740;313;-300;-301.0;73;72.9;-45;-45.1;28.8;0.0;
15/06/2019 22:38:00;100;0;168.81;17;-28.23;-17.70;17.0;15.20;70565;5122.557;-12839.740;313;-300;-301.0;73;72.9;-45;-45.6;28.8;0.0;
15/06/2019 22:38:20;100;0;170.63;17;-28.36;-17.87;21.9;15.20;70534;5122.557;-12839.740;313;-300;-299.0;73;72.9;-45;-45.6;28.8;0.0;
15/06/2019 22:38:40;100;0;185.30;17;-26.73;-18.10;26.8;15.10;70505;5122.557;-12839.740;313;-300;-301.0;73;72.9;-36;-35.6;28.8;0.0;
15/06/2019 22:39:00;100;0;186.35;17;-25.89;-12.54;31.1;15.10;70449;5122.557;-12839.740;313;-300;-299.0;73;72.9;-36;-35.2;28.8;0.0;
15/06/2019 22:39:20;100;0;182.00;17;-26.99;-12.55;35.1;15.00;70395;5122.557;-12839.740;313;-300;-299.0;73;72.9;-38;-37.9;28.8;0.0;
15/06/2019 22:39:40;100;0;186.61;17;-25.32;-14.39;39.3;14.90;70334;5122.557;-12839.740;313;-300;-299.0;73;72.7;-35;-34.7;28.8;0.0;
15/06/2019 22:40:00;100;0;196.03;17;-25.89;-12.08;43.1;14.80;70292;5122.557;-12839.740;313;-300;-301.0;73;72.9;-30;-29.3;28.8;0.0;
15/06/2019 22:40:20;100;0;192.41;17;-26.03;-9.47;47.0;14.80;70259;5122.557;-12839.740;313;-300;-299.0;73;72.9;-34;-33.8;28.8;0.0;
15/06/2019 22:40:40;100;0;188.42;17;-25.99;-12.26;51.1;14.70;70236;5122.557;-12839.740;313;-300;-299.0;73;72.9;-37;-37.0;28.8;0.0;
15/06/2019 22:41:00;100;0;187.81;17;-25.60;-13.76;55.1;14.60;70203;5122.557;-12839.740;313;-300;-299.0;73;72.9;-37;-37.5;28.8;0.0;
15/06/2019 22:41:20;100;0;191.13;17;-25.74;-13.82;59.1;14.50;70189;5122.557;-12839.740;313;-300;-299.0;73;72.9;-34;-33.8;28.9;0.0;
15/06/2019 22:41:40;100;0;196.05;17;-25.49;-11.77;63.1;14.40;70165;5122.557;-12839.740;313;-300;-299.0;73;72.9;-32;-32.0;28.8;0.0;
15/06/2019 22:42:00;100;0;198.43;17;-25.25;-10.80;67.0;14.30;70155;5122.557;-12839.740;313;-300;-297.0;73;72.9;-32;-31.1;28.8;0.0;
15/06/2019 22:42:20;100;0;197.42;17;-25.04;-10.97;70.9;14.30;70137;5122.557;-12839.740;313;-300;-299.0;73;72.9;-34;-33.8;28.8;0.0;
15/06/2019 22:42:40;100;0;195.37;17;-25.51;-12.32;74.8;14.20;70131;5122.557;-12839.740;313;-300;-301.0;73;72.9;-35;-35.2;28.8;0.0;
15/06/2019 22:43:00;100;0;200.76;17;-25.09;-13.04;78.5;14.10;70118;5122.557;-12839.740;313;-300;-299.0;73;72.9;-32;-32.0;28.7;0.0;
15/06/2019 22:43:20;100;0;208.38;17;-24.86;-11.01;82.1;14.00;70102;5122.557;-12839.740;313;-300;-299.0;73;72.9;-28;-28.0;28.8;0.0;
15/06/2019 22:43:40;100;0;202.88;17;-25.80;-9.37;85.8;13.90;70069;5122.557;-12839.740;313;-300;-299.0;73;72.9;-33;-33.4;28.8;0.0;
15/06/2019 22:44:00;100;0;199.42;17;-25.33;-12.08;89.4;13.90;70055;5122.557;-12839.740;313;-300;-299.0;73;72.9;-35;-35.6;28.8;0.0;
15/06/2019 22:44:20;100;0;193.07;17;-25.43;-13.09;92.9;13.80;70043;5122.557;-12839.740;313;-300;-299.0;73;72.9;-38;-37.9;28.8;0.0;
15/06/2019 22:44:40;100;0;198.80;17;-24.12;-14.41;96.8;13.70;70022;5122.557;-12839.740;313;-300;-299.0;73;72.9;-33;-32.5;28.8;0.0;
15/06/2019 22:45:00;100;0;212.38;17;-23.47;-11.40;100.1;13.60;70005;5122.557;-12839.740;313;-300;-299.0;73;72.9;-26;-26.2;28.8;0.0;
15/06/2019 22:45:20;100;0;224.25;17;-23.62;-8.43;103.3;13.60;69985;5122.557;-12839.740;313;-300;-299.0;73;72.9;-21;-20.8;28.8;0.0;
15/06/2019 22:45:40;100;0;232.92;17;-22.70;-5.96;106.6;13.50;69973;5122.557;-12839.740;313;-300;-299.0;73;72.9;-20;-19.9;28.8;0.0;
15/06/2019 22:46:00;100;0;241.82;17;-22.42;-5.19;109.5;13.40;69950;5122.557;-12839.740;313;-300;-299.0;73;72.9;-19;-19.0;28.8;0.0;
15/06/2019 22:46:20;100;0;254.06;17;-22.71;-5.29;112.3;13.30;69938;5122.557;-12839.740;313;-300;-297.0;73;72.9;-14;-14.0;28.8;0.0;
15/06/2019 22:46:40;100;0;259.64;17;-21.74;-2.62;115.2;13.20;69927;5122.557;-12839.740;313;-300;-297.0;73;72.9;-16;-15.8;28.8;0.0;
15/06/2019 22:47:00;100;0;263.23;17;-21.57;-4.06;117.8;13.20;69916;5122.557;-12839.740;313;-300;-297.0;73;72.7;-16;-16.2;28.8;0.0;
15/06/2019 22:47:20;100;0;259.79;17;-22.01;-3.94;120.5;13.10;69898;5122.557;-12839.740;313;-300;-297.0;73;72.9;-21;-21.7;28.8;0.0;
15/06/2019 22:47:40;100;0;264.58;17;-20.78;-6.68;123.4;13.00;69883;5122.557;-12839.740;313;-300;-297.0;73;72.9;-18;-17.6;28.8;0.0;
15/06/2019 22:48:00;100;0;267.77;17;-20.35;-4.37;125.9;13.00;69876;5122.557;-12839.740;313;-300;-297.0;73;72.9;-18;-17.1;28.8;0.0;
15/06/2019 22:48:20;100;0;260.23;17;-20.67;-4.30;128.6;12.90;69851;5122.557;-12839.740;313;-300;-297.0;73;72.9;-23;-23.0;28.8;0.0;
15/06/2019 22:48:40;100;0;261.66;17;-19.80;-7.27;131.5;12.80;69837;5122.557;-12839.740;313;-300;-297.0;73;72.7;-22;-22.1;28.8;0.0;
15/06/2019 22:49:00;100;0;256.47;17;-20.30;-6.58;134.0;12.70;69812;5122.557;-12839.740;313;-300;-297.0;73;72.7;-24;-23.9;28.8;0.0;
15/06/2019 22:49:20;100;0;253.72;17;-20.30;-7.85;136.5;12.70;69817;5122.557;-12839.740;313;-300;-297.0;73;72.7;-25;-24.8;28.8;0.0;
15/06/2019 22:49:40;100;0;249.62;17;-20.36;-8.49;139.1;12.60;69796;5122.557;-12839.740;313;-300;-297.0;73;72.9;-26;-26.2;28.8;0.0;
15/06/2019 22:50:00;100;0;255.37;17;-20.22;-9.05;141.6;12.50;69791;5122.557;-12839.740;313;-300;-297.0;73;72.9;-22;-22.1;28.8;0.0;
15/06/2019 22:50:20;100;0;259.26;17;-20.24;-6.35;143.9;12.50;69794;5122.557;-12839.740;313;-300;-297.0;73;72.9;-20;-19.9;28.8;0.0;
15/06/2019 22:50:40;100;0;259.64;17;-20.23;-5.51;146.2;12.40;69782;5122.557;-12839.740;313;-300;-297.0;73;72.9;-21;-21.2;28.8;0.0;
15/06/2019 22:51:00;100;0;257.87;17;-19.87;-6.56;148.6;12.40;69774;5122.557;-12839.740;313;-300;-297.0;73;72.9;-22;-22.1;28.8;0.0;
15/06/2019 22:51:20;100;0;258.29;17;-19.58;-7.09;150.9;12.30;69758;5122.557;-12839.740;313;-300;-297.0;73;72.9;-22;-22.6;28.8;0.0;
15/06/2019 22:51:40;100;0;264.12;17;-19.51;-7.22;153.1;12.20;69747;5122.557;-12839.740;313;-300;-297.0;73;72.7;-18;-18.1;28.8;0.0;
15/06/2019 22:52:00;100;0;263.15;17;-19.65;-4.58;155.2;12.20;69741;5122.557;-12839.740;313;-300;-297.0;73;72.7;-20;-20.3;28.8;0.0;
15/06/2019 22:52:21;100;0;264.10;17;-19.50;-6.18;157.3;12.10;69731;5122.557;-12839.740;313;-300;-297.0;73;72.9;-20;-20.8;28.8;0.0;
15/06/2019 22:52:41;100;0;265.25;17;-19.73;-6.18;159.5;12.10;69731;5122.557;-12839.740;313;-300;-299.0;73;72.9;-20;-20.8;28.8;0.0;
15/06/2019 22:53:01;100;0;263.19;17;-19.53;-6.14;161.5;12.00;69722;5122.557;-12839.740;313;-300;-297.0;73;72.9;-21;-21.2;28.9;0.0;
15/06/2019 22:53:21;100;0;263.31;17;-19.73;-6.72;163.6;11.90;69703;5122.557;-12839.740;313;-300;-297.0;73;72.7;-21;-21.7;28.8;0.0;
15/06/2019 22:53:41;100;0;263.43;17;-19.20;-6.66;165.7;11.90;69689;5122.557;-12839.740;313;-300;-297.0;73;72.9;-21;-21.7;28.8;0.0;
15/06/2019 22:54:01;100;0;264.85;17;-18.70;-6.64;167.9;11.80;69683;5122.557;-12839.740;313;-300;-297.0;73;72.7;-20;-19.9;28.9;0.0;
15/06/2019 22:54:21;100;0;263.46;17;-18.81;-5.54;170.1;11.70;69676;5122.557;-12839.740;313;-300;-297.0;73;72.9;-21;-21.2;28.8;0.0;
15/06/2019 22:54:41;100;0;263.28;17;-18.91;-6.59;172.3;11.70;69659;5122.557;-12839.740;313;-300;-297.0;73;72.9;-21;-21.7;28.8;44.3;
15/06/2019 22:55:01;100;0;263.58;17;-18.95;-6.58;174.3;11.60;69658;5122.557;-12839.740;313;-300;-299.0;73;72.9;-21;-21.7;28.8;42.1;
15/06/2019 22:55:21;100;0;265.05;17;-18.90;-6.85;176.5;11.60;69653;5122.557;-12839.740;313;-300;-297.0;73;72.7;-20;-19.9;28.9;39.9;
15/06/2019 22:55:41;100;0;271.02;17;-19.22;-5.62;178.5;11.50;69646;5122.557;-12839.740;313;-300;-297.0;73;72.9;-17;-17.1;28.8;37.9;
15/06/2019 22:56:01;100;0;271.51;17;-18.82;-4.90;180.4;11.40;69628;5122.557;-12839.740;313;-300;-295.0;73;72.7;-18;-18.1;28.8;35.8;
15/06/2019 22:56:21;100;0;276.80;17;-18.54;-5.29;182.3;11.40;69622;5122.557;-12839.740;313;-300;-297.0;73;72.7;-16;-15.8;28.8;33.9;
15/06/2019 22:56:41;100;0;279.01;17;-19.46;-3.60;184.3;11.30;69608;5122.557;-12839.740;313;-300;-297.0;73;72.9;-15;-14.9;28.8;31.9;
15/06/2019 22:57:01;100;0;280.96;17;-19.07;-3.41;186.2;11.30;69607;5122.557;-12839.740;313;-300;-297.0;73;72.7;-16;-15.8;28.8;29.8;
15/06/2019 22:57:21;100;0;283.24;17;-18.36;-4.33;188.2;11.20;69591;5122.557;-12839.740;313;-300;-297.0;73;72.9;-15;-14.4;28.8;27.7;
15/06/2019 22:57:41;100;0;282.65;17;-18.78;-2.91;190.3;11.20;69589;5122.557;-12839.740;313;-300;-297.0;73;72.7;-17;-17.1;28.8;25.5;
15/06/2019 22:58:01;100;0;285.77;17;-19.15;-4.65;192.4;11.10;69579;5122.557;-12839.740;313;-300;-297.0;73;72.7;-15;-14.9;28.8;23.5;
15/06/2019 22:58:21;100;0;286.81;17;-17.92;-3.08;194.3;11.00;69572;5122.557;-12839.740;313;-300;-297.0;73;72.9;-15;-14.0;28.9;21.5;
15/06/2019 22:58:41;100;0;286.76;17;-18.45;-2.91;196.3;11.00;69567;5122.557;-12839.740;313;-300;-297.0;73;72.9;-16;-15.8;28.8;19.5;
15/06/2019 22:59:01;118;0;290.11;17;-18.15;-4.27;198.2;11.00;69562;5122.557;-12839.740;313;150;-283.2;57;56.8;0;0.9;28.8;17.5;
15/06/2019 22:59:11;118;0;347.47;17;2.35;3.91;199.0;10.90;69474;5122.557;-12839.740;313;150;-126.7;57;57.1;0;0.5;28.2;17.5;
15/06/2019 22:59:21;118;0;333.72;17;19.42;3.55;198.7;10.90;69268;5122.557;-12839.740;313;150;29.7;57;57.1;0;0.9;28.2;-1.0;
15/06/2019 22:59:31;118;0;307.73;17;23.10;4.14;197.8;10.90;69011;5122.557;-12839.740;313;150;154.5;57;57.1;0;0.9;28.2;-1.0;
15/06/2019 22:59:41;118;0;267.87;17;25.75;3.70;196.6;10.90;68834;5122.557;-12839.740;313;150;156.4;57;57.1;0;0.9;28.8;-1.0;
15/06/2019 22:59:51;118;0;266.97;17;27.99;3.50;195.0;10.80;68823;5122.557;-12839.740;313;150;156.4;57;57.1;0;0.9;28.8;-1.0;
15/06/2019 23:00:01;117;0;263.68;17;28.36;3.72;192.9;10.80;68821;5122.557;-12839.740;313;150;156.4;57;57.1;0;0.9;28.8;-1.0;
15/06/2019 23:00:21;117;0;255.02;17;28.62;4.16;188.8;10.80;68816;5122.557;-12839.740;313;150;156.4;57;56.9;34;33.8;28.8;-1.0;
15/06/2019 23:00:41;117;0;263.06;17;27.94;20.15;183.8;10.70;68819;5122.557;-12839.740;313;150;156.4;57;57.1;24;23.9;28.8;-1.0;
15/06/2019 23:01:01;117;0;263.23;17;28.78;13.94;179.3;10.70;68806;5122.557;-12839.740;313;150;156.4;57;57.1;22;22.1;28.8;-1.0;
15/06/2019 23:01:21;117;0;264.80;17;28.98;13.97;174.6;10.60;68815;5122.557;-12839.740;313;150;156.4;57;57.1;21;21.2;28.8;-1.0;
15/06/2019 23:01:41;117;0;271.71;17;27.52;13.01;170.1;10.60;68820;5122.557;-12839.740;313;150;156.4;57;57.1;17;16.7;28.8;-1.0;
15/06/2019 23:02:01;117;0;273.58;17;27.28;10.79;165.9;10.50;68834;5122.557;-12839.740;313;150;156.4;57;57.1;17;16.2;28.9;-1.0;
15/06/2019 23:02:21;117;0;282.12;17;27.27;11.02;161.8;10.50;68822;5122.557;-12839.740;313;150;156.4;57;57.1;13;12.6;28.8;-1.0;
15/06/2019 23:02:41;117;0;288.78;17;27.27;8.80;157.6;10.50;68839;5122.557;-12839.740;313;150;156.4;57;57.1;12;12.2;28.8;-1.0;
15/06/2019 23:03:01;117;0;295.34;17;27.38;8.80;153.4;10.40;68844;5122.557;-12839.740;313;150;156.4;57;57.1;12;12.2;28.8;-1.0;
15/06/2019 23:03:21;117;0;297.33;17;26.77;8.82;149.0;10.40;68857;5122.557;-12839.740;313;150;156.4;57;57.1;12;12.2;28.9;-1.0;
15/06/2019 23:03:41;117;0;302.00;17;26.82;8.92;145.0;10.40;68855;5122.557;-12839.740;313;150;158.4;57;56.9;10;9.5;28.8;-1.0;
15/06/2019 23:04:01;117;0;300.73;17;26.96;7.56;140.8;10.30;68862;5122.557;-12839.740;313;150;158.4;57;57.1;12;12.6;28.8;-1.0;
15/06/2019 23:04:21;117;0;306.61;17;26.08;9.32;136.8;10.30;68869;5122.557;-12839.740;313;150;158.4;57;57.1;9;9.0;28.8;-1.0;
15/06/2019 23:04:41;117;0;314.12;17;25.41;6.93;133.2;10.30;68872;5122.557;-12839.740;313;150;158.4;57;57.1;5;5.0;28.8;-1.0;
15/06/2019 23:05:01;117;0;311.90;17;25.95;5.13;129.5;10.30;68883;5122.557;-12839.740;313;150;156.4;57;57.1;8;8.1;28.8;-1.0;
15/06/2019 23:05:21;117;0;312.01;17;25.38;7.08;125.9;10.30;68876;5122.557;-12839.740;313;150;156.4;57;57.1;8;8.6;28.8;-1.0;
15/06/2019 23:05:41;117;0;307.66;17;25.12;7.48;122.3;10.20;68876;5122.557;-12839.740;313;150;158.4;57;57.1;11;10.8;28.8;-1.0;
15/06/2019 23:06:01;117;0;306.03;17;24.36;8.50;118.9;10.20;68895;5122.557;-12839.740;313;150;158.4;57;57.1;10;9.9;28.8;-1.0;
15/06/2019 23:06:21;117;0;308.75;17;24.58;7.65;115.6;10.20;68896;5122.557;-12839.740;313;150;156.4;57;57.1;8;8.1;28.8;-1.0;
15/06/2019 23:06:41;117;0;313.13;17;24.38;6.87;112.3;10.20;68910;5122.557;-12839.740;313;150;156.4;57;57.1;5;5.0;28.8;-1.0;
15/06/2019 23:07:01;117;0;306.43;17;24.50;5.23;108.8;10.20;68908;5122.557;-12839.740;313;150;156.4;57;57.1;9;9.5;28.8;-1.0;
15/06/2019 23:07:21;117;0;303.44;17;24.26;8.04;105.4;10.20;68922;5122.557;-12839.740;313;150;156.4;57;57.1;10;9.9;28.8;-1.0;
15/06/2019 23:07:41;117;0;309.60;17;23.38;7.95;102.2;10.20;68934;5122.557;-12839.740;313;150;156.4;57;57.1;5;5.0;28.8;-1.0;
15/06/2019 23:08:01;117;0;310.05;17;22.68;5.28;99.0;10.20;68933;5122.557;-12839.740;313;150;156.4;57;57.1;4;4.1;28.8;-1.0;
15/06/2019 23:08:21;117;0;311.27;17;21.92;4.60;96.0;10.20;68947;5122.557;-12839.740;313;150;156.4;57;57.1;4;3.6;28.8;-1.0;
15/06/2019 23:08:41;117;0;314.53;17;21.45;4.49;93.2;10.20;68953;5122.557;-12839.740;313;150;158.4;57;57.1;2;1.8;28.8;-1.0;
15/06/2019 23:09:01;117;0;312.11;17;21.18;3.52;90.5;10.10;68973;5122.557;-12839.740;313;150;158.4;57;57.1;3;3.6;28.8;-1.0;
15/06/2019 23:09:21;117;0;311.63;17;19.72;5.05;88.1;10.10;68982;5122.557;-12839.740;313;150;156.4;57;57.1;3;4.1;28.8;-1.0;
15/06/2019 23:09:41;117;0;311.78;17;20.15;4.85;85.9;10.20;68987;5122.557;-12839.740;313;150;156.4;57;57.1;2;1.8;28.8;-1.0;
15/06/2019 23:10:01;117;0;315.56;17;19.41;3.59;83.9;10.20;68998;5122.557;-12839.740;313;150;156.4;57;57.1;0;0.0;28.8;-1.0;
15/06/2019 23:10:21;117;0;316.67;17;19.80;2.80;81.8;10.20;68998;5122.557;-12839.740;313;150;156.4;57;57.1;0;-0.5;28.8;-1.0;
15/06/2019 23:10:41;117;0;322.73;17;19.95;2.82;80.0;10.10;69002;5122.557;-12839.740;313;150;156.4;57;56.9;-4;-4.1;28.8;-1.0;
15/06/2019 23:11:01;117;0;328.48;17;19.49;0.90;77.8;10.10;69013;5122.557;-12839.740;313;150;158.4;57;57.1;-6;-5.9;28.8;-1.0;
15/06/2019 23:11:21;117;0;328.72;17;19.33;0.08;75.8;10.20;69036;5122.557;-12839.740;313;150;156.4;57;57.1;-5;-5.0;28.8;-1.0;
15/06/2019 23:11:41;117;0;325.05;17;18.92;1.26;73.7;10.20;69042;5122.557;-12839.740;313;150;156.4;57;57.1;-3;-2.7;28.8;-1.0;
15/06/2019 23:12:01;117;0;322.38;17;18.86;2.11;71.7;10.20;69053;5122.557;-12839.740;313;150;156.4;57;57.1;-2;-1.4;28.8;-1.0;
15/06/2019 23:12:21;117;0;320.95;17;19.35;2.85;69.7;10.20;69059;5122.557;-12839.740;313;150;156.4;57;57.1;-2;-0.9;28.8;-1.0;
15/06/2019 23:12:41;117;0;319.71;17;19.23;2.93;67.7;10.20;69075;5122.557;-12839.740;313;150;156.4;57;57.1;-3;-3.6;28.8;-1.0;
15/06/2019 23:13:01;117;0;321.81;17;19.38;1.39;65.5;10.20;69085;5122.557;-12839.740;313;150;156.4;57;57.1;-5;-5.0;28.8;-1.0;
15/06/2019 23:13:21;117;0;319.58;17;19.21;0.48;63.4;10.20;69089;5122.557;-12839.740;313;150;156.4;57;56.9;-4;-4.1;28.8;-1.0;
15/06/2019 23:13:41;117;0;316.79;17;19.11;1.69;61.4;10.20;69097;5122.557;-12839.740;313;150;156.4;57;57.1;-4;-3.2;28.8;-1.0;
15/06/2019 23:14:01;117;0;317.42;17;19.03;1.74;59.4;10.20;69100;5122.557;-12839.740;313;150;156.4;57;57.1;-5;-5.0;28.8;-1.0;
15/06/2019 23:14:21;117;0;316.57;17;19.03;0.54;57.3;10.20;69108;5122.557;-12839.740;313;150;158.4;57;57.1;-6;-5.9;28.8;-1.0;
15/06/2019 23:14:41;117;0;313.98;17;18.96;0.16;55.3;10.20;69107;5122.557;-12839.740;313;150;158.4;57;57.1;-5;-5.0;28.8;-1.0;
15/06/2019 23:15:01;117;0;313.89;17;19.13;1.10;53.3;10.30;69122;5122.557;-12839.740;313;150;156.4;57;57.1;-6;-6.3;28.8;-1.0;
15/06/2019 23:15:21;117;0;311.45;17;18.78;-0.06;51.3;10.30;69122;5122.557;-12839.740;313;150;158.4;57;57.1;-6;-6.8;28.8;-1.0;
15/06/2019 23:15:41;117;0;304.50;17;18.34;-0.54;49.2;10.30;69151;5122.557;-12839.740;313;150;158.4;57;57.1;-3;-3.2;28.8;-1.0;
15/06/2019 23:16:01;117;0;303.76;17;18.45;2.04;47.3;10.30;69156;5122.557;-12839.740;313;150;158.4;57;57.1;-4;-4.1;28.8;-1.0;
15/06/2019 23:16:21;117;0;300.43;17;18.00;0.47;45.3;10.30;69162;5122.557;-12839.740;313;150;156.4;57;57.1;-3;-3.2;28.8;-1.0;
15/06/2019 23:16:41;117;0;300.31;17;18.81;2.18;43.5;10.30;69162;5122.557;-12839.740;313;150;158.4;57;57.1;-5;-5.0;28.8;-1.0;
15/06/2019 23:17:01;117;0;298.64;17;18.18;0.74;41.7;10.30;69167;5122.557;-12839.740;313;150;158.4;57;57.1;-4;-4.1;28.8;-1.0;
15/06/2019 23:17:21;117;0;301.41;17;18.18;1.74;39.6;10.40;69186;5122.557;-12839.740;313;150;156.4;57;56.9;-7;-7.2;28.8;-1.0;
15/06/2019 23:17:41;117;0;293.59;17;18.22;-0.52;37.7;10.40;69179;5122.557;-12839.740;313;150;156.4;57;57.1;-7;-7.2;28.8;-1.0;
15/06/2019 23:18:01;117;0;296.13;17;17.26;-0.38;35.8;10.40;69206;5122.557;-12839.740;313;150;156.4;57;57.1;-7;-7.2;28.8;-1.0;
15/06/2019 23:18:21;117;0;293.30;17;17.24;-0.39;34.0;10.40;69242;5122.557;-12839.740;313;150;158.4;57;57.1;-7;-7.2;28.8;-1.0;
15/06/2019 23:18:41;117;0;293.48;17;17.17;-0.40;32.3;10.40;69254;5122.557;-12839.740;313;150;156.4;57;57.1;-7;-7.7;28.8;-1.0;
15/06/2019 23:19:01;117;0;293.94;17;17.16;-0.33;30.4;10.50;69272;5122.557;-12839.740;313;150;158.4;57;57.1;-7;-7.7;28.8;-1.0;
15/06/2019 23:19:21;117;0;287.06;17;16.36;-0.36;28.7;10.50;69292;5122.557;-12839.740;313;150;156.4;57;57.1;-1;-0.9;28.8;-1.0;
15/06/2019 23:19:41;117;0;282.44;17;16.31;3.14;27.0;10.50;69321;5122.557;-12839.740;313;150;156.4;57;57.1;1;0.9;28.8;-1.0;
15/06/2019 23:20:01;117;0;280.84;17;16.71;4.00;25.2;10.60;69342;5122.557;-12839.740;313;150;156.4;57;57.1;1;1.4;28.8;-1.0;
15/06/2019 23:20:21;117;0;280.06;17;16.46;3.98;23.3;10.60;69359;5122.557;-12839.740;313;150;156.4;57;57.1;0;0.0;28.8;-1.0;
15/06/2019 23:20:41;117;0;270.88;17;16.66;2.78;21.5;10.60;69372;5122.557;-12839.740;313;150;156.4;57;57.1;6;5.9;28.8;-1.0;
15/06/2019 23:21:01;117;0;266.08;17;16.55;6.52;19.7;10.70;69391;5122.557;-12839.740;313;150;156.4;57;57.1;7;7.2;28.9;-1.0;
15/06/2019 23:21:21;117;0;263.45;17;16.37;7.30;18.0;10.70;69406;5122.557;-12839.740;313;150;158.4;57;57.1;7;7.7;28.8;-1.0;
15/06/2019 23:21:41;117;0;263.96;17;16.06;7.37;16.4;10.70;69417;5122.557;-12839.740;313;150;158.4;57;57.1;6;5.4;28.8;-1.0;
15/06/2019 23:22:01;117;0;263.76;17;15.99;5.70;14.7;10.80;69442;5122.557;-12839.740;313;150;158.4;57;57.1;6;5.0;28.8;-1.0;
15/06/2019 23:22:21;117;0;262.68;17;16.14;5.92;13.2;10.80;69455;5122.557;-12839.740;313;150;158.4;57;57.1;7;7.2;28.8;-1.0;
15/06/2019 23:22:41;117;0;267.87;17;16.00;7.48;11.7;10.90;69481;5122.557;-12839.740;313;150;158.4;57;57.1;4;3.6;28.8;-1.0;
15/06/2019 23:23:01;117;0;270.93;17;15.64;5.05;10.1;10.90;69496;5122.557;-12839.740;313;150;158.4;57;57.1;4;3.2;28.9;-1.0;
