Timestamp;NavState;SecurityLevel;Heading;Declination;Pitch;Roll;Depth;Temperature;Pa;Lat;Lon;DesiredH;BallastCmd;BallastPos;LinCmd;LinPos;AngCmd;AngPos;Voltage;Altitude;
15/06/2019 06:32:43;117;0;225.98;17;13.59;1.74;9.4;10.70;69476;5127.411;-12829.130;246;150;158.4;57;57.2;-3;-3.6;29.0;-1.0;
15/06/2019 06:32:53;115;0;228.97;17;13.56;1.78;8.7;10.70;69483;5127.411;-12829.130;246;500;166.3;100;100.4;0;0.9;29.0;-1.0;
15/06/2019 06:33:03;115;0;205.53;17;-28.47;5.07;8.2;10.80;69409;5127.411;-12829.130;246;500;316.8;100;100.0;0;0.9;28.6;-1.0;
15/06/2019 06:33:13;115;0;186.11;17;-66.99;3.67;8.9;10.80;69215;5127.411;-12829.130;246;500;469.3;100;100.0;0;0.9;28.6;-1.0;
15/06/2019 06:33:23;115;0;160.69;17;-60.56;5.91;7.8;10.80;68976;5127.411;-12829.130;246;500;506.9;100;100.0;0;0.9;28.7;-1.0;
15/06/2019 06:33:33;115;0;154.62;17;-39.85;6.17;4.7;10.80;68928;5127.411;-12829.130;246;500;506.9;100;100.0;0;0.9;28.9;-1.0;
15/06/2019 06:33:43;116;0;14.71;17;-76.53;35.40;1.3;10.90;68948;5127.411;-12829.130;246;500;505.0;100;100.0;0;0.9;29.0;-1.0;
15/06/2019 06:34:03;116;0;12.39;17;-18.42;5.83;1.2;11.00;68973;5127.411;-12829.130;246;500;506.9;100;99.9;0;0.9;29.0;-1.0;
15/06/2019 06:34:23;116;0;284.45;17;-13.74;1.52;1.2;11.00;68982;5127.127;-12829.466;246;500;508.9;100;99.7;0;0.9;29.0;-1.0;
15/06/2019 06:34:46;116;0;270.53;17;-6.80;1.28;1.3;11.10;68998;5127.125;-12829.468;246;500;506.9;100;99.9;0;0.9;29.0;-1.0;
15/06/2019 06:35:09;116;0;284.39;17;-17.78;3.74;1.2;11.30;69013;5127.124;-12829.471;246;500;508.9;100;99.7;0;0.9;28.9;-1.0;
15/06/2019 06:35:32;116;0;274.45;17;-15.81;3.23;1.2;11.40;69027;5127.124;-12829.470;246;500;508.9;100;99.9;0;0.9;29.0;-1.0;
15/06/2019 06:35:52;116;0;288.68;17;-26.28;1.99;1.4;11.50;69034;5127.122;-12829.473;248;500;508.9;100;99.9;0;0.9;29.0;-1.0;
15/06/2019 06:36:12;116;0;278.19;17;-24.86;2.56;1.3;11.60;69047;5127.113;-12829.481;248;500;508.9;100;99.9;0;0.9;29.0;-1.0;
15/06/2019 06:37:45;116;0;282.89;17;-4.57;-0.24;1.3;12.30;69086;5127.113;-12829.481;248;500;508.9;100;99.9;0;0.9;28.9;-1.0;
15/06/2019 06:38:05;116;0;299.55;17;-19.42;4.77;1.3;12.50;69094;5127.113;-12829.484;248;500;508.9;100;99.9;0;0.9;29.0;-1.0;
15/06/2019 06:38:25;116;0;288.27;17;-19.56;2.59;1.4;12.60;69100;5127.108;-12829.480;248;500;510.9;100;99.9;0;0.9;29.0;-1.0;
15/06/2019 06:38:45;116;0;271.01;17;-12.09;2.84;1.2;12.70;69102;5127.104;-12829.439;248;500;508.9;100;99.9;0;0.9;29.0;-1.0;
15/06/2019 06:39:05;116;0;278.95;17;-29.95;2.59;1.3;12.80;69105;5127.098;-12829.393;248;500;508.9;100;99.9;0;0.9;29.0;-1.0;
15/06/2019 06:39:25;116;0;293.11;17;-23.69;1.21;1.3;12.90;69117;5127.077;-12829.530;248;500;508.9;100;99.9;0;0.9;29.0;-1.0;
15/06/2019 06:45:01;116;0;270.08;17;-4.70;5.17;1.2;13.80;69181;5127.076;-12829.530;248;500;508.9;100;99.7;0;0.9;29.0;-1.0;
15/06/2019 06:45:21;116;0;287.96;17;-10.16;0.01;1.2;13.80;69179;5127.075;-12829.532;248;500;508.9;100;99.9;0;0.9;28.9;-1.0;
15/06/2019 06:45:41;116;0;275.92;17;-11.77;5.48;1.3;13.80;69182;5127.072;-12829.534;248;500;506.9;100;99.9;0;0.9;29.0;-1.0;
15/06/2019 06:46:01;116;0;280.16;17;-9.28;8.97;1.2;13.90;69190;5127.069;-12829.536;248;500;508.9;100;99.7;0;0.9;29.0;-1.0;
15/06/2019 06:46:21;116;0;285.28;17;-13.96;5.33;1.2;13.90;69195;5127.067;-12829.539;248;500;508.9;100;99.9;0;0.9;29.0;-1.0;
15/06/2019 06:46:41;116;0;285.91;17;-20.67;4.06;1.4;14.00;69200;5127.066;-12829.540;248;500;508.9;100;99.9;0;0.9;29.0;-1.0;
15/06/2019 06:47:01;116;0;260.67;17;-10.08;-0.18;1.2;14.00;69192;5127.065;-12829.540;248;500;508.9;100;99.9;0;0.9;29.0;-1.0;
15/06/2019 06:47:21;116;0;268.12;17;-9.68;1.61;1.2;14.10;69206;5127.062;-12829.543;248;500;508.9;100;99.9;0;0.9;29.0;-1.0;
15/06/2019 06:47:41;116;0;277.45;17;-7.17;2.24;1.2;14.10;69207;5127.059;-12829.544;248;500;508.9;100;99.9;0;0.9;29.0;-1.0;
15/06/2019 06:48:01;116;0;261.57;17;-4.38;5.03;1.2;14.10;69206;5127.057;-12829.547;248;500;508.9;100;99.9;0;0.9;29.0;-1.0;
15/06/2019 06:48:39;116;0;273.31;17;-4.78;5.17;1.2;14.20;69213;5127.058;-12829.546;248;500;508.9;100;99.9;0;0.9;29.0;-1.0;
15/06/2019 06:48:59;116;0;280.54;17;-23.60;3.32;1.3;14.20;69218;5127.051;-12829.549;248;500;510.9;100;99.9;0;0.9;29.0;-1.0;
15/06/2019 06:49:23;116;0;286.31;17;-12.38;7.19;1.3;14.30;69219;5127.051;-12829.549;248;500;510.9;100;99.9;0;0.9;29.0;-1.0;
15/06/2019 06:49:43;116;0;289.32;17;-33.41;1.48;1.6;14.30;69210;5127.049;-12829.551;248;500;508.9;100;99.9;0;0.9;29.0;-1.0;
15/06/2019 06:50:03;110;0;296.95;17;-3.79;4.87;1.2;14.40;69225;5127.049;-12829.551;248;-300;405.9;100;99.7;0;0.5;29.0;-1.0;
15/06/2019 06:50:13;110;0;275.72;17;-15.35;3.58;1.2;14.40;69472;5127.049;-12829.551;248;-300;263.4;100;100.0;0;0.9;28.9;-1.0;
15/06/2019 06:50:23;110;0;267.48;17;-5.01;0.89;1.2;14.40;69657;5127.049;-12829.551;248;-300;124.8;100;99.9;0;0.9;28.9;-1.0;
15/06/2019 06:50:33;110;0;264.45;17;-10.02;5.12;1.2;14.40;69883;5127.049;-12829.551;248;-300;-11.9;100;99.9;0;0.9;28.9;-1.0;
15/06/2019 06:50:43;110;0;269.21;17;-8.70;-0.96;1.2;14.40;70098;5127.049;-12829.551;248;-300;-146.5;99;98.8;0;0.9;28.9;-1.0;
15/06/2019 06:50:53;110;0;282.14;17;-7.84;2.08;1.2;14.40;70330;5127.049;-12829.551;248;-300;-279.2;87;86.9;0;0.9;28.9;-1.0;
15/06/2019 06:51:03;110;0;286.57;17;-7.04;2.72;1.3;14.40;70554;5127.049;-12829.551;248;-300;-301.0;75;75.0;0;0.9;28.9;-1.0;
15/06/2019 06:51:13;110;0;276.84;17;-6.61;2.58;1.2;14.40;70574;5127.049;-12829.551;248;-300;-301.0;73;72.9;0;0.9;29.0;-1.0;
15/06/2019 06:51:23;100;0;280.83;17;-13.53;-0.35;1.3;14.40;70574;5127.049;-12829.551;248;-300;-303.0;73;72.9;0;0.9;28.9;-1.0;
15/06/2019 06:51:43;100;0;289.36;17;-28.11;4.47;3.9;14.40;70571;5127.049;-12829.551;248;-300;-306.9;73;73.0;35;35.2;29.0;0.0;
15/06/2019 06:52:03;100;0;271.21;17;-26.95;20.37;8.7;14.40;70570;5127.049;-12829.551;248;-300;-310.9;73;73.0;15;14.4;29.0;0.0;
15/06/2019 06:52:23;100;0;256.22;17;-26.26;10.24;13.1;14.40;70563;5127.049;-12829.551;248;-300;-310.9;73;72.9;5;5.0;29.0;0.0;
15/06/2019 06:52:43;100;0;244.34;17;-26.19;5.62;17.9;14.30;70548;5127.049;-12829.551;248;-300;-308.9;73;72.9;0;0.0;29.0;0.0;
15/06/2019 06:53:03;100;0;229.74;17;-25.82;3.05;22.3;14.30;70519;5127.049;-12829.551;248;-300;-310.9;73;72.9;0;-0.9;29.0;0.0;
15/06/2019 06:53:23;100;0;224.04;17;-25.76;3.28;26.7;14.30;70484;5127.049;-12829.551;248;-300;-308.9;73;72.9;-3;-3.2;29.0;0.0;
15/06/2019 06:53:43;100;0;219.70;17;-24.63;1.87;30.9;14.20;70425;5127.049;-12829.551;248;-300;-308.9;73;72.9;-3;-3.6;28.9;0.0;
15/06/2019 06:54:03;100;0;210.76;17;-24.89;1.75;34.9;14.20;70367;5127.049;-12829.551;248;-300;-308.9;73;72.9;-7;-7.7;29.0;0.0;
15/06/2019 06:54:23;100;0;203.85;17;-24.41;-0.13;38.9;14.10;70306;5127.049;-12829.551;248;-300;-308.9;73;72.7;-8;-8.1;29.0;0.0;
15/06/2019 06:54:43;100;0;204.40;17;-24.56;-0.07;42.8;14.00;70258;5127.049;-12829.551;248;-300;-310.9;73;72.9;-5;-5.0;29.0;0.0;
15/06/2019 06:55:03;100;0;198.60;17;-23.95;1.37;46.6;13.90;70207;5127.049;-12829.551;248;-300;-310.9;73;72.9;-8;-8.1;29.0;0.0;
15/06/2019 06:55:23;100;0;187.18;17;-24.22;-0.22;50.2;13.90;70181;5127.049;-12829.551;248;-300;-308.9;73;72.9;-14;-14.0;29.0;0.0;
15/06/2019 06:55:43;100;0;184.39;17;-24.08;-3.19;53.9;13.80;70152;5127.049;-12829.551;248;-300;-308.9;73;72.9;-14;-14.4;29.0;0.0;
15/06/2019 06:56:03;100;0;188.38;17;-23.53;-3.15;57.4;13.70;70121;5127.049;-12829.551;248;-300;-308.9;73;72.9;-10;-9.5;29.0;0.0;
15/06/2019 06:56:23;100;0;191.20;17;-23.77;-0.61;60.7;13.60;70093;5127.049;-12829.551;248;-300;-308.9;73;72.9;-9;-9.0;29.0;0.0;
15/06/2019 06:56:43;100;0;184.19;17;-23.45;-0.65;64.0;13.50;70079;5127.049;-12829.551;248;-300;-310.9;73;72.7;-15;-14.9;29.0;0.0;
15/06/2019 06:57:03;100;0;178.85;17;-23.70;-3.68;67.2;13.50;70069;5127.049;-12829.551;248;-300;-310.9;73;72.9;-20;-19.9;28.9;0.0;
15/06/2019 06:57:23;100;0;180.26;17;-23.62;-5.81;70.4;13.40;70052;5127.049;-12829.551;248;-300;-308.9;73;72.9;-19;-19.0;29.0;0.0;
15/06/2019 06:57:43;100;0;186.03;17;-23.18;-4.70;73.7;13.30;70027;5127.049;-12829.551;248;-300;-308.9;73;72.9;-16;-15.3;29.0;0.0;
15/06/2019 06:58:03;100;0;188.04;17;-22.93;-3.12;76.8;13.30;70014;5127.049;-12829.551;248;-300;-310.9;73;72.9;-16;-14.4;29.0;0.0;
15/06/2019 06:58:23;100;0;187.01;17;-22.93;-3.14;80.0;13.20;70007;5127.049;-12829.551;248;-300;-310.9;73;72.9;-18;-18.5;29.0;0.0;
15/06/2019 06:58:43;100;0;188.07;17;-22.30;-4.99;83.2;13.10;69994;5127.049;-12829.551;248;-300;-308.9;73;72.9;-18;-18.5;29.0;0.0;
15/06/2019 06:59:03;100;0;193.48;17;-22.32;-4.88;86.6;13.10;69974;5127.049;-12829.551;248;-300;-310.9;73;72.9;-16;-15.8;29.0;0.0;
15/06/2019 06:59:23;100;0;190.66;17;-21.14;-3.47;89.9;13.00;69959;5127.049;-12829.551;248;-300;-308.9;73;72.9;-20;-19.9;29.0;0.0;
15/06/2019 06:59:43;100;0;186.19;17;-21.50;-5.85;93.0;12.90;69951;5127.049;-12829.551;248;-300;-308.9;73;72.9;-23;-23.0;29.0;0.0;
15/06/2019 07:00:03;100;0;181.39;17;-21.91;-7.46;96.1;12.90;69952;5127.049;-12829.551;248;-300;-308.9;73;72.9;-27;-27.1;29.0;0.0;
15/06/2019 07:00:23;100;0;179.39;17;-22.15;-9.33;99.3;12.80;69932;5127.049;-12829.551;248;-300;-308.9;73;72.9;-27;-27.5;29.0;0.0;
15/06/2019 07:00:43;100;0;189.07;17;-21.91;-9.71;102.3;12.70;69924;5127.049;-12829.551;248;-300;-310.9;73;72.9;-20;-19.9;29.0;0.0;
15/06/2019 07:01:03;100;0;189.27;17;-21.81;-5.32;105.2;12.70;69914;5127.049;-12829.551;248;-300;-308.9;73;72.9;-21;-21.2;29.0;0.0;
15/06/2019 07:01:23;100;0;198.29;17;-21.98;-6.90;108.1;12.60;69917;5127.049;-12829.551;248;-300;-310.9;73;72.9;-17;-17.1;29.0;0.0;
15/06/2019 07:01:43;100;0;198.19;17;-21.48;-3.94;111.1;12.60;69902;5127.049;-12829.551;248;-300;-310.9;73;72.9;-19;-19.0;29.0;0.0;
15/06/2019 07:02:03;100;0;205.32;17;-21.60;-5.61;113.9;12.50;69900;5127.049;-12829.551;248;-300;-308.9;73;72.9;-16;-15.8;29.0;0.0;
15/06/2019 07:02:23;100;0;206.47;17;-19.84;-3.34;116.9;12.50;69882;5127.049;-12829.551;248;-300;-308.9;73;72.9;-17;-17.1;29.0;0.0;
15/06/2019 07:02:43;100;0;199.69;17;-20.35;-4.69;119.7;12.40;69855;5127.049;-12829.551;248;-300;-308.9;73;72.9;-22;-22.1;29.0;0.0;
15/06/2019 07:03:03;100;0;196.48;17;-19.52;-6.68;122.5;12.40;69843;5127.049;-12829.551;248;-300;-310.9;73;72.7;-23;-23.0;29.0;0.0;
15/06/2019 07:03:23;100;0;194.82;17;-19.42;-7.25;125.1;12.30;69834;5127.049;-12829.551;248;-300;-308.9;73;72.9;-23;-23.5;29.0;0.0;
15/06/2019 07:03:43;100;0;194.03;17;-19.92;-7.72;127.7;12.20;69819;5127.049;-12829.551;248;-300;-308.9;73;72.9;-23;-23.5;29.0;0.0;
15/06/2019 07:04:03;100;0;194.96;17;-19.61;-7.49;130.1;12.20;69814;5127.049;-12829.551;248;-300;-308.9;73;72.7;-22;-21.7;29.0;0.0;
15/06/2019 07:04:23;100;0;199.02;17;-19.64;-6.33;132.5;12.10;69792;5127.049;-12829.551;248;-300;-306.9;73;72.9;-19;-19.0;29.0;0.0;
15/06/2019 07:04:43;100;0;201.52;17;-18.86;-4.82;134.8;12.00;69778;5127.049;-12829.551;248;-300;-308.9;73;72.9;-19;-18.1;29.0;0.0;
15/06/2019 07:05:03;100;0;198.67;17;-19.12;-4.87;137.2;12.00;69757;5127.049;-12829.551;248;-300;-308.9;73;72.9;-21;-21.2;29.0;0.0;
15/06/2019 07:05:23;100;0;196.92;17;-19.34;-6.61;139.4;11.90;69744;5127.049;-12829.551;248;-300;-308.9;73;72.9;-22;-22.1;29.0;0.0;
15/06/2019 07:05:43;100;0;194.29;17;-19.20;-6.98;141.6;11.90;69736;5127.049;-12829.551;248;-300;-308.9;73;72.9;-23;-23.0;29.0;0.0;
15/06/2019 07:06:03;100;0;196.50;17;-18.78;-7.53;143.7;11.80;69727;5127.049;-12829.551;248;-300;-308.9;73;72.9;-21;-21.2;29.0;0.0;
15/06/2019 07:06:23;100;0;196.93;17;-18.61;-5.93;145.8;11.70;69711;5127.049;-12829.551;248;-300;-308.9;73;72.9;-21;-20.3;29.0;0.0;
15/06/2019 07:06:43;100;0;195.79;17;-18.88;-6.03;147.8;11.70;69698;5127.049;-12829.551;248;-300;-308.9;73;72.9;-22;-22.1;28.9;0.0;
15/06/2019 07:07:03;100;0;198.70;17;-18.70;-7.14;149.8;11.60;69685;5127.049;-12829.551;248;-300;-308.9;73;72.7;-20;-19.9;29.0;0.0;
15/06/2019 07:07:23;100;0;202.81;17;-18.57;-5.34;151.8;11.50;69674;5127.049;-12829.551;248;-300;-308.9;73;72.9;-18;-17.6;29.0;0.0;
15/06/2019 07:07:44;100;0;199.42;17;-18.76;-4.46;153.7;11.50;69664;5127.049;-12829.551;248;-300;-306.9;73;72.9;-21;-21.2;29.0;0.0;
15/06/2019 07:08:04;100;0;199.75;17;-18.99;-6.69;155.6;11.40;69654;5127.049;-12829.551;248;-300;-308.9;73;72.9;-21;-21.7;29.0;0.0;
15/06/2019 07:08:24;100;0;198.96;17;-18.97;-6.70;157.5;11.40;69647;5127.049;-12829.551;248;-300;-308.9;73;72.9;-21;-21.7;29.0;44.4;
15/06/2019 07:08:44;100;0;198.82;17;-18.73;-6.83;159.5;11.30;69636;5127.049;-12829.551;248;-300;-310.9;73;72.9;-21;-21.7;29.0;42.4;
15/06/2019 07:09:04;100;0;199.44;17;-18.76;-6.83;161.5;11.30;69620;5127.049;-12829.551;248;-300;-308.9;73;72.9;-20;-19.9;29.0;40.7;
15/06/2019 07:09:24;100;0;199.70;17;-18.82;-5.52;163.4;11.20;69621;5127.049;-12829.551;248;-300;-308.9;73;72.9;-21;-21.2;29.0;38.4;
15/06/2019 07:09:44;100;0;200.64;17;-18.90;-6.64;165.5;11.20;69615;5127.049;-12829.551;248;-300;-308.9;73;72.9;-20;-19.9;29.0;36.4;
15/06/2019 07:10:04;100;0;200.73;17;-18.85;-5.51;167.4;11.10;69606;5127.049;-12829.551;248;-300;-308.9;73;72.7;-20;-19.0;29.0;34.2;
15/06/2019 07:10:24;100;0;200.82;17;-18.70;-5.52;169.6;11.00;69602;5127.049;-12829.551;248;-300;-308.9;73;72.9;-20;-19.0;29.0;32.1;
15/06/2019 07:10:44;100;0;202.32;17;-18.68;-5.45;171.6;11.00;69596;5127.049;-12829.551;248;-300;-308.9;73;72.7;-19;-19.0;29.0;30.1;
15/06/2019 07:11:04;100;0;203.92;17;-18.63;-5.40;173.6;11.00;69605;5127.049;-12829.551;248;-300;-310.9;73;72.9;-19;-19.0;29.0;27.9;
15/06/2019 07:11:24;100;0;204.63;17;-18.41;-5.52;175.7;10.90;69586;5127.049;-12829.551;248;-300;-306.9;73;72.9;-19;-19.0;29.0;25.9;
15/06/2019 07:11:44;100;0;205.81;17;-18.85;-5.59;177.7;10.90;69584;5127.049;-12829.551;248;-300;-308.9;73;72.9;-19;-19.4;29.0;23.7;
15/06/2019 07:12:04;100;0;205.98;17;-18.64;-5.52;179.9;10.80;69584;5127.049;-12829.551;248;-300;-308.9;73;72.9;-19;-19.0;29.0;21.5;
15/06/2019 07:12:24;100;0;206.91;17;-18.84;-5.50;181.9;10.80;69571;5127.049;-12829.551;248;-300;-308.9;73;72.9;-19;-19.0;29.0;19.4;
15/06/2019 07:12:44;118;0;208.41;17;-19.10;-5.52;184.1;10.70;69564;5127.049;-12829.551;248;150;-293.1;57;56.8;0;0.5;28.9;17.2;
15/06/2019 07:12:54;118;0;155.86;17;2.55;3.65;184.9;10.70;69489;5127.049;-12829.551;248;150;-134.7;57;57.1;0;0.5;28.4;17.2;
15/06/2019 07:13:04;118;0;157.46;17;19.15;3.60;184.6;10.70;69278;5127.049;-12829.551;248;150;19.8;57;57.1;0;0.5;28.4;-1.0;
15/06/2019 07:13:14;118;0;156.24;17;24.13;3.67;183.8;10.70;69017;5127.049;-12829.551;248;150;154.5;57;57.1;0;0.5;28.4;-1.0;
15/06/2019 07:13:24;118;0;200.85;17;24.63;4.16;182.7;10.70;68818;5127.049;-12829.551;248;150;156.4;57;57.1;0;0.5;29.0;-1.0;
15/06/2019 07:13:34;118;0;200.91;17;27.43;3.39;181.0;10.60;68811;5127.049;-12829.551;248;150;156.4;57;57.1;0;0.5;28.9;-1.0;
15/06/2019 07:13:44;117;0;200.86;17;27.85;3.46;179.1;10.60;68822;5127.049;-12829.551;248;150;156.4;57;57.1;0;0.5;29.0;-1.0;
15/06/2019 07:14:04;117;0;198.90;17;27.99;3.55;174.9;10.60;68818;5127.049;-12829.551;248;150;156.4;57;57.1;24;23.9;29.0;-1.0;
15/06/2019 07:14:24;117;0;207.21;17;27.99;15.55;170.1;10.50;68812;5127.049;-12829.551;248;150;156.4;57;56.9;17;16.7;29.0;-1.0;
15/06/2019 07:14:44;117;0;210.14;17;28.13;11.10;165.6;10.50;68815;5127.049;-12829.551;248;150;156.4;57;57.1;17;16.2;28.9;-1.0;
15/06/2019 07:15:04;117;0;213.95;17;28.17;11.13;161.2;10.50;68800;5127.049;-12829.551;248;150;156.4;57;56.9;16;15.8;29.0;-1.0;
15/06/2019 07:15:24;117;0;218.30;17;28.08;10.47;156.9;10.40;68797;5127.049;-12829.551;248;150;156.4;57;57.1;14;14.0;29.0;-1.0;
15/06/2019 07:15:44;117;0;224.96;17;28.23;9.52;152.5;10.40;68781;5127.049;-12829.551;248;150;156.4;57;56.9;12;12.2;28.9;-1.0;
15/06/2019 07:16:04;117;0;224.30;17;27.86;8.81;148.0;10.30;68791;5127.049;-12829.551;248;150;156.4;57;56.9;14;14.4;29.0;-1.0;
15/06/2019 07:16:24;117;0;226.96;17;27.76;10.25;143.7;10.30;68808;5127.049;-12829.551;248;150;156.4;57;57.1;14;14.9;29.0;-1.0;
15/06/2019 07:16:44;117;0;226.83;17;27.10;10.43;139.6;10.30;68812;5127.049;-12829.551;248;150;158.4;57;57.1;14;14.9;28.9;-1.0;
15/06/2019 07:17:04;117;0;236.22;17;27.00;10.41;135.5;10.20;68806;5127.049;-12829.551;248;150;156.4;57;57.1;14;14.9;29.0;-1.0;
15/06/2019 07:17:24;117;0;233.90;17;27.35;10.48;131.4;10.20;68820;5127.049;-12829.551;248;150;156.4;57;57.1;14;14.9;28.9;-1.0;
15/06/2019 07:17:44;117;0;239.88;17;26.30;9.76;127.4;10.10;68829;5127.049;-12829.551;248;150;156.4;57;56.9;10;9.9;29.0;-1.0;
15/06/2019 07:18:04;117;0;241.66;17;26.07;8.37;123.7;10.10;68841;5127.049;-12829.551;248;150;156.4;57;56.9;9;9.0;29.0;-1.0;
15/06/2019 07:18:24;117;0;244.71;17;26.07;7.08;120.1;10.10;68846;5127.049;-12829.551;248;150;156.4;57;57.1;8;8.1;28.9;-1.0;
15/06/2019 07:18:44;117;0;250.24;17;25.36;6.68;116.7;10.10;68855;5127.049;-12829.551;248;150;156.4;57;56.9;5;5.0;29.0;-1.0;
15/06/2019 07:19:04;117;0;241.16;17;26.09;5.39;113.4;10.10;68870;5127.049;-12829.551;248;150;156.4;57;57.1;12;12.6;29.0;-1.0;
15/06/2019 07:19:24;117;0;241.92;17;25.76;9.78;109.8;10.10;68884;5127.049;-12829.551;248;150;156.4;57;56.9;10;9.5;29.0;-1.0;
15/06/2019 07:19:44;117;0;243.44;17;24.81;7.85;106.0;10.10;68911;5127.049;-12829.551;248;150;156.4;57;56.9;8;7.7;29.0;-1.0;
15/06/2019 07:20:04;117;0;248.04;17;24.06;6.75;102.2;10.10;68918;5127.049;-12829.551;248;150;156.4;57;57.1;5;5.0;29.0;-1.0;
15/06/2019 07:20:24;117;0;249.68;17;23.59;5.15;98.9;10.00;68914;5127.049;-12829.551;248;150;156.4;57;57.1;5;4.5;29.0;-1.0;
15/06/2019 07:20:44;117;0;251.62;17;23.30;5.30;95.7;10.00;68920;5127.049;-12829.551;248;150;158.4;57;56.9;4;3.6;29.0;-1.0;
15/06/2019 07:21:04;117;0;250.12;17;23.56;4.69;92.7;10.00;68925;5127.049;-12829.551;248;150;158.4;57;56.9;5;5.0;29.0;-1.0;
15/06/2019 07:21:24;117;0;245.05;17;23.78;6.03;89.6;10.00;68925;5127.049;-12829.551;248;150;156.4;57;56.9;7;7.2;29.0;-1.0;
15/06/2019 07:21:44;117;0;240.67;17;23.22;7.03;86.6;10.00;68926;5127.049;-12829.551;248;150;156.4;57;57.1;9;9.0;29.0;-1.0;
15/06/2019 07:22:04;117;0;235.92;17;23.35;7.74;83.6;10.00;68930;5127.049;-12829.551;248;150;158.4;57;57.1;10;9.9;29.0;-1.0;
15/06/2019 07:22:24;117;0;234.57;17;22.38;8.47;80.7;10.00;68938;5127.049;-12829.551;248;150;158.4;57;56.9;9;9.0;29.0;-1.0;
15/06/2019 07:22:44;117;0;234.24;17;22.46;7.25;77.8;10.00;68928;5127.049;-12829.551;248;150;156.4;57;57.1;8;8.1;29.0;-1.0;
15/06/2019 07:23:04;117;0;230.58;17;22.03;7.46;74.9;10.00;68950;5127.049;-12829.551;248;150;156.4;57;57.1;8;8.6;29.0;-1.0;
15/06/2019 07:23:24;117;0;227.40;17;22.13;7.51;72.0;10.00;68954;5127.049;-12829.551;248;150;160.4;57;56.9;10;9.9;28.9;-1.0;
15/06/2019 07:23:44;117;0;231.60;17;21.18;8.56;69.1;10.00;68960;5127.049;-12829.551;248;150;156.4;57;57.1;10;10.8;29.0;-1.0;
15/06/2019 07:24:04;117;0;238.43;17;20.92;8.66;66.4;10.00;68960;5127.049;-12829.551;248;150;156.4;57;56.9;3;3.2;29.0;-1.0;
15/06/2019 07:24:24;117;0;237.79;17;21.43;4.40;63.7;10.00;68973;5127.049;-12829.551;248;150;158.4;57;56.9;5;5.0;29.0;-1.0;
15/06/2019 07:24:44;117;0;237.24;17;21.10;5.85;60.8;10.00;68973;5127.049;-12829.551;248;150;156.4;57;57.1;5;5.4;29.0;-1.0;
15/06/2019 07:25:04;117;0;238.13;17;21.30;5.88;57.9;10.00;68986;5127.049;-12829.551;248;150;156.4;57;57.1;4;4.1;29.0;-1.0;
15/06/2019 07:25:24;117;0;233.04;17;20.90;5.14;54.9;10.00;68984;5127.049;-12829.551;248;150;158.4;57;57.1;8;8.1;29.0;-1.0;
15/06/2019 07:25:44;117;0;233.69;17;20.11;7.66;52.1;10.00;68994;5127.049;-12829.551;248;150;158.4;57;57.1;7;7.2;29.0;-1.0;
15/06/2019 07:26:04;117;0;239.51;17;19.53;6.60;49.5;10.00;68992;5127.049;-12829.551;248;150;158.4;57;57.1;3;3.2;29.0;-1.0;
15/06/2019 07:26:24;117;0;242.66;17;19.56;4.47;47.1;10.00;69016;5127.049;-12829.551;248;150;156.4;57;56.9;1;0.9;29.0;-1.0;
15/06/2019 07:26:44;117;0;242.42;17;19.79;3.33;44.6;10.00;69021;5127.049;-12829.551;248;150;158.4;57;56.9;2;1.8;29.0;-1.0;
15/06/2019 07:27:04;117;0;243.13;17;19.19;4.56;42.3;10.00;69022;5127.049;-12829.551;248;150;158.4;57;57.1;1;0.9;29.0;-1.0;
15/06/2019 07:27:24;117;0;236.05;17;19.10;3.33;40.0;10.00;69043;5127.049;-12829.551;248;150;156.4;57;56.9;6;6.3;29.0;-1.0;
15/06/2019 07:27:44;117;0;232.99;17;18.54;6.82;38.0;10.00;69053;5127.049;-12829.551;248;150;156.4;57;56.9;7;7.2;29.0;-1.0;
15/06/2019 07:28:04;117;0;236.93;17;18.36;7.24;36.0;10.00;69064;5127.049;-12829.551;248;150;156.4;57;57.1;3;3.2;28.9;-1.0;
15/06/2019 07:28:24;117;0;235.42;17;18.29;4.74;33.9;10.10;69084;5127.049;-12829.551;248;150;156.4;57;56.9;4;4.1;29.0;-1.0;
15/06/2019 07:28:44;117;0;246.68;17;17.36;5.96;32.0;10.10;69101;5127.049;-12829.551;248;150;158.4;57;56.9;-3;-3.2;28.9;-1.0;
15/06/2019 07:29:04;117;0;246.10;17;17.81;1.23;30.3;10.10;69134;5127.049;-12829.551;248;150;158.4;57;57.1;-1;-0.9;29.0;-1.0;
15/06/2019 07:29:24;117;0;246.51;17;17.40;3.12;28.3;10.10;69163;5127.049;-12829.551;248;150;158.4;57;57.1;-1;-0.5;29.0;-1.0;
15/06/2019 07:29:44;117;0;242.55;17;17.16;3.19;26.5;10.10;69195;5127.049;-12829.551;248;150;156.4;57;57.1;1;0.9;29.0;-1.0;
15/06/2019 07:30:04;117;0;244.43;17;16.24;3.86;24.8;10.20;69217;5127.049;-12829.551;248;150;156.4;57;56.9;-1;-0.9;29.0;-1.0;
15/06/2019 07:30:24;117;0;239.78;17;16.59;2.51;23.3;10.20;69262;5127.049;-12829.551;248;150;156.4;57;57.1;1;0.9;29.0;-1.0;
15/06/2019 07:30:44;117;0;243.50;17;15.91;4.13;21.7;10.20;69281;5127.049;-12829.551;248;150;156.4;57;56.9;-2;-1.8;29.0;-1.0;
15/06/2019 07:31:04;117;0;241.16;17;16.09;2.06;20.3;10.30;69307;5127.049;-12829.551;248;150;156.4;57;57.1;0;0.0;29.0;-1.0;
15/06/2019 07:31:24;117;0;240.15;17;15.82;3.49;19.0;10.30;69352;5127.049;-12829.551;248;150;158.4;57;57.1;0;0.5;29.0;-1.0;
15/06/2019 07:31:44;117;0;243.17;17;15.37;3.61;17.7;10.40;69375;5127.049;-12829.551;248;150;156.4;57;56.9;-3;-3.2;28.9;-1.0;
15/06/2019 07:32:04;117;0;243.56;17;15.50;1.57;16.3;10.40;69412;5127.049;-12829.551;248;150;158.4;57;57.1;-3;-3.6;29.0;-1.0;
15/06/2019 07:32:24;117;0;244.30;17;15.57;1.54;15.0;10.50;69435;5127.049;-12829.551;248;150;156.4;57;56.9;-4;-4.1;29.0;-1.0;
15/06/2019 07:32:44;117;0;242.79;17;15.86;1.37;13.7;10.50;69453;5127.049;-12829.551;248;150;158.4;57;57.1;-3;-3.2;29.0;-1.0;
15/06/2019 07:33:04;117;0;231.38;17;15.96;1.99;12.2;10.60;69479;5127.049;-12829.551;248;150;156.4;57;57.1;-3;-2.7;29.0;-1.0;
15/06/2019 07:33:24;117;0;229.63;17;15.34;2.16;10.7;10.60;69496;5127.049;-12829.551;248;150;156.4;57;57.1;-3;-2.3;29.0;-1.0;
