Timestamp;NavState;SecurityLevel;Heading;Declination;Pitch;Roll;Depth;Temperature;Pa;Lat;Lon;DesiredH;BallastCmd;BallastPos;LinCmd;LinPos;AngCmd;AngPos;Voltage;Altitude;
15/06/2019 10:35:50;117;0;262.37;17;15.36;0.46;9.7;10.80;69532;5125.312;-12831.961;257;150;158.4;57;57.1;-5;-5.0;28.9;-1.0;
15/06/2019 10:36:00;115;0;262.15;17;14.30;0.88;8.9;10.80;69539;5125.312;-12831.961;257;500;170.3;100;100.3;0;0.9;28.9;-1.0;
15/06/2019 10:36:10;115;0;264.21;17;-26.95;4.60;8.4;10.80;69462;5125.312;-12831.961;257;500;320.8;100;100.0;0;0.9;28.6;-1.0;
15/06/2019 10:36:20;115;0;276.04;17;-67.04;3.53;9.2;10.90;69257;5125.312;-12831.961;257;500;471.3;100;100.0;0;0.9;28.6;-1.0;
15/06/2019 10:36:30;115;0;262.02;17;-59.21;5.37;8.1;10.90;69016;5125.312;-12831.961;257;500;505.0;100;100.0;0;0.9;28.6;-1.0;
15/06/2019 10:36:40;115;0;258.69;17;-31.05;4.06;5.1;10.90;68986;5125.312;-12831.961;257;500;506.9;100;100.0;0;0.9;28.9;-1.0;
15/06/2019 10:36:50;116;0;221.15;17;-66.71;11.39;2.0;10.90;69001;5125.312;-12831.961;257;500;506.9;100;100.0;0;0.9;28.9;-1.0;
15/06/2019 10:37:10;116;0;182.92;17;-24.83;1.56;1.4;11.00;69008;5124.893;-12832.883;257;500;508.9;100;100.0;0;0.9;28.9;-1.0;
15/06/2019 10:37:30;116;0;231.34;17;-7.56;-0.34;1.2;11.10;69025;5124.888;-12832.887;257;500;506.9;100;100.0;0;0.9;28.9;-1.0;
15/06/2019 10:37:50;116;0;269.96;17;-7.61;-2.05;1.2;11.20;69020;5124.887;-12832.889;257;500;508.9;100;99.9;0;0.9;28.9;-1.0;
15/06/2019 10:38:10;116;0;281.94;17;-5.79;2.12;1.2;11.20;69028;5124.885;-12832.895;261;500;508.9;100;99.9;0;0.9;28.9;-1.0;
15/06/2019 10:38:30;116;0;296.54;17;-8.80;3.07;1.3;11.40;69045;5124.883;-12832.902;261;500;508.9;100;99.9;0;0.9;28.9;-1.0;
15/06/2019 10:38:50;116;0;298.14;17;-9.31;-3.65;1.3;11.40;69048;5124.857;-12832.980;261;500;508.9;100;99.9;0;0.9;28.9;-1.0;
15/06/2019 10:43:04;116;0;283.68;17;-13.04;1.37;1.2;12.70;69128;5124.857;-12832.981;261;500;508.9;100;99.9;0;0.9;28.9;-1.0;
15/06/2019 10:43:24;116;0;293.39;17;-24.24;3.12;1.4;12.80;69127;5124.855;-12832.989;261;500;508.9;100;99.9;0;0.9;28.9;-1.0;
15/06/2019 10:43:44;116;0;281.68;17;-16.69;1.14;1.2;12.90;69134;5124.853;-12832.994;261;500;508.9;100;99.9;0;0.9;28.9;-1.0;
15/06/2019 10:44:04;116;0;292.24;17;-7.17;5.78;1.2;13.00;69139;5124.845;-12833.008;261;500;508.9;100;99.9;0;0.9;29.0;-1.0;
15/06/2019 10:44:54;116;0;287.66;17;-6.71;1.06;1.2;13.20;69145;5124.845;-12833.009;261;500;508.9;100;99.9;0;0.9;28.9;-1.0;
15/06/2019 10:45:14;116;0;298.40;17;-8.08;3.84;1.3;13.40;69153;5124.816;-12833.110;261;500;508.9;100;99.9;0;0.9;28.9;-1.0;
15/06/2019 10:50:50;116;0;313.91;17;-6.91;0.03;1.2;14.20;69194;5124.816;-12833.111;261;500;508.9;100;100.0;0;0.9;28.9;-1.0;
15/06/2019 10:51:10;116;0;294.23;17;-7.49;-0.72;1.2;14.20;69206;5124.815;-12833.117;261;500;508.9;100;99.9;0;0.5;28.9;-1.0;
15/06/2019 10:51:30;116;0;289.40;17;-7.83;0.90;1.2;14.20;69212;5124.813;-12833.123;261;500;510.9;100;99.9;0;0.9;28.9;-1.0;
15/06/2019 10:51:50;116;0;273.31;17;-10.52;3.98;1.2;14.30;69204;5124.811;-12833.128;261;500;508.9;100;99.9;0;0.9;28.9;-1.0;
15/06/2019 10:52:10;116;0;277.13;17;-6.25;1.34;1.2;14.30;69208;5124.809;-12833.134;261;500;510.9;100;100.0;0;0.9;28.9;-1.0;
15/06/2019 10:52:30;116;0;305.21;17;-8.70;2.46;1.2;14.30;69213;5124.808;-12833.140;261;500;508.9;100;99.9;0;0.9;28.9;-1.0;
15/06/2019 10:52:50;116;0;298.80;17;-7.60;3.07;1.2;14.40;69218;5124.806;-12833.146;261;500;508.9;100;100.0;0;0.9;28.9;-1.0;
15/06/2019 10:53:10;116;0;308.98;17;-6.65;-0.09;1.2;14.40;69217;5124.805;-12833.150;261;500;508.9;100;99.9;0;0.9;28.9;-1.0;
15/06/2019 10:53:30;116;0;297.66;17;-8.96;5.86;1.2;14.40;69228;5124.805;-12833.155;261;500;508.9;100;99.9;0;0.9;28.9;-1.0;
15/06/2019 10:53:50;116;0;298.00;17;-9.58;-0.27;1.2;14.50;69224;5124.801;-12833.171;261;500;508.9;100;99.9;0;0.9;28.9;-1.0;
15/06/2019 10:54:28;116;0;293.13;17;-10.83;2.69;1.3;14.50;69227;5124.800;-12833.172;261;500;508.9;100;99.9;0;0.9;28.9;-1.0;
15/06/2019 10:54:48;116;0;278.25;17;-6.31;0.41;1.2;14.50;69228;5124.799;-12833.178;261;500;508.9;100;100.0;0;0.9;28.9;-1.0;
15/06/2019 10:55:08;116;0;278.98;17;-7.50;0.36;1.2;14.60;69225;5124.797;-12833.183;261;500;508.9;100;99.9;0;0.9;28.9;-1.0;
15/06/2019 10:55:28;116;0;277.56;17;-5.98;-0.54;1.2;14.60;69227;5124.796;-12833.188;261;500;508.9;100;99.9;0;0.9;28.9;-1.0;
15/06/2019 10:55:48;110;0;277.27;17;-7.35;-1.50;1.2;14.70;69231;5124.796;-12833.188;261;-300;407.9;100;99.9;0;0.9;28.9;-1.0;
15/06/2019 10:55:58;110;0;298.64;17;-6.80;2.36;1.2;14.70;69471;5124.796;-12833.188;261;-300;263.4;100;99.9;0;0.9;28.8;-1.0;
15/06/2019 10:56:08;110;0;285.05;17;-13.31;-0.63;1.3;14.70;69674;5124.796;-12833.188;261;-300;118.8;100;99.9;0;0.9;28.8;-1.0;
15/06/2019 10:56:18;110;0;289.51;17;-27.47;2.90;1.5;14.70;69903;5124.796;-12833.188;261;-300;-49.5;100;100.0;0;0.9;28.9;-1.0;
15/06/2019 10:56:28;110;0;302.49;17;-59.94;4.47;2.6;14.70;70173;5124.796;-12833.188;261;-300;-251.5;95;94.8;0;0.9;28.9;-1.0;
15/06/2019 10:56:38;110;0;293.17;17;-57.33;4.71;4.6;14.70;70528;5124.796;-12833.188;261;-300;-299.0;77;76.9;0;0.9;28.8;-1.0;
15/06/2019 10:56:48;110;0;279.21;17;-45.34;4.45;7.5;14.70;70572;5124.796;-12833.188;261;-300;-301.0;73;73.0;0;0.9;29.0;-1.0;
15/06/2019 10:56:58;100;0;266.93;17;-35.23;4.42;10.6;14.70;70566;5124.796;-12833.188;261;-300;-297.0;73;72.9;0;0.9;28.9;-1.0;
15/06/2019 10:57:18;100;0;243.06;17;-28.09;4.07;16.1;14.70;70561;5124.796;-12833.188;261;-300;-297.0;73;72.9;-8;-8.1;28.9;0.0;
15/06/2019 10:57:38;100;0;225.26;17;-26.97;-0.22;21.0;14.70;70544;5124.796;-12833.188;261;-300;-295.0;73;72.9;-8;-8.6;28.9;0.0;
15/06/2019 10:57:58;100;0;214.95;17;-25.89;-0.27;25.6;14.60;70508;5124.796;-12833.188;261;-300;-295.0;73;72.9;-16;-15.8;28.9;0.0;
15/06/2019 10:58:18;100;0;210.51;17;-26.50;-3.78;29.7;14.60;70485;5124.796;-12833.188;261;-300;-295.0;73;72.9;-14;-14.0;28.9;0.0;
15/06/2019 10:58:38;100;0;201.86;17;-26.53;-2.29;33.9;14.50;70444;5124.796;-12833.188;261;-300;-293.1;73;72.9;-17;-17.1;29.0;0.0;
15/06/2019 10:58:58;100;0;193.86;17;-25.22;-4.33;37.9;14.50;70397;5124.796;-12833.188;261;-300;-293.1;73;72.9;-20;-19.9;28.9;0.0;
15/06/2019 10:59:18;100;0;183.81;17;-25.15;-5.76;41.7;14.40;70329;5124.796;-12833.188;261;-300;-293.1;73;72.9;-25;-24.8;28.9;0.0;
15/06/2019 10:59:38;100;0;189.75;17;-25.04;-8.17;45.3;14.30;70280;5124.796;-12833.188;261;-300;-293.1;73;72.9;-20;-19.4;28.9;0.0;
15/06/2019 10:59:58;100;0;193.16;17;-25.84;-4.77;48.9;14.20;70246;5124.796;-12833.188;261;-300;-293.1;73;72.9;-20;-18.5;28.9;0.0;
15/06/2019 11:00:18;100;0;189.31;17;-24.67;-4.90;52.5;14.20;70210;5124.796;-12833.188;261;-300;-293.1;73;72.9;-25;-24.8;28.9;0.0;
15/06/2019 11:00:38;100;0;189.08;17;-25.22;-8.51;56.3;14.10;70175;5124.796;-12833.188;261;-300;-293.1;73;72.9;-26;-26.2;28.9;0.0;
15/06/2019 11:00:58;100;0;195.03;17;-24.50;-8.70;60.0;14.00;70136;5124.796;-12833.188;261;-300;-293.1;73;72.9;-22;-21.7;28.9;0.0;
15/06/2019 11:01:18;100;0;196.42;17;-24.73;-6.01;63.6;13.90;70115;5124.796;-12833.188;261;-300;-293.1;73;72.9;-23;-23.0;28.9;0.0;
15/06/2019 11:01:38;100;0;194.29;17;-24.16;-7.11;67.3;13.80;70096;5124.796;-12833.188;261;-300;-293.1;73;72.9;-24;-23.9;28.9;0.0;
15/06/2019 11:01:58;100;0;191.13;17;-24.11;-7.67;71.0;13.70;70076;5124.796;-12833.188;261;-300;-293.1;73;72.9;-26;-26.2;28.9;0.0;
15/06/2019 11:02:18;100;0;198.54;17;-24.09;-8.72;74.6;13.70;70069;5124.796;-12833.188;261;-300;-293.1;73;72.9;-21;-21.2;28.9;0.0;
15/06/2019 11:02:38;100;0;202.81;17;-23.31;-5.82;78.2;13.60;70049;5124.796;-12833.188;261;-300;-293.1;73;72.9;-20;-19.4;28.9;0.0;
15/06/2019 11:02:58;100;0;204.61;17;-23.47;-4.97;81.6;13.50;70020;5124.796;-12833.188;261;-300;-293.1;73;72.9;-20;-18.5;28.9;0.0;
15/06/2019 11:03:18;100;0;205.13;17;-23.80;-5.02;84.7;13.40;70020;5124.796;-12833.188;261;-300;-293.1;73;72.9;-21;-21.2;29.0;0.0;
15/06/2019 11:03:38;100;0;207.17;17;-23.58;-6.39;88.0;13.40;70008;5124.796;-12833.188;261;-300;-293.1;73;72.9;-20;-19.9;28.9;0.0;
15/06/2019 11:03:58;100;0;209.32;17;-23.53;-5.16;91.4;13.30;69999;5124.796;-12833.188;261;-300;-293.1;73;72.7;-20;-19.0;28.9;0.0;
15/06/2019 11:04:18;100;0;209.29;17;-23.42;-5.23;94.8;13.20;69995;5124.796;-12833.188;261;-300;-293.1;73;72.9;-21;-21.7;28.9;0.0;
15/06/2019 11:04:38;100;0;208.83;17;-23.38;-6.59;98.2;13.20;69980;5124.796;-12833.188;261;-300;-293.1;73;72.9;-22;-22.1;28.9;0.0;
15/06/2019 11:04:58;100;0;205.74;17;-22.85;-6.56;101.4;13.10;69982;5124.796;-12833.188;261;-300;-293.1;73;72.7;-23;-23.0;28.9;0.0;
15/06/2019 11:05:18;100;0;204.05;17;-23.15;-7.50;104.4;13.00;69958;5124.796;-12833.188;261;-300;-293.1;73;72.9;-23;-23.5;28.9;0.0;
15/06/2019 11:05:38;100;0;202.39;17;-23.31;-7.53;107.3;13.00;69961;5124.796;-12833.188;261;-300;-293.1;73;72.7;-24;-23.9;28.9;0.0;
15/06/2019 11:05:58;100;0;199.09;17;-23.12;-7.77;110.2;12.90;69949;5124.796;-12833.188;261;-300;-293.1;73;72.9;-25;-24.8;28.9;0.0;
15/06/2019 11:06:18;100;0;205.41;17;-22.03;-8.28;113.1;12.90;69931;5124.796;-12833.188;261;-300;-293.1;73;72.9;-21;-21.2;29.0;0.0;
15/06/2019 11:06:38;100;0;210.85;17;-22.36;-5.93;115.8;12.80;69928;5124.796;-12833.188;261;-300;-291.1;73;72.9;-19;-19.0;29.0;0.0;
15/06/2019 11:06:58;100;0;210.85;17;-21.79;-4.97;118.5;12.80;69920;5124.796;-12833.188;261;-300;-293.1;73;72.9;-20;-19.9;29.0;0.0;
15/06/2019 11:07:18;100;0;210.07;17;-21.68;-5.87;121.2;12.70;69907;5124.796;-12833.188;261;-300;-293.1;73;72.9;-20;-20.3;28.9;0.0;
15/06/2019 11:07:38;100;0;210.06;17;-21.00;-5.87;124.0;12.60;69899;5124.796;-12833.188;261;-300;-293.1;73;72.7;-21;-21.2;28.9;0.0;
15/06/2019 11:07:58;100;0;219.17;17;-20.74;-6.50;126.5;12.60;69882;5124.796;-12833.188;261;-300;-291.1;73;72.9;-16;-15.8;28.9;0.0;
15/06/2019 11:08:18;100;0;212.51;17;-20.42;-3.37;129.0;12.50;69862;5124.796;-12833.188;261;-300;-293.1;73;72.7;-22;-22.1;28.9;0.0;
15/06/2019 11:08:38;100;0;221.10;17;-20.40;-7.14;131.5;12.40;69857;5124.796;-12833.188;261;-300;-291.1;73;72.9;-16;-15.8;28.9;0.0;
15/06/2019 11:08:58;100;0;226.81;17;-19.40;-3.30;133.9;12.40;69827;5124.796;-12833.188;261;-300;-291.1;73;72.9;-15;-14.9;28.9;0.0;
15/06/2019 11:09:18;100;0;228.49;17;-19.64;-3.48;136.2;12.30;69817;5124.796;-12833.188;261;-300;-293.1;73;72.9;-15;-14.9;28.9;0.0;
15/06/2019 11:09:38;100;0;225.87;17;-19.82;-3.57;138.5;12.20;69783;5124.796;-12833.188;261;-300;-291.1;73;72.9;-18;-18.1;28.9;0.0;
15/06/2019 11:09:58;100;0;219.15;17;-19.34;-5.22;140.6;12.20;69772;5124.796;-12833.188;261;-300;-291.1;73;72.7;-22;-22.1;28.9;0.0;
15/06/2019 11:10:18;100;0;220.66;17;-19.38;-7.21;142.8;12.10;69753;5124.796;-12833.188;261;-300;-291.1;73;72.7;-20;-19.9;29.0;0.0;
15/06/2019 11:10:38;100;0;221.18;17;-18.93;-5.38;144.9;12.10;69745;5124.796;-12833.188;261;-300;-291.1;73;72.9;-19;-19.0;29.0;0.0;
15/06/2019 11:10:58;100;0;217.68;17;-18.92;-5.34;147.1;12.00;69725;5124.796;-12833.188;261;-300;-291.1;73;72.9;-21;-21.2;28.9;0.0;
15/06/2019 11:11:18;100;0;216.02;17;-19.32;-6.64;149.0;11.90;69726;5124.796;-12833.188;261;-300;-291.1;73;72.9;-21;-21.7;28.9;0.0;
15/06/2019 11:11:38;100;0;223.07;17;-19.07;-6.68;150.9;11.90;69711;5124.796;-12833.188;261;-300;-291.1;73;72.9;-16;-15.3;29.0;0.0;
15/06/2019 11:11:58;100;0;222.10;17;-18.99;-3.41;153.0;11.80;69691;5124.796;-12833.188;261;-300;-291.1;73;72.7;-18;-18.1;28.9;0.0;
15/06/2019 11:12:18;100;0;223.15;17;-18.87;-5.14;155.1;11.70;69693;5124.796;-12833.188;261;-300;-291.1;73;72.9;-18;-18.5;28.9;0.0;
15/06/2019 11:12:38;100;0;224.06;17;-19.13;-5.13;156.9;11.70;69667;5124.796;-12833.188;261;-300;-291.1;73;72.9;-18;-18.5;28.9;0.0;
15/06/2019 11:12:58;100;0;222.22;17;-19.04;-5.11;158.9;11.60;69663;5124.796;-12833.188;261;-300;-291.1;73;72.7;-19;-19.0;29.0;0.0;
15/06/2019 11:13:18;100;0;225.02;17;-19.16;-5.67;160.8;11.60;69653;5124.796;-12833.188;261;-300;-291.1;73;72.7;-17;-17.1;29.0;44.0;
15/06/2019 11:13:38;100;0;226.41;17;-19.02;-4.21;162.7;11.50;69641;5124.796;-12833.188;261;-300;-293.1;73;72.7;-17;-16.2;29.0;42.1;
15/06/2019 11:13:58;100;0;228.86;17;-19.04;-4.16;164.7;11.40;69636;5124.796;-12833.188;261;-300;-291.1;73;72.7;-16;-15.8;29.0;40.0;
15/06/2019 11:14:18;100;0;227.91;17;-18.46;-3.65;166.7;11.40;69619;5124.796;-12833.188;261;-300;-291.1;73;72.7;-17;-17.1;28.9;38.0;
15/06/2019 11:14:38;100;0;227.86;17;-18.64;-4.79;168.7;11.30;69614;5124.796;-12833.188;261;-300;-291.1;73;72.9;-18;-18.1;28.9;35.9;
15/06/2019 11:14:58;100;0;229.56;17;-18.89;-5.21;170.8;11.30;69606;5124.796;-12833.188;261;-300;-291.1;73;72.7;-16;-15.8;28.9;33.8;
15/06/2019 11:15:18;100;0;230.19;17;-18.41;-3.77;172.8;11.20;69595;5124.796;-12833.188;261;-300;-291.1;73;72.9;-16;-14.9;28.9;31.8;
15/06/2019 11:15:38;100;0;228.23;17;-18.98;-3.77;174.8;11.10;69599;5124.796;-12833.188;261;-300;-291.1;73;72.7;-18;-18.1;28.9;29.7;
15/06/2019 11:15:59;100;0;230.00;17;-18.18;-5.20;176.9;11.10;69582;5124.796;-12833.188;261;-300;-291.1;73;72.7;-17;-17.1;29.0;27.6;
15/06/2019 11:16:19;100;0;230.60;17;-18.67;-4.22;178.9;11.00;69588;5124.796;-12833.188;261;-300;-291.1;73;72.9;-17;-16.7;28.9;25.6;
15/06/2019 11:16:39;100;0;228.83;17;-17.43;-3.91;180.9;11.00;69578;5124.796;-12833.188;261;-300;-293.1;73;72.7;-18;-18.5;28.9;23.4;
15/06/2019 11:16:59;100;0;225.69;17;-18.89;-5.39;182.9;11.00;69564;5124.796;-12833.188;261;-300;-291.1;73;72.9;-20;-19.9;28.9;21.4;
15/06/2019 11:17:19;100;0;228.08;17;-18.92;-5.99;184.9;10.90;69572;5124.796;-12833.188;261;-300;-289.1;73;72.7;-17;-17.1;28.9;19.4;
15/06/2019 11:17:39;118;0;229.05;17;-18.44;-4.31;186.8;10.90;69559;5124.796;-12833.188;261;150;-277.2;57;56.8;0;0.9;28.9;17.3;
15/06/2019 11:17:49;118;0;164.03;17;1.97;3.98;187.8;10.90;69487;5124.796;-12833.188;261;150;-116.8;57;57.1;0;0.9;28.4;17.3;
15/06/2019 11:17:59;118;0;166.74;17;20.09;3.50;187.6;10.80;69270;5124.796;-12833.188;261;150;37.6;57;57.1;0;0.9;28.4;-1.0;
15/06/2019 11:18:09;118;0;167.21;17;24.00;3.93;186.8;10.80;69012;5124.796;-12833.188;261;150;156.4;57;57.1;0;0.9;28.3;-1.0;
15/06/2019 11:18:19;118;0;214.44;17;24.06;3.22;185.7;10.80;68841;5124.796;-12833.188;261;150;154.5;57;57.1;0;0.9;28.9;-1.0;
15/06/2019 11:18:29;118;0;215.40;17;26.92;3.66;184.3;10.80;68841;5124.796;-12833.188;261;150;154.5;57;56.9;0;0.9;28.9;-1.0;
15/06/2019 11:18:39;117;0;213.98;17;28.75;3.61;182.5;10.70;68836;5124.796;-12833.188;261;150;154.5;57;56.9;0;0.9;28.9;-1.0;
15/06/2019 11:18:59;117;0;213.62;17;28.35;3.50;178.1;10.70;68843;5124.796;-12833.188;261;150;154.5;57;56.9;26;26.2;28.9;-1.0;
15/06/2019 11:19:19;117;0;223.58;17;27.71;16.43;173.3;10.70;68831;5124.796;-12833.188;261;150;156.4;57;56.9;18;17.6;28.9;-1.0;
15/06/2019 11:19:39;117;0;226.38;17;27.82;11.52;168.8;10.60;68831;5124.796;-12833.188;261;150;156.4;57;56.9;16;15.8;28.9;-1.0;
15/06/2019 11:19:59;117;0;228.46;17;27.60;10.20;164.2;10.60;68820;5124.796;-12833.188;261;150;156.4;57;56.9;16;14.9;28.9;-1.0;
15/06/2019 11:20:19;117;0;229.44;17;28.72;10.63;159.7;10.50;68808;5124.796;-12833.188;261;150;154.5;57;56.9;16;15.3;28.9;-1.0;
15/06/2019 11:20:39;117;0;232.92;17;28.23;10.57;155.0;10.50;68820;5124.796;-12833.188;261;150;154.5;57;56.9;15;14.9;28.9;-1.0;
15/06/2019 11:20:59;117;0;234.66;17;28.12;10.38;150.5;10.40;68827;5124.796;-12833.188;261;150;156.4;57;56.9;15;14.9;28.9;-1.0;
15/06/2019 11:21:19;117;0;239.88;17;27.85;10.38;145.9;10.40;68839;5124.796;-12833.188;261;150;154.5;57;56.9;13;12.6;29.0;-1.0;
15/06/2019 11:21:39;117;0;243.56;17;27.06;9.15;141.6;10.30;68832;5124.796;-12833.188;261;150;156.4;57;57.1;13;12.2;29.0;-1.0;
15/06/2019 11:21:59;117;0;250.87;17;27.02;9.13;137.5;10.30;68855;5124.796;-12833.188;261;150;154.5;57;56.9;9;9.0;28.9;-1.0;
15/06/2019 11:22:19;117;0;242.85;17;27.04;7.47;133.1;10.30;68871;5124.796;-12833.188;261;150;154.5;57;56.9;9;8.6;28.9;-1.0;
15/06/2019 11:22:39;117;0;244.44;17;26.17;7.34;128.7;10.30;68890;5124.796;-12833.188;261;150;156.4;57;56.9;9;8.6;28.9;-1.0;
15/06/2019 11:22:59;117;0;242.35;17;25.53;7.40;124.6;10.30;68892;5124.796;-12833.188;261;150;156.4;57;56.9;9;8.6;28.9;-1.0;
15/06/2019 11:23:19;117;0;245.35;17;24.27;7.26;120.7;10.20;68908;5124.796;-12833.188;261;150;156.4;57;56.9;9;8.6;29.0;-1.0;
15/06/2019 11:23:39;117;0;240.29;17;24.44;7.50;117.2;10.20;68917;5124.796;-12833.188;261;150;156.4;57;56.9;16;15.8;28.9;-1.0;
15/06/2019 11:23:59;117;0;242.76;17;23.67;11.13;113.8;10.20;68926;5124.796;-12833.188;261;150;156.4;57;56.9;15;14.9;28.9;-1.0;
15/06/2019 11:24:19;117;0;243.11;17;23.32;10.24;110.3;10.20;68939;5124.796;-12833.188;261;150;158.4;57;56.9;15;14.9;28.9;-1.0;
15/06/2019 11:24:39;117;0;244.68;17;22.33;10.50;106.9;10.20;68955;5124.796;-12833.188;261;150;154.5;57;56.9;15;14.9;28.9;-1.0;
15/06/2019 11:24:59;117;0;251.50;17;22.12;10.50;103.9;10.20;68964;5124.796;-12833.188;261;150;158.4;57;56.9;10;9.5;28.9;-1.0;
15/06/2019 11:25:19;117;0;258.04;17;22.39;7.70;100.8;10.20;68970;5124.796;-12833.188;261;150;156.4;57;56.9;7;7.2;28.9;-1.0;
15/06/2019 11:25:39;117;0;265.59;17;21.38;6.33;97.6;10.20;68975;5124.796;-12833.188;261;150;156.4;57;56.9;4;3.6;28.9;-1.0;
15/06/2019 11:25:59;117;0;264.33;17;22.17;4.74;94.6;10.20;68976;5124.796;-12833.188;261;150;156.4;57;56.9;6;6.3;28.9;-1.0;
15/06/2019 11:26:19;117;0;265.02;17;22.02;6.56;91.5;10.20;68978;5124.796;-12833.188;261;150;156.4;57;57.1;6;6.8;28.9;-1.0;
15/06/2019 11:26:39;117;0;261.29;17;21.88;6.51;88.5;10.20;68975;5124.796;-12833.188;261;150;156.4;57;56.9;9;9.0;28.9;-1.0;
15/06/2019 11:26:59;117;0;258.80;17;22.28;8.06;85.3;10.20;68992;5124.796;-12833.188;261;150;156.4;57;57.1;9;9.5;28.9;-1.0;
15/06/2019 11:27:19;117;0;257.55;17;21.50;7.95;82.3;10.20;69006;5124.796;-12833.188;261;150;156.4;57;57.1;9;9.5;28.9;-1.0;
15/06/2019 11:27:39;117;0;257.08;17;21.35;8.09;79.5;10.20;68995;5124.796;-12833.188;261;150;156.4;57;56.9;8;7.7;28.9;-1.0;
15/06/2019 11:27:59;117;0;255.55;17;20.80;6.67;76.8;10.10;69002;5124.796;-12833.188;261;150;156.4;57;57.1;8;7.2;28.9;-1.0;
15/06/2019 11:28:19;117;0;251.13;17;21.14;6.81;74.2;10.10;69010;5124.796;-12833.188;261;150;158.4;57;57.1;10;10.4;28.9;-1.0;
15/06/2019 11:28:39;117;0;253.83;17;20.33;8.50;71.8;10.10;69013;5124.796;-12833.188;261;150;156.4;57;56.9;7;7.2;28.9;-1.0;
15/06/2019 11:28:59;117;0;254.75;17;20.43;6.58;69.2;10.10;69018;5124.796;-12833.188;261;150;156.4;57;56.9;6;5.4;28.9;-1.0;
15/06/2019 11:29:19;117;0;252.48;17;20.43;5.59;66.8;10.20;69020;5124.796;-12833.188;261;150;156.4;57;56.9;7;7.2;28.9;-1.0;
15/06/2019 11:29:39;117;0;248.54;17;20.33;7.15;64.3;10.10;69029;5124.796;-12833.188;261;150;156.4;57;57.1;9;9.0;28.9;-1.0;
15/06/2019 11:29:59;117;0;251.31;17;19.50;7.97;61.9;10.10;69040;5124.796;-12833.188;261;150;156.4;57;56.9;6;5.4;28.9;-1.0;
15/06/2019 11:30:19;117;0;253.65;17;19.56;5.66;59.5;10.20;69042;5124.796;-12833.188;261;150;154.5;57;56.9;4;4.1;28.9;-1.0;
15/06/2019 11:30:39;117;0;254.37;17;19.28;4.82;57.2;10.10;69051;5124.796;-12833.188;261;150;156.4;57;56.9;4;3.6;28.9;-1.0;
15/06/2019 11:30:59;117;0;251.01;17;19.39;4.87;54.9;10.10;69057;5124.796;-12833.188;261;150;158.4;57;57.1;6;5.9;28.9;-1.0;
15/06/2019 11:31:19;117;0;252.06;17;19.07;6.35;52.6;10.20;69083;5124.796;-12833.188;261;150;156.4;57;57.1;4;3.6;28.9;-1.0;
15/06/2019 11:31:39;117;0;250.61;17;19.55;4.61;50.6;10.20;69083;5124.796;-12833.188;261;150;156.4;57;56.9;5;5.0;28.9;-1.0;
15/06/2019 11:31:59;117;0;252.37;17;19.07;5.82;48.3;10.20;69102;5124.796;-12833.188;261;150;154.5;57;56.9;3;3.2;28.9;-1.0;
15/06/2019 11:32:19;117;0;249.99;17;18.93;4.55;46.1;10.20;69109;5124.796;-12833.188;261;150;156.4;57;56.9;5;5.0;28.9;-1.0;
15/06/2019 11:32:39;117;0;252.60;17;18.94;6.00;43.9;10.20;69125;5124.796;-12833.188;261;150;156.4;57;57.1;3;3.2;29.0;-1.0;
15/06/2019 11:32:59;117;0;256.85;17;18.26;4.56;41.9;10.20;69133;5124.796;-12833.188;261;150;156.4;57;56.9;0;0.0;28.9;-1.0;
15/06/2019 11:33:19;117;0;261.85;17;18.15;2.89;40.0;10.20;69154;5124.796;-12833.188;261;150;156.4;57;57.1;-1;-0.9;28.9;-1.0;
15/06/2019 11:33:39;117;0;264.71;17;18.12;2.47;38.1;10.30;69172;5124.796;-12833.188;261;150;156.4;57;57.1;-2;-1.8;28.9;-1.0;
15/06/2019 11:33:59;117;0;260.16;17;17.89;2.52;36.2;10.30;69196;5124.796;-12833.188;261;150;158.4;57;57.1;0;0.0;28.9;-1.0;
15/06/2019 11:34:19;117;0;259.02;17;17.05;3.33;34.3;10.30;69220;5124.796;-12833.188;261;150;156.4;57;57.1;0;0.0;28.9;-1.0;
15/06/2019 11:34:39;117;0;261.42;17;17.08;3.41;32.5;10.30;69244;5124.796;-12833.188;261;150;156.4;57;56.9;-1;-0.9;28.9;-1.0;
15/06/2019 11:34:59;117;0;264.98;17;17.07;2.72;30.7;10.40;69274;5124.796;-12833.188;261;150;158.4;57;56.9;-4;-4.1;28.9;-1.0;
15/06/2019 11:35:19;117;0;267.81;17;16.56;1.09;28.8;10.40;69283;5124.796;-12833.188;261;150;156.4;57;56.9;-5;-5.0;28.9;-1.0;
15/06/2019 11:35:39;117;0;264.28;17;16.61;0.54;27.0;10.40;69309;5124.796;-12833.188;261;150;156.4;57;57.1;-3;-3.2;28.9;-1.0;
15/06/2019 11:35:59;117;0;268.33;17;16.29;2.10;25.3;10.50;69343;5124.796;-12833.188;261;150;156.4;57;56.9;-6;-6.3;28.9;-1.0;
15/06/2019 11:36:19;117;0;268.98;17;16.38;0.01;23.6;10.50;69361;5124.796;-12833.188;261;150;158.4;57;56.9;-6;-6.8;29.0;-1.0;
15/06/2019 11:36:39;117;0;267.48;17;16.26;0.04;21.9;10.50;69389;5124.796;-12833.188;261;150;156.4;57;56.9;-6;-6.8;28.9;-1.0;
15/06/2019 11:36:59;117;0;265.38;17;16.24;0.02;20.2;10.60;69419;5124.796;-12833.188;261;150;156.4;57;57.1;-5;-5.0;29.0;-1.0;
15/06/2019 11:37:19;117;0;262.86;17;15.98;1.28;18.6;10.60;69431;5124.796;-12833.188;261;150;156.4;57;57.1;-4;-4.1;28.9;-1.0;
15/06/2019 11:37:39;117;0;258.84;17;15.96;1.24;17.0;10.70;69461;5124.796;-12833.188;261;150;156.4;57;57.1;-3;-3.2;29.0;-1.0;
15/06/2019 11:37:59;117;0;262.51;17;15.97;2.23;15.4;10.70;69475;5124.796;-12833.188;261;150;156.4;57;56.9;-7;-7.2;28.9;-1.0;
15/06/2019 11:38:19;117;0;263.53;17;16.09;-0.41;13.7;10.70;69492;5124.796;-12833.188;261;150;158.4;57;56.9;-8;-8.1;28.9;-1.0;
15/06/2019 11:38:39;117;0;267.69;17;15.87;-0.91;12.0;10.80;69504;5124.796;-12833.188;261;150;158.4;57;57.1;-11;-11.3;28.9;-1.0;
15/06/2019 11:38:59;117;0;270.66;17;15.62;-2.62;10.2;10.80;69522;5124.796;-12833.188;261;150;156.4;57;56.9;-13;-13.5;28.9;-1.0;
