Timestamp;NavState;SecurityLevel;Heading;Declination;Pitch;Roll;Depth;Temperature;Pa;Lat;Lon;DesiredH;BallastCmd;BallastPos;LinCmd;LinPos;AngCmd;AngPos;Voltage;Altitude;
14/06/2019 10:46:44;117;0;213.44;17;22.44;2.08;8.4;10.50;69382;5135.312;-12821.650;212;150;158.4;54;54.2;0;0.5;29.2;-1.0;
14/06/2019 10:46:54;115;0;205.11;17;22.61;3.73;7.4;10.50;69401;5135.312;-12821.650;212;500;170.3;100;99.0;0;0.5;29.2;-1.0;
14/06/2019 10:47:04;115;0;177.26;17;-16.33;3.78;6.5;10.50;69331;5135.312;-12821.650;212;500;320.8;100;100.3;0;0.9;28.8;-1.0;
14/06/2019 10:47:14;115;0;179.93;17;-60.65;2.67;7.4;10.50;69140;5135.312;-12821.650;212;500;471.3;100;100.4;0;0.9;28.8;-1.0;
14/06/2019 10:47:24;115;0;268.60;17;-62.88;-2.63;7.3;10.50;68897;5135.312;-12821.650;212;500;506.9;100;100.4;0;0.9;28.9;-1.0;
14/06/2019 10:47:34;115;0;318.89;17;-37.48;0.94;4.7;10.60;68879;5135.312;-12821.650;212;500;508.9;100;100.3;0;0.9;29.1;-1.0;
14/06/2019 10:47:44;116;0;4.01;17;-73.98;-7.84;1.4;10.60;68888;5135.312;-12821.650;212;500;506.9;100;100.4;0;0.9;29.2;-1.0;
14/06/2019 10:48:04;116;0;355.92;17;-22.21;4.68;1.2;10.70;68915;5135.312;-12821.650;212;500;506.9;100;100.3;0;0.9;29.2;-1.0;
14/06/2019 10:48:24;116;0;321.45;17;-6.49;1.73;1.1;10.80;68930;5135.312;-12821.650;212;500;508.9;100;100.3;0;0.9;29.1;-1.0;
14/06/2019 10:48:44;116;0;307.45;17;-9.62;2.18;1.1;10.80;68953;5135.312;-12821.650;212;500;508.9;100;100.3;0;0.9;29.1;-1.0;
14/06/2019 10:49:04;116;0;295.91;17;-11.84;4.39;1.1;10.90;68965;5135.312;-12821.650;212;500;508.9;100;100.3;0;0.9;29.0;-1.0;
14/06/2019 10:49:24;116;0;318.13;17;-7.43;3.76;1.1;11.00;68971;5134.844;-12821.998;212;500;510.9;100;100.3;0;0.9;29.2;-1.0;
14/06/2019 10:50:55;116;0;311.55;17;-9.41;5.68;1.1;11.70;69024;5134.844;-12821.997;212;500;508.9;100;100.1;0;0.9;29.1;-1.0;
14/06/2019 10:51:15;116;0;321.94;17;-3.33;-0.95;1.1;11.80;69034;5134.860;-12821.976;212;500;508.9;100;100.3;0;0.9;29.1;-1.0;
14/06/2019 10:51:35;116;0;317.87;17;-26.99;5.28;1.2;11.90;69034;5134.789;-12822.094;212;500;508.9;100;100.3;0;0.9;29.2;-1.0;
14/06/2019 10:57:11;116;0;298.33;17;-10.76;7.34;1.2;13.20;69129;5134.789;-12822.094;212;500;508.9;100;100.1;0;0.9;29.2;-1.0;
14/06/2019 10:57:31;116;0;309.21;17;-10.35;0.75;1.1;13.20;69116;5134.786;-12822.101;212;500;508.9;100;100.1;0;0.9;29.2;-1.0;
14/06/2019 10:57:51;116;0;303.73;17;-4.63;8.50;1.0;13.30;69130;5134.782;-12822.108;212;500;510.9;100;100.1;0;0.9;29.2;-1.0;
14/06/2019 10:58:11;116;0;318.75;17;-6.28;5.93;1.1;13.30;69120;5134.780;-12822.111;212;500;508.9;100;100.1;0;0.9;29.1;-1.0;
14/06/2019 10:58:31;116;0;319.66;17;-11.92;6.55;1.1;13.40;69140;5134.779;-12822.114;212;500;508.9;100;100.1;0;0.9;29.2;-1.0;
14/06/2019 10:58:51;116;0;338.06;17;-7.48;3.48;1.1;13.40;69133;5134.779;-12822.118;212;500;508.9;100;100.3;0;0.9;29.2;-1.0;
14/06/2019 10:59:11;116;0;309.29;17;-9.18;1.72;1.1;13.50;69143;5134.775;-12822.124;212;500;508.9;100;100.3;0;0.9;29.2;-1.0;
14/06/2019 10:59:31;116;0;301.65;17;-15.71;0.00;1.1;13.50;69140;5134.774;-12822.128;212;500;508.9;100;100.3;0;0.9;29.2;-1.0;
14/06/2019 10:59:51;116;0;313.14;17;-23.64;2.77;1.3;13.60;69138;5134.772;-12822.133;212;500;508.9;100;100.3;0;0.9;29.2;-1.0;
14/06/2019 11:00:11;116;0;309.09;17;-5.95;4.36;1.1;13.60;69147;5134.765;-12822.139;212;500;510.9;100;100.3;0;0.9;29.1;-1.0;
14/06/2019 11:00:48;116;0;309.27;17;-12.25;-4.24;1.2;13.70;69157;5134.764;-12822.137;212;500;508.9;100;100.3;0;0.9;29.1;-1.0;
14/06/2019 11:01:08;116;0;318.62;17;-30.51;2.72;1.3;13.70;69157;5134.758;-12822.152;212;500;510.9;100;100.1;0;0.9;29.2;-1.0;
14/06/2019 11:01:30;116;0;287.43;17;-13.82;4.99;1.1;13.80;69159;5134.758;-12822.152;212;500;508.9;100;100.3;0;0.9;29.1;-1.0;
14/06/2019 11:01:50;110;0;323.50;17;-16.74;0.55;1.1;13.80;69157;5134.758;-12822.152;212;-250;402.0;100;100.3;0;0.9;29.1;-1.0;
14/06/2019 11:02:00;110;0;323.84;17;-32.60;2.95;1.5;13.90;69416;5134.758;-12822.152;212;-250;247.5;100;100.3;0;0.9;29.1;-1.0;
14/06/2019 11:02:10;110;0;322.66;17;-46.01;0.83;1.8;13.90;69603;5134.758;-12822.152;212;-250;79.2;100;100.4;0;0.9;29.1;-1.0;
14/06/2019 11:02:20;110;0;325.29;17;-61.39;-1.35;2.2;13.90;69900;5134.758;-12822.152;212;-250;-97.0;100;100.4;0;0.9;29.1;-1.0;
14/06/2019 11:02:30;110;0;329.82;17;-65.44;7.36;2.5;13.90;70176;5134.758;-12822.152;212;-250;-247.5;89;88.8;0;0.9;29.1;-1.0;
14/06/2019 11:02:40;110;0;324.72;17;-52.56;5.74;3.9;13.90;70426;5134.758;-12822.152;212;-250;-249.5;72;72.0;0;0.9;29.1;-1.0;
14/06/2019 11:02:50;100;0;321.05;17;-37.08;3.30;6.3;14.00;70408;5134.758;-12822.152;212;-250;-247.5;71;70.9;0;0.9;29.2;-1.0;
14/06/2019 11:03:10;100;0;308.05;17;-25.39;4.41;10.3;13.90;70396;5134.758;-12822.152;212;-250;-245.5;71;70.9;45;45.1;29.1;0.0;
14/06/2019 11:03:30;100;0;287.68;17;-20.50;25.30;13.7;13.90;70368;5134.758;-12822.152;212;-250;-245.5;71;70.9;36;36.1;29.1;0.0;
14/06/2019 11:03:50;100;0;270.60;17;-19.95;20.25;16.6;13.90;70337;5134.758;-12822.152;212;-250;-245.5;71;70.9;24;23.5;29.1;0.0;
14/06/2019 11:04:10;100;0;250.15;17;-20.53;14.20;19.6;13.80;70310;5134.758;-12822.152;212;-250;-245.5;71;70.9;16;15.8;29.1;0.0;
14/06/2019 11:04:30;100;0;233.16;17;-20.57;10.38;22.6;13.80;70309;5134.758;-12822.152;212;-250;-243.6;71;70.9;11;10.8;29.2;0.0;
14/06/2019 11:04:50;100;0;223.52;17;-21.51;7.98;25.5;13.70;70277;5134.758;-12822.152;212;-250;-243.6;71;70.9;11;10.4;29.2;0.0;
14/06/2019 11:05:10;100;0;213.00;17;-21.02;7.97;28.6;13.70;70260;5134.758;-12822.152;212;-250;-243.6;71;70.9;9;9.0;29.1;0.0;
14/06/2019 11:05:30;100;0;201.72;17;-21.55;7.28;31.5;13.70;70232;5134.758;-12822.152;212;-250;-243.6;71;70.9;7;6.8;29.2;0.0;
14/06/2019 11:05:50;100;0;190.81;17;-20.36;6.14;34.4;13.60;70193;5134.758;-12822.152;212;-250;-243.6;71;70.9;7;6.3;29.1;0.0;
14/06/2019 11:06:10;100;0;183.64;17;-19.81;6.16;37.3;13.50;70147;5134.758;-12822.152;212;-250;-243.6;71;70.8;5;5.0;29.1;0.0;
14/06/2019 11:06:30;100;0;172.44;17;-19.87;5.28;40.1;13.50;70116;5134.758;-12822.152;212;-250;-243.6;71;70.8;1;0.5;29.1;0.0;
14/06/2019 11:06:50;100;0;166.98;17;-20.58;3.13;43.0;13.40;70085;5134.758;-12822.152;212;-250;-243.6;71;70.9;1;0.0;29.1;0.0;
14/06/2019 11:07:10;100;0;157.39;17;-20.06;3.12;45.7;13.30;70049;5134.758;-12822.152;212;-250;-243.6;71;70.8;-1;-0.9;29.2;0.0;
14/06/2019 11:07:30;100;0;151.91;17;-20.60;2.71;48.4;13.30;70038;5134.758;-12822.152;212;-250;-241.6;71;70.8;-2;-1.8;29.1;0.0;
14/06/2019 11:07:50;100;0;146.17;17;-20.24;2.13;51.1;13.20;70017;5134.758;-12822.152;212;-250;-243.6;71;70.9;-4;-4.5;29.1;0.0;
14/06/2019 11:08:10;100;0;138.18;17;-20.25;1.12;53.9;13.10;69990;5134.758;-12822.152;212;-250;-243.6;71;70.8;-8;-8.6;29.1;0.0;
14/06/2019 11:08:30;100;0;131.94;17;-19.98;-0.74;56.6;13.10;69975;5134.758;-12822.152;212;-250;-241.6;71;70.8;-12;-12.2;29.1;0.0;
14/06/2019 11:08:50;100;0;127.76;17;-20.31;-2.67;59.2;13.00;69959;5134.758;-12822.152;212;-250;-243.6;71;70.8;-14;-14.0;29.1;0.0;
14/06/2019 11:09:10;100;0;126.49;17;-19.64;-3.54;61.7;13.00;69946;5134.758;-12822.152;212;-250;-241.6;71;70.8;-16;-15.8;29.2;0.0;
14/06/2019 11:09:30;100;0;129.33;17;-19.88;-4.27;64.2;12.90;69931;5134.758;-12822.152;212;-250;-243.6;71;70.8;-15;-14.9;29.1;0.0;
14/06/2019 11:09:50;100;0;132.01;17;-20.32;-3.26;66.6;12.80;69918;5134.758;-12822.152;212;-250;-241.6;71;70.8;-16;-15.8;29.2;0.0;
14/06/2019 11:10:10;100;0;131.97;17;-20.06;-4.24;68.8;12.80;69913;5134.758;-12822.152;212;-250;-241.6;71;70.8;-20;-19.9;29.2;0.0;
14/06/2019 11:10:30;100;0;132.74;17;-20.44;-6.09;71.1;12.70;69898;5134.758;-12822.152;212;-250;-241.6;71;70.8;-22;-22.1;29.2;0.0;
14/06/2019 11:10:50;100;0;131.96;17;-19.56;-7.05;73.6;12.70;69885;5134.758;-12822.152;212;-250;-243.6;71;70.8;-25;-24.8;29.1;0.0;
14/06/2019 11:11:10;100;0;129.81;17;-19.17;-8.51;76.0;12.60;69875;5134.758;-12822.152;212;-250;-241.6;71;70.8;-28;-28.0;29.2;0.0;
14/06/2019 11:11:30;100;0;127.48;17;-18.92;-9.79;78.4;12.60;69870;5134.758;-12822.152;212;-250;-241.6;71;70.8;-29;-29.3;29.2;0.0;
14/06/2019 11:11:50;100;0;123.00;17;-19.44;-10.42;80.6;12.50;69858;5134.758;-12822.152;212;-250;-241.6;71;70.8;-31;-31.1;29.2;0.0;
14/06/2019 11:12:10;100;0;128.94;17;-18.65;-11.35;82.8;12.50;69853;5134.758;-12822.152;212;-250;-241.6;71;70.8;-27;-26.6;29.1;0.0;
14/06/2019 11:12:30;100;0;130.58;17;-18.73;-8.89;85.1;12.40;69839;5134.758;-12822.152;212;-250;-241.6;71;70.8;-26;-26.2;29.1;0.0;
14/06/2019 11:12:50;100;0;133.43;17;-18.20;-8.74;87.3;12.40;69836;5134.758;-12822.152;212;-250;-243.6;71;70.8;-25;-24.8;29.2;0.0;
14/06/2019 11:13:10;100;0;134.18;17;-18.48;-8.13;89.4;12.30;69832;5134.758;-12822.152;212;-250;-241.6;71;70.8;-25;-24.4;29.2;0.0;
14/06/2019 11:13:30;100;0;131.16;17;-18.35;-7.70;91.4;12.30;69814;5134.758;-12822.152;212;-250;-241.6;71;70.8;-28;-28.0;29.2;0.0;
14/06/2019 11:13:50;100;0;134.91;17;-18.05;-10.11;93.3;12.20;69807;5134.758;-12822.152;212;-250;-241.6;71;70.8;-26;-25.7;29.2;0.0;
14/06/2019 11:14:10;100;0;139.42;17;-17.28;-8.56;95.3;12.20;69791;5134.758;-12822.152;212;-250;-241.6;71;70.8;-23;-23.0;29.1;0.0;
14/06/2019 11:14:30;100;0;141.22;17;-17.44;-7.02;97.2;12.10;69781;5134.758;-12822.152;212;-250;-241.6;71;70.9;-23;-22.1;29.2;0.0;
14/06/2019 11:14:50;100;0;137.84;17;-16.65;-6.91;99.0;12.10;69768;5134.758;-12822.152;212;-250;-241.6;71;70.8;-26;-26.2;29.1;0.0;
14/06/2019 11:15:10;100;0;132.95;17;-16.32;-9.17;100.8;12.00;69772;5134.758;-12822.152;212;-250;-241.6;71;70.8;-29;-28.9;29.1;0.0;
14/06/2019 11:15:30;100;0;133.88;17;-16.34;-10.32;102.4;12.00;69759;5134.758;-12822.152;212;-250;-241.6;71;70.8;-27;-27.1;29.2;0.0;
14/06/2019 11:15:50;100;0;135.70;17;-16.47;-9.18;103.9;11.90;69751;5134.758;-12822.152;212;-250;-241.6;71;70.8;-26;-26.2;29.2;0.0;
14/06/2019 11:16:10;100;0;137.22;17;-15.86;-8.61;105.3;11.90;69736;5134.758;-12822.152;212;-250;-239.6;71;70.8;-25;-24.8;29.1;0.0;
14/06/2019 11:16:30;100;0;140.33;17;-16.12;-8.08;106.7;11.80;69733;5134.758;-12822.152;212;-250;-239.6;71;70.8;-24;-23.9;29.2;0.0;
14/06/2019 11:16:50;100;0;141.39;17;-16.03;-7.74;108.2;11.80;69717;5134.758;-12822.152;212;-250;-239.6;71;70.8;-24;-23.5;29.2;0.0;
14/06/2019 11:17:10;100;0;142.75;17;-16.06;-7.77;109.6;11.70;69717;5134.758;-12822.152;212;-250;-241.6;71;70.9;-24;-23.5;29.1;0.0;
14/06/2019 11:17:30;100;0;145.00;17;-16.16;-7.86;111.0;11.70;69707;5134.758;-12822.152;212;-250;-241.6;71;70.8;-23;-23.0;29.1;0.0;
14/06/2019 11:17:50;100;0;146.22;17;-15.93;-7.07;112.5;11.60;69699;5134.758;-12822.152;212;-250;-241.6;71;70.8;-23;-22.1;29.1;0.0;
14/06/2019 11:18:10;100;0;148.16;17;-15.55;-7.09;114.1;11.60;69697;5134.758;-12822.152;212;-250;-239.6;71;70.8;-22;-22.1;29.2;0.0;
14/06/2019 11:18:30;100;0;146.65;17;-15.55;-7.07;115.6;11.50;69692;5134.758;-12822.152;212;-250;-241.6;71;70.8;-24;-23.9;29.2;0.0;
14/06/2019 11:18:50;100;0;146.45;17;-15.94;-8.08;117.2;11.50;69681;5134.758;-12822.152;212;-250;-241.6;71;70.8;-24;-24.4;29.2;0.0;
14/06/2019 11:19:10;100;0;146.96;17;-15.40;-8.15;118.6;11.40;69671;5134.758;-12822.152;212;-250;-239.6;71;70.9;-24;-24.4;29.2;0.0;
14/06/2019 11:19:30;100;0;147.12;17;-15.49;-8.02;120.1;11.40;69681;5134.758;-12822.152;212;-250;-241.6;71;70.8;-24;-24.4;29.2;0.0;
14/06/2019 11:19:50;100;0;146.54;17;-15.24;-7.99;121.6;11.30;69654;5134.758;-12822.152;212;-250;-239.6;71;70.8;-24;-24.4;29.2;0.0;
14/06/2019 11:20:10;100;0;145.77;17;-15.40;-8.01;123.2;11.30;69654;5134.758;-12822.152;212;-250;-239.6;71;70.8;-25;-24.8;29.2;0.0;
14/06/2019 11:20:30;100;0;146.65;17;-15.44;-8.63;124.6;11.20;69640;5134.758;-12822.152;212;-250;-241.6;71;70.8;-24;-23.9;29.2;44.5;
14/06/2019 11:20:50;100;0;145.38;17;-15.09;-7.72;126.0;11.20;69633;5134.758;-12822.152;212;-250;-239.6;71;70.8;-25;-24.8;29.1;43.0;
14/06/2019 11:21:10;100;0;143.42;17;-14.89;-8.55;127.5;11.20;69624;5134.758;-12822.152;212;-250;-239.6;71;70.8;-26;-26.6;29.2;41.7;
14/06/2019 11:21:30;100;0;144.77;17;-14.83;-9.34;128.8;11.10;69619;5134.758;-12822.152;212;-250;-241.6;71;70.8;-25;-24.8;29.1;40.3;
14/06/2019 11:21:50;100;0;142.86;17;-15.08;-8.10;130.2;11.10;69616;5134.758;-12822.152;212;-250;-239.6;71;70.8;-26;-26.2;29.1;38.6;
14/06/2019 11:22:10;100;0;144.26;17;-14.96;-9.33;131.5;11.00;69605;5134.758;-12822.152;212;-250;-239.6;71;70.8;-24;-23.5;29.2;37.4;
14/06/2019 11:22:30;100;0;146.90;17;-14.89;-7.54;132.9;11.00;69590;5134.758;-12822.152;212;-250;-241.6;71;70.8;-23;-23.0;29.2;35.9;
14/06/2019 11:22:50;100;0;151.46;17;-14.59;-7.54;134.1;11.00;69587;5134.758;-12822.152;212;-250;-239.6;71;70.8;-21;-21.2;29.1;34.6;
14/06/2019 11:23:10;100;0;155.09;17;-14.58;-6.35;135.4;10.90;69577;5134.758;-12822.152;212;-250;-241.6;71;70.8;-20;-19.9;29.1;33.4;
14/06/2019 11:23:30;100;0;156.97;17;-14.43;-5.70;136.6;10.90;69582;5134.758;-12822.152;212;-250;-239.6;71;70.8;-20;-19.4;29.1;31.8;
14/06/2019 11:23:50;100;0;159.29;17;-14.38;-5.67;138.0;10.80;69578;5134.758;-12822.152;212;-250;-239.6;71;70.8;-20;-19.0;29.2;30.5;
14/06/2019 11:24:10;100;0;161.54;17;-14.30;-5.70;139.3;10.80;69572;5134.758;-12822.152;212;-250;-241.6;71;70.9;-19;-19.0;29.1;29.2;
14/06/2019 11:24:30;100;0;163.08;17;-14.29;-5.08;140.6;10.80;69558;5134.758;-12822.152;212;-250;-239.6;71;70.8;-19;-18.1;29.2;27.9;
14/06/2019 11:24:50;100;0;162.52;17;-14.35;-5.12;141.8;10.70;69556;5134.758;-12822.152;212;-250;-241.6;71;70.8;-20;-19.9;29.2;26.7;
14/06/2019 11:25:10;100;0;160.97;17;-14.36;-6.18;143.0;10.70;69551;5134.758;-12822.152;212;-250;-241.6;71;70.8;-22;-22.1;29.2;25.3;
14/06/2019 11:25:30;100;0;162.24;17;-14.30;-7.35;144.2;10.60;69541;5134.758;-12822.152;212;-250;-239.6;71;70.8;-20;-19.9;29.2;24.1;
14/06/2019 11:25:50;100;0;162.11;17;-14.38;-5.51;145.4;10.60;69541;5134.758;-12822.152;212;-250;-239.6;71;70.8;-21;-21.2;29.1;22.8;
14/06/2019 11:26:10;100;0;162.23;17;-14.34;-6.90;146.7;10.60;69532;5134.758;-12822.152;212;-250;-239.6;71;70.8;-21;-21.7;29.2;21.5;
14/06/2019 11:26:30;100;0;161.83;17;-14.46;-6.94;147.9;10.50;69525;5134.758;-12822.152;212;-250;-239.6;71;70.8;-21;-21.7;29.1;20.2;
14/06/2019 11:26:50;100;0;162.61;17;-14.38;-6.94;149.2;10.50;69522;5134.758;-12822.152;212;-250;-239.6;71;70.8;-21;-21.7;29.1;19.0;
14/06/2019 11:27:10;118;0;163.52;17;-14.04;-6.91;150.4;10.50;69525;5134.758;-12822.152;212;150;-223.8;54;53.8;0;0.9;29.2;17.7;
14/06/2019 11:27:20;118;0;134.80;17;11.51;4.00;150.9;10.40;69436;5134.758;-12822.152;212;150;-67.3;54;54.2;0;0.5;28.7;17.7;
14/06/2019 11:27:30;118;0;135.92;17;29.78;3.48;150.4;10.50;69229;5134.758;-12822.152;212;150;89.1;54;54.2;0;0.5;28.7;-1.0;
14/06/2019 11:27:40;118;0;136.48;17;30.58;3.67;149.4;10.40;68969;5134.758;-12822.152;212;150;156.4;54;54.1;0;0.9;28.6;-1.0;
14/06/2019 11:27:50;118;0;173.12;17;31.96;3.71;147.7;10.40;68884;5134.758;-12822.152;212;150;156.4;54;54.1;0;0.5;29.1;-1.0;
14/06/2019 11:28:00;117;0;174.04;17;33.48;3.53;145.6;10.40;68884;5134.758;-12822.152;212;150;156.4;54;54.1;0;0.5;29.1;-1.0;
14/06/2019 11:28:20;117;0;175.25;17;33.91;3.79;140.4;10.40;68878;5134.758;-12822.152;212;150;156.4;54;54.1;13;13.1;29.1;-1.0;
14/06/2019 11:28:40;117;0;175.12;17;33.64;10.19;134.5;10.30;68876;5134.758;-12822.152;212;150;156.4;54;54.1;16;15.8;29.1;-1.0;
14/06/2019 11:29:00;117;0;174.39;17;34.11;12.01;129.0;10.30;68879;5134.758;-12822.152;212;150;156.4;54;54.1;18;18.1;29.1;-1.0;
14/06/2019 11:29:20;117;0;183.63;17;32.39;12.53;123.6;10.30;68876;5134.758;-12822.152;212;150;156.4;54;54.1;13;13.1;29.2;-1.0;
14/06/2019 11:29:41;117;0;187.74;17;32.05;9.07;118.7;10.20;68883;5134.758;-12822.152;212;150;156.4;54;54.1;12;12.2;29.2;-1.0;
14/06/2019 11:30:01;117;0;192.34;17;32.31;9.36;114.0;10.20;68885;5134.758;-12822.152;212;150;156.4;54;54.1;11;10.8;29.1;-1.0;
14/06/2019 11:30:21;117;0;192.95;17;32.59;8.55;109.3;10.20;68906;5134.758;-12822.152;212;150;156.4;54;54.1;13;13.1;29.2;-1.0;
14/06/2019 11:30:41;117;0;199.19;17;32.22;10.37;104.1;10.20;68925;5134.758;-12822.152;212;150;156.4;54;54.1;13;14.0;29.2;-1.0;
14/06/2019 11:31:01;117;0;204.03;17;31.35;10.37;99.0;10.10;68917;5134.758;-12822.152;212;150;156.4;54;54.2;9;9.0;29.2;-1.0;
14/06/2019 11:31:21;117;0;197.74;17;30.82;7.77;94.6;10.10;68924;5134.758;-12822.152;212;150;158.4;54;54.1;14;14.0;29.2;-1.0;
14/06/2019 11:31:41;117;0;200.13;17;30.19;10.21;90.3;10.10;68939;5134.758;-12822.152;212;150;156.4;54;54.1;12;12.2;29.1;-1.0;
14/06/2019 11:32:01;117;0;209.25;17;30.18;9.67;86.1;10.10;68954;5134.758;-12822.152;212;150;156.4;54;54.1;7;7.2;29.1;-1.0;
14/06/2019 11:32:21;117;0;208.02;17;29.20;6.71;82.0;10.10;68957;5134.758;-12822.152;212;150;156.4;54;54.1;9;9.5;29.1;-1.0;
14/06/2019 11:32:41;117;0;210.71;17;28.27;8.33;78.0;10.10;68971;5134.758;-12822.152;212;150;156.4;54;54.1;8;7.7;29.1;-1.0;
14/06/2019 11:33:01;117;0;209.05;17;28.29;7.25;74.4;10.10;68979;5134.758;-12822.152;212;150;156.4;54;54.2;8;7.2;29.1;-1.0;
14/06/2019 11:33:21;117;0;209.88;17;27.84;6.78;71.1;10.10;68982;5134.758;-12822.152;212;150;156.4;54;54.1;8;7.2;29.1;-1.0;
14/06/2019 11:33:41;117;0;212.13;17;28.07;6.90;67.9;10.10;68990;5134.758;-12822.152;212;150;158.4;54;54.1;6;5.9;29.1;-1.0;
14/06/2019 11:34:01;117;0;215.84;17;28.19;5.99;64.4;10.10;68998;5134.758;-12822.152;212;150;156.4;54;54.1;4;4.1;29.1;-1.0;
14/06/2019 11:34:21;117;0;220.72;17;27.52;5.27;60.7;10.10;69001;5134.758;-12822.152;212;150;158.4;54;54.1;1;0.9;29.1;-1.0;
14/06/2019 11:34:41;117;0;214.76;17;27.32;3.54;57.3;10.10;69012;5134.758;-12822.152;212;150;158.4;54;54.1;6;5.9;29.2;-1.0;
14/06/2019 11:35:01;117;0;214.27;17;26.30;6.62;54.0;10.10;69024;5134.758;-12822.152;212;150;156.4;54;54.1;5;5.0;29.1;-1.0;
14/06/2019 11:35:21;117;0;213.52;17;26.59;5.28;51.0;10.10;69029;5134.758;-12822.152;212;150;156.4;54;54.1;4;4.1;29.1;-1.0;
14/06/2019 11:35:41;117;0;214.37;17;26.02;5.13;47.9;10.10;69031;5134.758;-12822.152;212;150;158.4;54;54.1;3;3.2;29.1;-1.0;
14/06/2019 11:36:01;117;0;212.77;17;26.12;4.70;44.7;10.00;69035;5134.758;-12822.152;212;150;158.4;54;54.1;3;2.7;29.1;-1.0;
14/06/2019 11:36:21;117;0;217.84;17;26.25;4.58;41.6;10.10;69054;5134.758;-12822.152;212;150;158.4;54;54.1;0;-0.5;29.1;-1.0;
14/06/2019 11:36:41;117;0;216.94;17;25.87;2.97;38.5;10.10;69062;5134.758;-12822.152;212;150;158.4;54;54.1;0;-0.9;29.1;-1.0;
14/06/2019 11:37:01;117;0;215.70;17;25.59;2.86;35.8;10.10;69085;5134.758;-12822.152;212;150;158.4;54;54.1;0;-0.9;29.1;-1.0;
14/06/2019 11:37:21;117;0;216.39;17;24.99;2.72;32.9;10.10;69095;5134.758;-12822.152;212;150;158.4;54;54.1;0;-0.9;29.2;-1.0;
14/06/2019 11:37:41;117;0;217.21;17;24.85;2.80;30.2;10.10;69120;5134.758;-12822.152;212;150;158.4;54;54.1;-1;-0.9;29.2;-1.0;
14/06/2019 11:38:01;117;0;214.61;17;24.61;2.98;27.3;10.10;69161;5134.758;-12822.152;212;150;156.4;54;54.1;0;0.5;29.1;-1.0;
14/06/2019 11:38:21;117;0;216.66;17;23.88;3.73;24.6;10.20;69194;5134.758;-12822.152;212;150;158.4;54;54.2;-2;-2.3;29.1;-1.0;
14/06/2019 11:38:41;117;0;217.19;17;23.81;2.04;22.1;10.20;69217;5134.758;-12822.152;212;150;158.4;54;54.2;-3;-3.2;29.1;-1.0;
14/06/2019 11:39:01;117;0;217.66;17;23.92;1.43;19.4;10.20;69256;5134.758;-12822.152;212;150;158.4;54;54.2;-3;-4.1;29.1;-1.0;
14/06/2019 11:39:21;117;0;219.97;17;23.02;1.61;16.9;10.20;69274;5134.758;-12822.152;212;150;158.4;54;54.1;-5;-5.0;29.1;-1.0;
14/06/2019 11:39:41;117;0;220.72;17;22.86;0.43;14.5;10.30;69306;5134.758;-12822.152;212;150;158.4;54;54.1;-5;-5.9;29.1;-1.0;
14/06/2019 11:40:01;117;0;219.12;17;21.97;0.66;12.1;10.30;69338;5134.758;-12822.152;212;150;158.4;54;54.2;-5;-5.9;29.1;-1.0;
14/06/2019 11:40:21;117;0;209.86;17;21.12;0.79;10.0;10.40;69381;5134.758;-12822.152;212;150;158.4;54;54.1;0;0.0;29.1;-1.0;
