Timestamp;NavState;SecurityLevel;Heading;Declination;Pitch;Roll;Depth;Temperature;Pa;Lat;Lon;DesiredH;BallastCmd;BallastPos;LinCmd;LinPos;AngCmd;AngPos;Voltage;Altitude;
15/06/2019 15:21:45;117;0;274.35;17;15.41;1.12;9.8;10.80;69452;5123.708;-12836.878;275;150;158.4;57;57.2;-6;-6.3;28.9;-1.0;
15/06/2019 15:21:55;110;0;273.36;17;15.59;0.14;9.2;10.80;69466;5123.708;-12836.878;275;-300;-65.3;73;73.2;0;0.5;28.9;-1.0;
15/06/2019 15:22:05;110;0;285.82;17;-10.36;4.04;8.8;10.80;69990;5123.708;-12836.878;275;-300;-303.0;73;72.9;0;0.9;28.8;-1.0;
15/06/2019 15:22:15;110;0;287.83;17;-23.10;4.17;9.5;10.80;70274;5123.708;-12836.878;275;-300;-303.0;73;72.9;0;0.9;28.9;-1.0;
15/06/2019 15:22:25;100;0;283.21;17;-27.04;4.26;11.2;10.90;70261;5123.708;-12836.878;275;-300;-305.0;73;73.0;0;0.9;28.9;-1.0;
15/06/2019 15:22:45;100;0;268.26;17;-26.04;3.99;15.4;10.90;70268;5123.708;-12836.878;275;-300;-306.9;73;72.9;2;1.8;28.9;0.0;
15/06/2019 15:23:05;100;0;254.38;17;-25.85;4.72;19.9;11.00;70257;5123.708;-12836.878;275;-300;-305.0;73;73.0;2;2.3;28.9;0.0;
15/06/2019 15:23:25;100;0;241.15;17;-25.98;4.81;23.9;11.00;70238;5123.708;-12836.878;275;-300;-305.0;73;73.0;-9;-9.0;28.9;0.0;
15/06/2019 15:23:45;100;0;234.30;17;-25.90;-1.05;28.0;11.00;70211;5123.708;-12836.878;275;-300;-305.0;73;73.0;-10;-9.9;28.9;0.0;
15/06/2019 15:24:05;100;0;233.35;17;-25.23;-0.82;31.9;11.00;70166;5123.708;-12836.878;275;-300;-305.0;73;72.9;-8;-8.1;28.9;0.0;
15/06/2019 15:24:25;100;0;234.18;17;-24.56;0.14;35.9;11.00;70124;5123.708;-12836.878;275;-300;-305.0;73;73.0;-6;-5.9;28.9;0.0;
15/06/2019 15:24:45;100;0;225.56;17;-24.50;1.21;39.6;11.00;70076;5123.708;-12836.878;275;-300;-305.0;73;72.9;-11;-10.8;28.9;0.0;
15/06/2019 15:25:05;100;0;221.96;17;-24.53;-1.69;43.3;11.00;70051;5123.708;-12836.878;275;-300;-305.0;73;73.0;-12;-12.2;28.9;0.0;
15/06/2019 15:25:25;100;0;216.23;17;-24.34;-2.20;47.3;11.00;70027;5123.708;-12836.878;275;-300;-305.0;73;72.9;-14;-14.0;28.9;0.0;
15/06/2019 15:25:45;100;0;212.63;17;-24.47;-3.16;51.1;11.00;70019;5123.708;-12836.878;275;-300;-305.0;73;72.9;-16;-15.8;28.9;0.0;
15/06/2019 15:26:05;100;0;209.43;17;-24.61;-3.81;55.0;11.00;69998;5123.708;-12836.878;275;-300;-305.0;73;72.9;-18;-18.1;28.9;0.0;
15/06/2019 15:26:25;100;0;207.38;17;-24.00;-4.92;58.9;11.00;69969;5123.708;-12836.878;275;-300;-305.0;73;72.9;-20;-19.9;28.9;0.0;
15/06/2019 15:26:45;100;0;204.41;17;-24.52;-5.81;62.7;11.00;69946;5123.708;-12836.878;275;-300;-306.9;73;72.9;-23;-23.5;28.9;0.0;
15/06/2019 15:27:05;100;0;202.07;17;-24.27;-7.35;66.5;10.90;69939;5123.708;-12836.878;275;-300;-306.9;73;72.9;-25;-24.8;28.9;0.0;
15/06/2019 15:27:25;100;0;208.19;17;-24.09;-8.21;70.2;10.90;69923;5123.708;-12836.878;275;-300;-305.0;73;72.9;-23;-23.0;28.9;0.0;
15/06/2019 15:27:45;100;0;207.80;17;-24.51;-6.70;73.8;10.90;69915;5123.708;-12836.878;275;-300;-305.0;73;72.9;-24;-23.9;28.9;0.0;
15/06/2019 15:28:05;100;0;208.24;17;-23.98;-7.87;77.3;10.90;69905;5123.708;-12836.878;275;-300;-305.0;73;72.9;-24;-24.4;28.9;0.0;
15/06/2019 15:28:25;100;0;222.60;17;-24.41;-8.20;80.6;10.90;69891;5123.708;-12836.878;275;-300;-305.0;73;72.9;-16;-15.8;28.9;0.0;
15/06/2019 15:28:45;100;0;225.93;17;-23.83;-3.52;84.0;10.90;69881;5123.708;-12836.878;275;-300;-305.0;73;72.9;-17;-17.1;28.9;0.0;
15/06/2019 15:29:05;100;0;222.15;17;-23.55;-4.85;87.4;10.80;69871;5123.708;-12836.878;275;-300;-305.0;73;72.9;-21;-21.2;28.9;0.0;
15/06/2019 15:29:25;100;0;217.97;17;-22.85;-6.59;90.7;10.80;69851;5123.708;-12836.878;275;-300;-305.0;73;72.9;-24;-23.9;28.9;0.0;
15/06/2019 15:29:45;100;0;212.04;17;-23.55;-7.72;93.9;10.80;69841;5123.708;-12836.878;275;-300;-305.0;73;72.9;-26;-26.2;28.9;0.0;
15/06/2019 15:30:05;100;0;205.14;17;-22.69;-8.82;97.2;10.80;69821;5123.708;-12836.878;275;-300;-305.0;73;72.9;-29;-28.9;28.9;0.0;
15/06/2019 15:30:25;100;0;209.50;17;-22.03;-10.21;100.2;10.70;69823;5123.708;-12836.878;275;-300;-305.0;73;72.9;-25;-24.8;28.9;0.0;
15/06/2019 15:30:45;100;0;216.45;17;-21.95;-7.82;103.2;10.70;69803;5123.708;-12836.878;275;-300;-306.9;73;72.9;-20;-19.4;28.9;0.0;
15/06/2019 15:31:05;100;0;210.52;17;-21.08;-5.21;106.2;10.70;69800;5123.708;-12836.878;275;-300;-305.0;73;72.9;-25;-24.8;28.9;0.0;
15/06/2019 15:31:25;100;0;203.97;17;-21.00;-8.25;109.0;10.70;69784;5123.708;-12836.878;275;-300;-306.9;73;72.9;-28;-28.0;28.9;0.0;
15/06/2019 15:31:45;100;0;195.76;17;-21.08;-9.85;111.8;10.70;69778;5123.708;-12836.878;275;-300;-306.9;73;72.9;-31;-31.1;28.9;0.0;
15/06/2019 15:32:05;100;0;194.30;17;-21.20;-11.37;114.3;10.60;69756;5123.708;-12836.878;275;-300;-305.0;73;72.9;-30;-29.8;28.9;0.0;
15/06/2019 15:32:25;100;0;195.32;17;-21.35;-10.29;116.6;10.60;69746;5123.708;-12836.878;275;-300;-305.0;73;72.9;-28;-28.0;28.9;9.1;
15/06/2019 15:32:45;118;0;197.78;17;-21.34;-9.30;118.9;10.60;69744;5123.708;-12836.878;275;150;-293.1;57;56.8;0;0.9;28.9;0.0;
15/06/2019 15:32:55;118;0;156.55;17;-0.64;4.26;120.0;10.60;69662;5123.708;-12836.878;275;150;-134.7;57;57.1;0;0.9;28.4;0.0;
15/06/2019 15:33:05;118;0;157.91;17;17.80;3.86;119.8;10.50;69441;5123.708;-12836.878;275;150;19.8;57;57.2;0;0.9;28.4;-1.0;
15/06/2019 15:33:15;118;0;157.48;17;22.53;3.94;119.0;10.50;69183;5123.708;-12836.878;275;150;156.4;57;57.1;0;0.9;28.4;-1.0;
15/06/2019 15:33:25;118;0;196.69;17;22.40;4.82;118.0;10.50;68978;5123.708;-12836.878;275;150;158.4;57;57.1;0;0.9;28.9;-1.0;
15/06/2019 15:33:35;118;0;197.00;17;24.58;4.02;116.5;10.50;68980;5123.708;-12836.878;275;150;156.4;57;57.1;0;0.9;28.9;-1.0;
15/06/2019 15:33:45;117;0;197.94;17;25.84;3.89;114.7;10.50;68975;5123.708;-12836.878;275;150;156.4;57;57.1;0;0.9;28.9;-1.0;
15/06/2019 15:34:05;117;0;204.05;17;26.16;4.05;110.8;10.50;68974;5123.708;-12836.878;275;150;156.4;57;57.1;22;22.1;28.9;-1.0;
15/06/2019 15:34:25;117;0;220.23;17;23.48;14.83;106.6;10.50;68981;5123.708;-12836.878;275;150;154.5;57;57.1;15;14.9;28.9;-1.0;
15/06/2019 15:34:45;117;0;222.26;17;23.31;10.26;103.4;10.50;68978;5123.708;-12836.878;275;150;156.4;57;57.1;17;17.6;28.9;-1.0;
15/06/2019 15:35:05;117;0;226.31;17;23.04;12.17;100.5;10.40;68983;5123.708;-12836.878;275;150;158.4;57;57.1;17;18.1;28.9;-1.0;
15/06/2019 15:35:25;117;0;227.81;17;22.97;12.10;97.6;10.40;68990;5123.708;-12836.878;275;150;156.4;57;57.2;18;18.1;28.9;-1.0;
15/06/2019 15:35:45;117;0;232.16;17;22.22;12.21;94.7;10.40;68999;5123.708;-12836.878;275;150;156.4;57;57.1;17;17.1;28.9;-1.0;
15/06/2019 15:36:05;117;0;241.22;17;21.63;11.56;91.9;10.40;68993;5123.708;-12836.878;275;150;154.5;57;57.2;13;13.1;28.9;-1.0;
15/06/2019 15:36:25;117;0;247.55;17;21.85;9.69;89.3;10.40;69000;5123.708;-12836.878;275;150;156.4;57;57.1;12;11.7;28.9;-1.0;
15/06/2019 15:36:45;117;0;257.75;17;21.29;8.71;86.8;10.30;69007;5123.708;-12836.878;275;150;156.4;57;57.1;12;11.3;28.9;-1.0;
15/06/2019 15:37:05;117;0;257.74;17;21.55;8.76;84.3;10.30;69000;5123.708;-12836.878;275;150;158.4;57;57.1;12;11.3;28.9;-1.0;
15/06/2019 15:37:25;117;0;260.12;17;21.12;8.69;81.8;10.30;69003;5123.708;-12836.878;275;150;156.4;57;57.1;12;11.3;28.9;-1.0;
15/06/2019 15:37:46;117;0;256.17;17;21.82;8.62;79.2;10.30;69019;5123.708;-12836.878;275;150;156.4;57;57.1;12;11.3;28.9;-1.0;
15/06/2019 15:38:06;117;0;264.75;17;20.50;8.83;76.5;10.30;69021;5123.708;-12836.878;275;150;156.4;57;57.1;10;9.9;28.9;-1.0;
15/06/2019 15:38:26;117;0;271.08;17;20.12;7.83;74.0;10.30;69029;5123.708;-12836.878;275;150;156.4;57;57.1;7;6.8;28.9;-1.0;
15/06/2019 15:38:46;117;0;273.96;17;19.89;6.31;71.7;10.30;69038;5123.708;-12836.878;275;150;156.4;57;57.1;7;6.3;28.9;-1.0;
15/06/2019 15:39:06;117;0;271.55;17;20.07;6.36;69.4;10.30;69043;5123.708;-12836.878;275;150;156.4;57;57.1;9;9.5;28.9;-1.0;
15/06/2019 15:39:26;117;0;274.20;17;19.82;8.20;67.0;10.30;69043;5123.708;-12836.878;275;150;158.4;57;57.1;7;7.2;28.9;-1.0;
15/06/2019 15:39:46;117;0;277.32;17;19.75;6.71;64.8;10.30;69048;5123.708;-12836.878;275;150;156.4;57;57.1;6;5.4;28.9;-1.0;
15/06/2019 15:40:06;117;0;278.13;17;19.71;5.61;62.5;10.30;69060;5123.708;-12836.878;275;150;156.4;57;57.1;5;5.0;28.9;-1.0;
15/06/2019 15:40:26;117;0;276.11;17;19.67;5.62;60.3;10.30;69056;5123.708;-12836.878;275;150;156.4;57;57.1;7;7.2;28.9;-1.0;
15/06/2019 15:40:46;117;0;276.05;17;19.59;7.03;58.2;10.30;69056;5123.708;-12836.878;275;150;156.4;57;57.1;6;5.9;28.9;-1.0;
15/06/2019 15:41:06;117;0;276.69;17;19.65;5.96;56.0;10.30;69076;5123.708;-12836.878;275;150;158.4;57;57.1;5;5.0;28.9;-1.0;
15/06/2019 15:41:26;117;0;274.47;17;19.86;5.20;53.8;10.30;69076;5123.708;-12836.878;275;150;156.4;57;57.1;6;5.9;28.8;-1.0;
15/06/2019 15:41:46;117;0;274.51;17;19.30;6.63;51.6;10.20;69071;5123.708;-12836.878;275;150;156.4;57;57.1;5;5.0;28.9;-1.0;
15/06/2019 15:42:06;117;0;273.63;17;19.18;5.39;49.5;10.30;69084;5123.708;-12836.878;275;150;156.4;57;57.2;5;4.5;28.9;-1.0;
15/06/2019 15:42:26;117;0;272.51;17;19.10;5.43;47.3;10.30;69092;5123.708;-12836.878;275;150;156.4;57;57.1;4;3.6;28.9;-1.0;
15/06/2019 15:42:46;117;0;274.32;17;18.99;4.84;45.1;10.30;69100;5123.708;-12836.878;275;150;156.4;57;57.1;2;1.4;28.9;-1.0;
15/06/2019 15:43:06;117;0;271.68;17;19.02;3.55;42.9;10.30;69106;5123.708;-12836.878;275;150;156.4;57;57.1;4;4.1;28.9;-1.0;
15/06/2019 15:43:26;117;0;268.75;17;18.96;5.35;40.8;10.30;69111;5123.708;-12836.878;275;150;156.4;57;57.1;5;5.0;28.9;-1.0;
15/06/2019 15:43:46;117;0;266.15;17;18.65;6.10;38.7;10.30;69123;5123.708;-12836.878;275;150;156.4;57;57.2;5;5.9;28.9;-1.0;
15/06/2019 15:44:06;117;0;268.00;17;18.36;6.20;36.6;10.30;69120;5123.708;-12836.878;275;150;156.4;57;57.1;2;1.4;28.9;-1.0;
15/06/2019 15:44:26;117;0;268.49;17;18.39;3.71;34.5;10.30;69128;5123.708;-12836.878;275;150;156.4;57;57.1;2;0.9;28.9;-1.0;
15/06/2019 15:44:46;117;0;271.45;17;18.68;3.70;32.4;10.30;69139;5123.708;-12836.878;275;150;156.4;57;57.1;0;0.0;28.9;-1.0;
15/06/2019 15:45:06;117;0;270.30;17;18.33;2.76;30.3;10.30;69156;5123.708;-12836.878;275;150;158.4;57;57.1;0;-0.9;28.9;-1.0;
15/06/2019 15:45:26;117;0;266.54;17;18.02;2.83;28.0;10.30;69176;5123.708;-12836.878;275;150;158.4;57;57.1;2;1.8;28.9;-1.0;
15/06/2019 15:45:46;117;0;262.02;17;17.33;4.28;26.0;10.30;69196;5123.708;-12836.878;275;150;156.4;57;57.1;4;4.5;28.9;-1.0;
15/06/2019 15:46:06;117;0;262.90;17;16.93;5.90;24.2;10.40;69227;5123.708;-12836.878;275;150;156.4;57;57.2;3;2.7;28.9;-1.0;
15/06/2019 15:46:26;117;0;262.75;17;16.05;4.50;22.3;10.40;69272;5123.708;-12836.878;275;150;156.4;57;57.1;2;1.8;28.9;-1.0;
15/06/2019 15:46:46;117;0;268.80;17;15.92;3.88;20.6;10.40;69308;5123.708;-12836.878;275;150;156.4;57;57.1;-1;-1.4;28.9;-1.0;
15/06/2019 15:47:06;117;0;272.39;17;15.93;2.38;18.9;10.50;69327;5123.708;-12836.878;275;150;156.4;57;57.1;-3;-3.2;28.9;-1.0;
15/06/2019 15:47:26;117;0;272.96;17;16.09;1.56;17.3;10.50;69366;5123.708;-12836.878;275;150;158.4;57;57.1;-2;-1.8;28.9;-1.0;
15/06/2019 15:47:46;117;0;276.22;17;16.00;2.94;15.7;10.50;69376;5123.708;-12836.878;275;150;156.4;57;57.1;-5;-5.0;28.9;-1.0;
15/06/2019 15:48:06;117;0;282.19;17;16.07;0.79;14.0;10.60;69401;5123.708;-12836.878;275;150;156.4;57;57.1;-8;-8.6;28.9;-1.0;
15/06/2019 15:48:26;117;0;284.45;17;16.04;-0.92;12.3;10.60;69419;5123.708;-12836.878;275;150;158.4;57;57.1;-8;-9.0;28.9;-1.0;
15/06/2019 15:48:46;117;0;285.24;17;15.73;-1.08;10.9;10.70;69445;5123.708;-12836.878;275;150;158.4;57;57.1;-8;-8.6;28.9;-1.0;
