Timestamp;NavState;SecurityLevel;Heading;Declination;Pitch;Roll;Depth;Temperature;Pa;Lat;Lon;DesiredH;BallastCmd;BallastPos;LinCmd;LinPos;AngCmd;AngPos;Voltage;Altitude;
16/06/2019 21:44:29;117;0;42.64;17;14.85;1.45;4.5;10.50;69448;5127.070;-12834.767;60;150;158.4;57;57.1;-5;-5.4;28.6;-1.0;
16/06/2019 21:44:39;110;0;39.56;17;16.26;-0.28;3.8;10.60;69466;5127.070;-12834.767;60;-300;21.8;73;73.2;0;0.5;28.6;-1.0;
16/06/2019 21:44:49;110;0;44.46;17;-11.43;4.10;3.3;10.60;69785;5127.070;-12834.767;60;-300;-166.3;73;72.9;0;0.5;28.5;-1.0;
16/06/2019 21:44:59;110;0;41.66;17;-25.22;4.68;3.8;10.60;70055;5127.070;-12834.767;60;-300;-303.0;73;72.9;0;0.9;28.5;-1.0;
16/06/2019 21:45:09;110;0;30.62;17;-26.86;3.84;5.2;10.60;70253;5127.070;-12834.767;60;-300;-303.0;73;72.9;0;0.9;28.6;-1.0;
16/06/2019 21:45:19;100;0;27.31;17;-27.92;3.90;7.1;10.70;70256;5127.070;-12834.767;60;-300;-303.0;73;72.9;0;0.9;28.6;-1.0;
16/06/2019 21:45:39;100;0;18.94;17;-25.99;3.97;11.5;10.70;70263;5127.070;-12834.767;60;-300;-303.0;73;73.0;-9;-9.5;28.6;0.0;
16/06/2019 21:45:59;100;0;11.00;17;-25.89;-1.04;16.2;10.80;70243;5127.070;-12834.767;60;-300;-303.0;73;72.9;-9;-9.9;28.7;0.0;
16/06/2019 21:46:19;100;0;3.74;17;-26.24;-1.03;20.4;10.80;70226;5127.070;-12834.767;60;-300;-303.0;73;72.9;-11;-10.8;28.6;0.0;
16/06/2019 21:46:39;100;0;3.39;17;-25.92;-1.77;24.4;10.90;70195;5127.070;-12834.767;60;-300;-303.0;73;73.0;-8;-8.1;28.6;0.0;
16/06/2019 21:46:59;100;0;353.61;17;-25.02;-0.03;28.5;10.90;70153;5127.070;-12834.767;60;-300;-305.0;73;72.9;-14;-14.0;28.6;0.0;
16/06/2019 21:47:19;100;0;353.08;17;-24.94;-3.11;32.7;10.90;70113;5127.070;-12834.767;60;-300;-303.0;73;72.9;-13;-13.1;28.6;0.0;
16/06/2019 21:47:39;100;0;349.16;17;-23.82;-2.26;36.7;10.90;70049;5127.070;-12834.767;60;-300;-303.0;73;72.9;-16;-16.2;28.6;0.0;
16/06/2019 21:47:59;100;0;345.76;17;-24.28;-4.14;40.6;10.90;70005;5127.070;-12834.767;60;-300;-303.0;73;72.9;-20;-19.9;28.6;0.0;
16/06/2019 21:48:19;100;0;343.40;17;-24.58;-5.80;44.6;10.90;69997;5127.070;-12834.767;60;-300;-303.0;73;72.9;-22;-22.1;28.6;0.0;
16/06/2019 21:48:39;100;0;345.98;17;-24.63;-6.84;48.5;10.90;69973;5127.070;-12834.767;60;-300;-303.0;73;72.9;-22;-22.6;28.6;0.0;
16/06/2019 21:48:59;100;0;352.48;17;-24.46;-6.90;52.4;10.90;69950;5127.070;-12834.767;60;-300;-303.0;73;73.0;-19;-19.0;28.6;0.0;
16/06/2019 21:49:20;100;0;350.44;17;-24.37;-4.85;56.2;10.80;69920;5127.070;-12834.767;60;-300;-303.0;73;72.9;-24;-23.9;28.6;0.0;
16/06/2019 21:49:40;100;0;351.04;17;-24.20;-7.77;60.0;10.80;69899;5127.070;-12834.767;60;-300;-303.0;73;72.9;-24;-24.4;28.6;0.0;
16/06/2019 21:50:00;100;0;347.21;17;-23.87;-7.61;63.9;10.80;69876;5127.070;-12834.767;60;-300;-303.0;73;72.9;-27;-27.1;28.6;0.0;
16/06/2019 21:50:20;100;0;348.40;17;-23.45;-9.37;67.5;10.80;69860;5127.070;-12834.767;60;-300;-303.0;73;72.9;-26;-25.7;28.6;0.0;
16/06/2019 21:50:40;100;0;347.28;17;-23.20;-8.33;71.0;10.80;69837;5127.070;-12834.767;60;-300;-303.0;73;72.9;-26;-25.3;28.6;0.0;
16/06/2019 21:51:00;100;0;350.46;17;-23.29;-8.28;74.3;10.80;69833;5127.070;-12834.767;60;-300;-303.0;73;73.0;-24;-23.9;28.6;0.0;
16/06/2019 21:51:20;100;0;351.62;17;-23.53;-7.41;77.6;10.70;69826;5127.070;-12834.767;60;-300;-303.0;73;72.9;-24;-23.5;28.6;0.0;
16/06/2019 21:51:40;100;0;350.21;17;-23.09;-7.40;81.0;10.70;69807;5127.070;-12834.767;60;-300;-303.0;73;72.9;-25;-24.8;28.6;0.0;
16/06/2019 21:52:00;100;0;353.35;17;-22.92;-8.21;84.2;10.70;69797;5127.070;-12834.767;60;-300;-303.0;73;72.9;-23;-23.0;28.6;0.0;
16/06/2019 21:52:20;100;0;351.40;17;-22.94;-6.79;87.6;10.70;69790;5127.070;-12834.767;60;-300;-303.0;73;72.9;-25;-25.3;28.6;0.0;
16/06/2019 21:52:40;100;0;353.18;17;-22.45;-8.33;91.1;10.70;69782;5127.070;-12834.767;60;-300;-303.0;73;72.9;-24;-23.9;28.6;0.0;
16/06/2019 21:53:00;100;0;355.33;17;-22.22;-7.21;94.3;10.60;69771;5127.070;-12834.767;60;-300;-303.0;73;72.9;-23;-23.0;28.6;0.0;
16/06/2019 21:53:20;100;0;358.23;17;-22.31;-7.26;97.5;10.60;69764;5127.070;-12834.767;60;-300;-303.0;73;72.9;-22;-22.1;28.6;0.0;
16/06/2019 21:53:40;100;0;353.26;17;-22.61;-6.58;100.8;10.60;69757;5127.070;-12834.767;60;-300;-303.0;73;72.9;-25;-24.8;28.6;0.0;
16/06/2019 21:54:00;100;0;349.81;17;-22.27;-7.94;104.0;10.60;69752;5127.070;-12834.767;60;-300;-303.0;73;72.9;-27;-27.1;28.6;0.0;
16/06/2019 21:54:20;100;0;347.93;17;-22.99;-9.64;107.0;10.60;69756;5127.070;-12834.767;60;-300;-303.0;73;72.9;-27;-27.5;28.6;0.0;
16/06/2019 21:54:40;100;0;353.80;17;-21.65;-9.64;110.1;10.60;69748;5127.070;-12834.767;60;-300;-303.0;73;72.9;-23;-23.0;28.6;0.0;
16/06/2019 21:55:00;100;0;354.39;17;-21.09;-6.68;113.1;10.50;69725;5127.070;-12834.767;60;-300;-303.0;73;72.9;-23;-22.1;28.6;0.0;
16/06/2019 21:55:20;100;0;357.08;17;-21.34;-6.90;115.8;10.50;69718;5127.070;-12834.767;60;-300;-303.0;73;72.9;-22;-22.1;28.6;0.0;
16/06/2019 21:55:40;100;0;359.47;17;-21.57;-6.90;118.5;10.50;69706;5127.070;-12834.767;60;-300;-303.0;73;72.9;-22;-22.1;28.6;0.0;
16/06/2019 21:56:00;100;0;353.84;17;-21.22;-6.83;121.2;10.50;69707;5127.070;-12834.767;60;-300;-303.0;73;72.9;-26;-26.2;28.6;0.0;
16/06/2019 21:56:20;100;0;352.88;17;-20.88;-8.95;123.8;10.50;69708;5127.070;-12834.767;60;-300;-303.0;73;72.9;-26;-26.6;28.6;0.0;
16/06/2019 21:56:40;100;0;355.81;17;-20.83;-9.12;126.2;10.40;69693;5127.070;-12834.767;60;-300;-303.0;73;72.9;-23;-23.0;28.6;0.0;
16/06/2019 21:57:00;100;0;357.53;17;-20.83;-7.07;128.6;10.40;69691;5127.070;-12834.767;60;-300;-303.0;73;72.9;-22;-22.1;28.6;0.0;
16/06/2019 21:57:20;100;0;359.95;17;-20.58;-6.75;130.8;10.40;69673;5127.070;-12834.767;60;-300;-301.0;73;72.9;-22;-21.7;28.6;0.0;
16/06/2019 21:57:40;100;0;359.37;17;-20.12;-6.67;133.2;10.30;69672;5127.070;-12834.767;60;-300;-303.0;73;72.9;-22;-21.7;28.6;0.0;
16/06/2019 21:58:00;100;0;357.54;17;-19.83;-6.76;135.5;10.30;69675;5127.070;-12834.767;60;-300;-303.0;73;72.9;-24;-23.9;28.6;0.0;
16/06/2019 21:58:20;100;0;357.15;17;-19.36;-7.91;137.7;10.30;69646;5127.070;-12834.767;60;-300;-303.0;73;72.9;-24;-23.9;28.6;0.0;
16/06/2019 21:58:40;100;0;5.66;17;-19.29;-8.04;139.5;10.30;69631;5127.070;-12834.767;60;-300;-303.0;73;72.9;-19;-19.0;28.6;0.0;
16/06/2019 21:59:00;100;0;10.19;17;-19.22;-5.11;141.4;10.20;69601;5127.070;-12834.767;60;-300;-303.0;73;72.9;-18;-18.1;28.6;0.0;
16/06/2019 21:59:20;100;0;14.05;17;-18.95;-5.01;143.3;10.20;69602;5127.070;-12834.767;60;-300;-303.0;73;72.9;-17;-16.7;28.6;0.0;
16/06/2019 21:59:40;100;0;15.22;17;-18.67;-4.09;145.2;10.20;69583;5127.070;-12834.767;60;-300;-303.0;73;72.9;-18;-18.1;28.6;0.0;
16/06/2019 22:00:00;100;0;14.84;17;-18.98;-5.21;147.2;10.10;69570;5127.070;-12834.767;60;-300;-303.0;73;72.9;-19;-19.0;28.6;0.0;
16/06/2019 22:00:20;100;0;13.93;17;-18.99;-5.65;149.0;10.10;69560;5127.070;-12834.767;60;-300;-301.0;73;72.9;-20;-19.9;28.6;0.0;
16/06/2019 22:00:40;100;0;13.83;17;-18.94;-6.01;150.9;10.10;69540;5127.070;-12834.767;60;-300;-303.0;73;72.9;-20;-20.3;28.6;0.0;
16/06/2019 22:01:00;100;0;14.33;17;-18.91;-6.07;152.9;10.00;69546;5127.070;-12834.767;60;-300;-303.0;73;72.9;-20;-20.3;28.6;0.0;
16/06/2019 22:01:20;100;0;15.14;17;-18.86;-6.00;154.7;10.00;69523;5127.070;-12834.767;60;-300;-303.0;73;72.9;-19;-19.0;28.6;0.0;
16/06/2019 22:01:40;100;0;15.19;17;-18.76;-5.08;156.6;10.00;69519;5127.070;-12834.767;60;-300;-303.0;73;72.9;-20;-20.3;28.6;0.0;
16/06/2019 22:02:00;100;0;16.51;17;-18.70;-6.18;158.6;9.90;69509;5127.070;-12834.767;60;-300;-303.0;73;72.9;-19;-19.0;28.6;0.0;
16/06/2019 22:02:20;100;0;16.20;17;-18.59;-5.00;160.6;9.90;69504;5127.070;-12834.767;60;-300;-303.0;73;72.9;-19;-18.1;28.6;0.0;
16/06/2019 22:02:40;100;0;15.90;17;-18.51;-5.00;162.6;9.90;69492;5127.070;-12834.767;60;-300;-303.0;73;72.9;-20;-19.9;28.6;0.0;
16/06/2019 22:03:00;100;0;16.33;17;-18.57;-6.05;164.5;9.80;69489;5127.070;-12834.767;60;-300;-303.0;73;72.9;-19;-19.0;28.6;44.4;
16/06/2019 22:03:20;100;0;16.01;17;-18.61;-5.25;166.5;9.80;69470;5127.070;-12834.767;60;-300;-303.0;73;72.9;-20;-19.9;28.6;42.2;
16/06/2019 22:03:40;100;0;16.44;17;-18.63;-6.08;168.6;9.80;69474;5127.070;-12834.767;60;-300;-303.0;73;72.9;-20;-20.3;28.6;40.1;
16/06/2019 22:04:00;100;0;16.81;17;-18.60;-6.10;170.7;9.70;69466;5127.070;-12834.767;60;-300;-303.0;73;73.0;-20;-20.3;28.6;38.1;
16/06/2019 22:04:20;100;0;17.32;17;-18.65;-6.07;172.6;9.70;69465;5127.070;-12834.767;60;-300;-303.0;73;72.9;-19;-19.0;28.6;35.9;
16/06/2019 22:04:40;100;0;16.95;17;-18.69;-5.17;174.6;9.70;69469;5127.070;-12834.767;60;-300;-303.0;73;72.9;-20;-19.9;28.6;33.8;
16/06/2019 22:05:00;100;0;17.31;17;-18.46;-6.10;176.6;9.70;69460;5127.070;-12834.767;60;-300;-303.0;73;72.9;-19;-19.0;28.6;31.7;
16/06/2019 22:05:20;100;0;17.39;17;-18.72;-5.12;178.7;9.60;69453;5127.070;-12834.767;60;-300;-303.0;73;72.9;-19;-18.1;28.6;29.6;
16/06/2019 22:05:40;100;0;17.45;17;-18.62;-5.08;180.6;9.60;69459;5127.070;-12834.767;60;-300;-303.0;73;72.9;-19;-18.1;28.6;27.6;
16/06/2019 22:06:00;100;0;17.23;17;-18.48;-5.09;182.8;9.60;69444;5127.070;-12834.767;60;-300;-303.0;73;72.9;-19;-18.1;28.6;25.4;
16/06/2019 22:06:20;100;0;17.43;17;-18.51;-5.10;184.8;9.60;69445;5127.070;-12834.767;60;-300;-303.0;73;72.9;-19;-18.1;28.6;23.4;
16/06/2019 22:06:40;100;0;17.44;17;-18.36;-5.07;186.8;9.50;69439;5127.070;-12834.767;60;-300;-301.0;73;72.9;-19;-18.1;28.6;21.4;
16/06/2019 22:07:00;100;0;17.50;17;-18.55;-5.16;188.8;9.50;69436;5127.070;-12834.767;60;-300;-303.0;73;72.9;-19;-18.1;28.6;19.1;
16/06/2019 22:07:20;118;0;17.14;17;-18.66;-5.10;190.8;9.50;69436;5127.070;-12834.767;60;150;-289.1;57;56.6;0;0.9;28.6;17.0;
16/06/2019 22:07:30;118;0;48.29;17;2.44;3.92;191.6;9.40;69346;5127.070;-12834.767;60;150;-130.7;57;57.1;0;0.5;28.0;17.0;
16/06/2019 22:07:40;118;0;46.04;17;19.92;3.57;191.4;9.50;69138;5127.070;-12834.767;60;150;23.8;57;57.2;0;0.5;28.0;-1.0;
16/06/2019 22:07:50;118;0;44.42;17;23.87;3.61;190.5;9.40;68877;5127.070;-12834.767;60;150;156.4;57;57.1;0;0.5;28.0;-1.0;
16/06/2019 22:08:00;118;0;12.77;17;24.40;4.04;189.3;9.40;68686;5127.070;-12834.767;60;150;156.4;57;57.1;0;0.5;28.6;-1.0;
16/06/2019 22:08:10;118;0;13.52;17;26.89;3.59;187.8;9.40;68686;5127.070;-12834.767;60;150;156.4;57;57.1;0;0.5;28.6;-1.0;
16/06/2019 22:08:20;117;0;13.43;17;27.67;3.64;185.7;9.40;68695;5127.070;-12834.767;60;150;156.4;57;57.1;0;0.5;28.6;-1.0;
16/06/2019 22:08:40;117;0;12.64;17;28.04;3.77;181.7;9.40;68680;5127.070;-12834.767;60;150;156.4;57;57.1;22;22.1;28.6;-1.0;
16/06/2019 22:09:00;117;0;18.47;17;27.77;14.44;176.9;9.40;68689;5127.070;-12834.767;60;150;156.4;57;57.1;18;18.1;28.6;-1.0;
16/06/2019 22:09:20;117;0;25.34;17;27.88;11.55;172.5;9.30;68682;5127.070;-12834.767;60;150;156.4;57;57.1;15;14.9;28.6;-1.0;
16/06/2019 22:09:40;117;0;29.84;17;28.01;10.14;168.1;9.30;68683;5127.070;-12834.767;60;150;156.4;57;57.1;14;13.5;28.6;-1.0;
16/06/2019 22:10:00;117;0;33.34;17;27.93;9.51;163.6;9.30;68672;5127.070;-12834.767;60;150;156.4;57;57.1;13;13.1;28.6;-1.0;
16/06/2019 22:10:20;117;0;37.16;17;27.89;9.08;159.2;9.30;68675;5127.070;-12834.767;60;150;156.4;57;57.1;12;12.2;28.6;-1.0;
16/06/2019 22:10:40;117;0;40.50;17;27.95;8.51;154.8;9.20;68664;5127.070;-12834.767;60;150;156.4;57;57.2;12;11.3;28.6;-1.0;
16/06/2019 22:11:00;117;0;43.99;17;28.19;8.72;150.3;9.20;68670;5127.070;-12834.767;60;150;156.4;57;57.1;12;11.3;28.6;-1.0;
16/06/2019 22:11:20;117;0;46.76;17;28.33;8.82;145.8;9.20;68671;5127.070;-12834.767;60;150;156.4;57;57.1;12;11.3;28.6;-1.0;
16/06/2019 22:11:40;117;0;52.93;17;27.51;8.57;141.4;9.20;68680;5127.070;-12834.767;60;150;156.4;57;57.1;9;9.0;28.6;-1.0;
16/06/2019 22:12:00;117;0;45.62;17;28.72;7.62;136.9;9.20;68690;5127.070;-12834.767;60;150;156.4;57;57.1;14;14.4;28.6;-1.0;
16/06/2019 22:12:20;117;0;40.30;17;27.66;10.50;132.0;9.10;68694;5127.070;-12834.767;60;150;156.4;57;57.1;14;14.9;28.6;-1.0;
16/06/2019 22:12:40;117;0;45.38;17;26.11;10.39;128.0;9.10;68714;5127.070;-12834.767;60;150;156.4;57;57.1;14;14.9;28.6;-1.0;
16/06/2019 22:13:00;117;0;43.07;17;26.10;10.62;124.3;9.10;68726;5127.070;-12834.767;60;150;156.4;57;57.1;14;14.4;28.6;-1.0;
16/06/2019 22:13:20;117;0;56.74;17;25.48;10.62;120.6;9.10;68750;5127.070;-12834.767;60;150;156.4;57;57.1;6;5.9;28.6;-1.0;
16/06/2019 22:13:40;117;0;66.31;17;24.21;5.66;117.3;9.10;68759;5127.070;-12834.767;60;150;156.4;57;57.1;2;1.8;28.6;-1.0;
16/06/2019 22:14:00;117;0;64.47;17;24.87;3.72;114.2;9.10;68763;5127.070;-12834.767;60;150;156.4;57;57.1;6;5.9;28.6;-1.0;
16/06/2019 22:14:20;117;0;64.08;17;24.23;6.35;111.1;9.10;68771;5127.070;-12834.767;60;150;156.4;57;57.1;6;6.3;28.6;-1.0;
16/06/2019 22:14:40;117;0;69.76;17;24.22;6.20;107.7;9.10;68792;5127.070;-12834.767;60;150;158.4;57;57.1;3;3.2;28.6;-1.0;
16/06/2019 22:15:00;117;0;60.97;17;23.85;4.49;104.6;9.10;68799;5127.070;-12834.767;60;150;156.4;57;57.1;9;9.5;28.7;-1.0;
16/06/2019 22:15:20;117;0;64.92;17;22.67;8.03;101.7;9.10;68802;5127.070;-12834.767;60;150;156.4;57;57.1;5;5.0;28.6;-1.0;
16/06/2019 22:15:40;117;0;72.91;17;22.71;5.54;99.0;9.10;68805;5127.070;-12834.767;60;150;158.4;57;57.1;0;0.0;28.6;-1.0;
16/06/2019 22:16:00;117;0;74.51;17;22.46;2.92;96.5;9.20;68818;5127.070;-12834.767;60;150;156.4;57;57.1;0;-0.5;28.6;-1.0;
16/06/2019 22:16:20;117;0;70.03;17;23.08;2.90;93.7;9.20;68815;5127.070;-12834.767;60;150;158.4;57;57.2;3;3.2;28.6;-1.0;
16/06/2019 22:16:40;117;0;65.89;17;22.71;5.14;90.8;9.20;68818;5127.070;-12834.767;60;150;156.4;57;57.1;5;5.0;28.6;-1.0;
16/06/2019 22:17:00;117;0;66.25;17;22.03;5.62;88.0;9.20;68829;5127.070;-12834.767;60;150;156.4;57;57.1;3;3.2;28.6;-1.0;
16/06/2019 22:17:20;117;0;65.18;17;22.34;4.54;85.3;9.20;68839;5127.070;-12834.767;60;150;158.4;57;57.1;3;2.7;28.6;-1.0;
16/06/2019 22:17:40;117;0;68.90;17;21.78;4.31;82.6;9.20;68836;5127.070;-12834.767;60;150;156.4;57;57.1;0;0.0;28.6;-1.0;
16/06/2019 22:18:00;117;0;71.83;17;21.73;2.87;79.8;9.20;68855;5127.070;-12834.767;60;150;156.4;57;57.1;-1;-0.9;28.6;-1.0;
16/06/2019 22:18:20;117;0;75.21;17;21.69;2.29;77.0;9.20;68858;5127.070;-12834.767;60;150;156.4;57;57.1;-3;-3.2;28.6;-1.0;
16/06/2019 22:18:40;117;0;75.93;17;21.68;1.17;74.2;9.20;68858;5127.070;-12834.767;60;150;156.4;57;57.1;-3;-4.1;28.7;-1.0;
16/06/2019 22:19:00;117;0;72.50;17;21.05;1.34;71.4;9.20;68868;5127.070;-12834.767;60;150;156.4;57;57.1;-1;-0.9;28.6;-1.0;
16/06/2019 22:19:20;117;0;73.28;17;20.87;2.99;68.8;9.20;68862;5127.070;-12834.767;60;150;158.4;57;57.1;-2;-2.3;28.6;-1.0;
16/06/2019 22:19:40;117;0;76.93;17;20.56;2.05;66.3;9.20;68885;5127.070;-12834.767;60;150;158.4;57;57.1;-5;-5.0;28.6;-1.0;
16/06/2019 22:20:00;117;0;78.52;17;19.82;0.45;63.8;9.20;68883;5127.070;-12834.767;60;150;156.4;57;57.1;-6;-6.3;28.6;-1.0;
16/06/2019 22:20:20;117;0;77.65;17;19.71;-0.10;61.6;9.20;68894;5127.070;-12834.767;60;150;156.4;57;57.1;-5;-5.0;28.6;-1.0;
16/06/2019 22:20:40;117;0;81.52;17;19.58;1.46;59.3;9.20;68905;5127.070;-12834.767;60;150;156.4;57;57.1;-8;-8.1;28.6;-1.0;
16/06/2019 22:21:00;117;0;76.44;17;19.57;-0.86;56.8;9.20;68924;5127.070;-12834.767;60;150;158.4;57;57.2;-5;-5.0;28.6;-1.0;
16/06/2019 22:21:20;117;0;76.37;17;19.47;1.41;54.1;9.30;68930;5127.070;-12834.767;60;150;156.4;57;57.1;-6;-5.9;28.6;-1.0;
16/06/2019 22:21:41;117;0;79.08;17;19.08;0.37;51.6;9.30;68948;5127.070;-12834.767;60;150;156.4;57;57.1;-9;-9.5;28.6;-1.0;
16/06/2019 22:22:01;117;0;78.69;17;19.30;-1.48;49.1;9.30;68951;5127.070;-12834.767;60;150;158.4;57;57.1;-8;-8.1;28.6;-1.0;
16/06/2019 22:22:21;117;0;78.42;17;19.42;-0.15;46.5;9.30;68971;5127.070;-12834.767;60;150;158.4;57;57.2;-9;-9.5;28.6;-1.0;
16/06/2019 22:22:41;117;0;73.91;17;18.71;-1.40;43.9;9.30;68987;5127.070;-12834.767;60;150;156.4;57;57.1;-7;-7.2;28.6;-1.0;
16/06/2019 22:23:01;117;0;71.22;17;19.06;0.26;41.4;9.40;68996;5127.070;-12834.767;60;150;156.4;57;57.2;-7;-6.3;28.6;-1.0;
16/06/2019 22:23:21;117;0;68.27;17;18.12;0.49;39.1;9.40;69018;5127.070;-12834.767;60;150;158.4;57;57.1;-7;-6.3;28.6;-1.0;
16/06/2019 22:23:41;117;0;69.68;17;17.89;0.39;36.9;9.40;69032;5127.070;-12834.767;60;150;158.4;57;57.2;-9;-9.0;28.6;-1.0;
16/06/2019 22:24:01;117;0;64.36;17;18.08;-1.42;34.6;9.40;69037;5127.070;-12834.767;60;150;158.4;57;57.1;-7;-7.2;28.6;-1.0;
16/06/2019 22:24:21;117;0;52.46;17;17.98;0.16;32.4;9.50;69058;5127.070;-12834.767;60;150;158.4;57;57.1;-1;-0.9;28.6;-1.0;
16/06/2019 22:24:41;117;0;51.88;17;16.98;3.53;30.4;9.50;69068;5127.070;-12834.767;60;150;156.4;57;57.2;-4;-4.1;28.6;-1.0;
16/06/2019 22:25:01;117;0;53.22;17;17.12;1.12;28.3;9.50;69090;5127.070;-12834.767;60;150;158.4;57;57.1;-7;-7.2;28.6;-1.0;
16/06/2019 22:25:21;117;0;44.16;17;17.36;-0.51;26.4;9.60;69115;5127.070;-12834.767;60;150;156.4;57;57.2;-2;-1.8;28.6;-1.0;
16/06/2019 22:25:41;117;0;41.52;17;17.16;2.87;24.4;9.60;69143;5127.070;-12834.767;60;150;158.4;57;57.1;-2;-1.4;28.6;-1.0;
16/06/2019 22:26:01;117;0;46.47;17;17.11;2.88;22.3;9.60;69171;5127.070;-12834.767;60;150;158.4;57;57.1;-7;-7.2;28.6;-1.0;
16/06/2019 22:26:21;117;0;48.18;17;15.79;-0.17;20.1;9.70;69186;5127.070;-12834.767;60;150;156.4;57;57.1;-8;-8.1;28.6;-1.0;
16/06/2019 22:26:41;117;0;37.99;17;16.38;-0.86;18.1;9.70;69213;5127.070;-12834.767;60;150;156.4;57;57.2;-8;-8.6;28.6;-1.0;
16/06/2019 22:27:01;117;0;37.03;17;16.01;-0.79;16.4;9.80;69250;5127.070;-12834.767;60;150;158.4;57;57.2;-3;-2.7;28.6;-1.0;
16/06/2019 22:27:21;117;0;38.39;17;15.80;2.51;14.6;9.80;69263;5127.070;-12834.767;60;150;156.4;57;57.1;-4;-4.1;28.6;-1.0;
16/06/2019 22:27:41;117;0;41.45;17;15.94;1.35;12.8;9.90;69295;5127.070;-12834.767;60;150;158.4;57;57.1;-6;-6.3;28.6;-1.0;
16/06/2019 22:28:01;117;0;40.82;17;16.05;0.17;11.2;9.90;69322;5127.070;-12834.767;60;150;158.4;57;57.1;-5;-5.0;28.7;-1.0;
