Timestamp;NavState;SecurityLevel;Heading;Declination;Pitch;Roll;Depth;Temperature;Pa;Lat;Lon;DesiredH;BallastCmd;BallastPos;LinCmd;LinPos;AngCmd;AngPos;Voltage;Altitude;
14/06/2019 01:36:22;117;0;203.14;17;21.98;-4.06;9.9;10.90;69650;5137.966;-12820.260;208;50;57.4;54;54.1;-15;-14.9;29.2;-1.0;
14/06/2019 01:36:32;115;0;201.68;17;21.26;-2.73;9.7;10.90;69656;5137.966;-12820.260;208;500;67.3;100;100.1;0;0.5;29.3;-1.0;
14/06/2019 01:36:42;115;0;169.67;17;-30.41;4.65;9.3;10.90;69563;5137.966;-12820.260;208;500;217.8;100;99.9;0;0.9;29.0;-1.0;
14/06/2019 01:36:52;115;0;159.16;17;-71.99;-1.07;9.6;10.90;69355;5137.966;-12820.260;208;500;376.2;100;100.0;0;0.5;29.0;-1.0;
14/06/2019 01:37:02;115;0;128.28;17;-62.29;4.94;8.6;10.90;69102;5137.966;-12820.260;208;500;506.9;100;100.0;0;0.9;29.0;-1.0;
14/06/2019 01:37:12;115;0;89.57;17;-44.94;8.66;5.7;10.90;68891;5137.966;-12820.260;208;500;506.9;100;99.9;0;0.9;29.3;-1.0;
14/06/2019 01:37:22;115;0;18.67;17;-53.69;11.17;2.8;11.00;68937;5137.966;-12820.260;208;500;508.9;100;100.0;0;0.9;29.3;-1.0;
14/06/2019 01:37:32;116;0;308.90;17;-36.16;0.51;1.6;11.00;68952;5137.966;-12820.260;208;500;508.9;100;99.9;0;0.9;29.2;-1.0;
14/06/2019 01:37:52;116;0;286.07;17;-4.67;0.95;1.2;11.00;68988;5137.966;-12820.260;208;500;508.9;100;99.9;0;0.5;29.2;-1.0;
14/06/2019 01:38:12;116;0;317.46;17;-5.49;3.88;1.1;11.10;69015;5137.937;-12820.356;208;500;508.9;100;99.7;0;0.9;29.3;-1.0;
14/06/2019 01:38:35;116;0;313.43;17;-21.12;4.82;1.2;11.20;69039;5137.937;-12820.356;208;500;508.9;100;99.9;0;0.5;29.2;-1.0;
14/06/2019 01:38:55;116;0;314.14;17;-27.58;4.96;1.2;11.30;69051;5137.938;-12820.357;208;500;510.9;100;99.9;0;0.9;29.3;-1.0;
14/06/2019 01:39:15;116;0;296.92;17;-4.53;3.32;1.2;11.40;69063;5137.949;-12820.382;208;500;508.9;100;99.7;0;0.9;29.2;-1.0;
14/06/2019 01:43:58;116;0;309.63;17;-8.29;4.13;1.1;12.70;69162;5137.949;-12820.382;208;500;510.9;100;99.9;0;0.5;29.2;-1.0;
14/06/2019 01:44:18;116;0;280.15;17;-6.40;4.58;1.1;12.80;69174;5137.952;-12820.386;208;500;508.9;100;99.7;0;0.9;29.3;-1.0;
14/06/2019 01:44:38;116;0;285.56;17;-6.23;2.11;1.1;12.90;69171;5137.954;-12820.390;208;500;508.9;100;99.7;0;0.9;29.3;-1.0;
14/06/2019 01:45:03;116;0;261.71;17;-7.39;3.67;1.1;13.00;69166;5137.954;-12820.391;208;500;508.9;100;99.9;0;0.9;29.2;-1.0;
14/06/2019 01:45:23;116;0;318.57;17;-8.32;1.45;1.1;13.10;69176;5137.954;-12820.393;208;500;508.9;100;99.7;0;0.9;29.3;-1.0;
14/06/2019 01:45:43;116;0;293.12;17;-18.65;9.91;1.2;13.10;69179;5137.955;-12820.395;208;500;508.9;100;99.9;0;0.9;29.3;-1.0;
14/06/2019 01:46:03;116;0;291.85;17;-8.62;4.42;1.0;13.20;69195;5137.956;-12820.398;208;500;510.9;100;99.7;0;0.5;29.3;-1.0;
14/06/2019 01:46:25;116;0;280.75;17;-7.49;4.21;1.1;13.30;69190;5137.957;-12820.399;208;500;508.9;100;99.7;0;0.9;29.3;-1.0;
14/06/2019 01:46:45;116;0;300.99;17;-7.68;5.50;1.1;13.30;69197;5137.957;-12820.399;208;500;508.9;100;99.7;0;0.9;29.3;-1.0;
14/06/2019 01:47:05;116;0;298.16;17;-17.77;2.31;1.1;13.40;69201;5137.960;-12820.404;208;500;508.9;100;99.9;0;0.5;29.3;-1.0;
14/06/2019 01:47:25;116;0;276.80;17;-15.10;-0.51;1.1;13.50;69206;5137.959;-12820.405;208;500;508.9;100;99.9;0;0.9;29.3;-1.0;
14/06/2019 01:47:45;116;0;304.69;17;-5.83;3.56;1.1;13.60;69207;5137.971;-12820.439;208;500;508.9;100;99.7;0;0.5;29.2;-1.0;
14/06/2019 01:53:21;116;0;268.91;17;-6.80;2.41;1.1;14.30;69240;5137.971;-12820.439;208;500;510.9;100;99.9;0;0.9;29.3;-1.0;
14/06/2019 01:53:41;116;0;306.28;17;-15.50;3.58;1.1;14.30;69241;5137.972;-12820.442;208;500;508.9;100;99.7;0;0.9;29.3;-1.0;
14/06/2019 01:54:13;116;0;305.56;17;-16.52;3.11;1.1;14.40;69259;5137.972;-12820.443;208;500;508.9;100;99.7;0;0.9;29.2;-1.0;
14/06/2019 01:54:33;116;0;315.74;17;-41.73;4.68;1.5;14.50;69248;5137.980;-12820.477;208;500;508.9;100;99.9;0;0.9;29.2;-1.0;
14/06/2019 01:59:18;110;0;310.45;17;-4.97;4.30;1.1;15.10;69274;5137.980;-12820.477;208;-250;407.9;100;99.9;0;0.9;29.2;-1.0;
14/06/2019 01:59:28;110;0;305.21;17;-5.97;-1.08;1.1;15.10;69524;5137.980;-12820.477;208;-250;269.3;100;99.9;0;0.9;29.2;-1.0;
14/06/2019 01:59:38;110;0;317.00;17;-5.43;1.55;1.0;15.10;69697;5137.980;-12820.477;208;-250;132.7;100;99.9;0;0.9;29.2;-1.0;
14/06/2019 01:59:48;110;0;320.27;17;-6.50;0.08;1.1;15.10;69924;5137.980;-12820.477;208;-250;-7.9;100;99.9;0;0.9;29.2;-1.0;
14/06/2019 01:59:58;110;0;314.81;17;-20.21;7.28;1.4;15.10;70153;5137.980;-12820.477;208;-250;-178.2;99;98.7;0;0.9;29.2;-1.0;
14/06/2019 02:00:08;110;0;310.83;17;-55.08;2.61;2.8;15.10;70431;5137.980;-12820.477;208;-250;-249.5;79;79.0;0;0.9;29.2;-1.0;
14/06/2019 02:00:18;110;0;306.90;17;-47.15;3.38;5.7;15.10;70524;5137.980;-12820.477;208;-250;-251.5;71;70.9;0;0.9;29.3;-1.0;
14/06/2019 02:00:28;100;0;318.05;17;-35.47;4.47;8.5;15.00;70500;5137.980;-12820.477;208;-250;-251.5;71;70.8;0;0.9;29.3;-1.0;
14/06/2019 02:00:48;100;0;320.70;17;-24.31;4.54;13.1;15.00;70468;5137.980;-12820.477;208;-250;-247.5;71;70.8;45;45.1;29.2;0.0;
14/06/2019 02:01:08;100;0;298.59;17;-19.53;25.68;16.6;15.00;70460;5137.980;-12820.477;208;-250;-245.5;71;70.8;44;44.2;29.3;0.0;
14/06/2019 02:01:28;100;0;279.74;17;-19.11;24.32;19.4;14.90;70446;5137.980;-12820.477;208;-250;-247.5;71;70.8;30;29.8;29.2;0.0;
14/06/2019 02:01:48;100;0;262.48;17;-20.65;17.26;22.1;14.80;70421;5137.980;-12820.477;208;-250;-245.5;71;70.6;22;22.1;29.2;0.0;
14/06/2019 02:02:08;100;0;248.48;17;-20.50;13.66;24.8;14.80;70383;5137.980;-12820.477;208;-250;-245.5;71;70.6;17;17.1;29.3;0.0;
14/06/2019 02:02:28;100;0;228.35;17;-19.62;11.12;27.5;14.70;70345;5137.980;-12820.477;208;-250;-243.6;71;70.8;10;9.9;29.2;0.0;
14/06/2019 02:02:48;100;0;221.01;17;-20.37;7.50;30.0;14.60;70306;5137.980;-12820.477;208;-250;-245.5;71;70.8;12;12.6;29.3;0.0;
14/06/2019 02:03:08;100;0;213.64;17;-20.03;9.52;32.4;14.50;70273;5137.980;-12820.477;208;-250;-243.6;71;70.8;12;13.5;29.2;0.0;
14/06/2019 02:03:28;100;0;201.98;17;-20.18;9.48;34.9;14.40;70244;5137.980;-12820.477;208;-250;-243.6;71;70.8;8;8.1;29.2;0.0;
14/06/2019 02:03:48;100;0;192.26;17;-20.47;6.80;37.4;14.30;70218;5137.980;-12820.477;208;-250;-245.5;71;70.8;7;7.2;29.2;0.0;
14/06/2019 02:04:08;100;0;188.59;17;-20.17;6.45;40.0;14.30;70198;5137.980;-12820.477;208;-250;-243.6;71;70.8;7;7.2;29.2;0.0;
14/06/2019 02:04:28;100;0;177.66;17;-19.53;6.46;42.4;14.20;70161;5137.980;-12820.477;208;-250;-243.6;71;70.6;5;4.5;29.3;0.0;
14/06/2019 02:04:48;100;0;169.71;17;-19.68;5.20;44.9;14.10;70141;5137.980;-12820.477;208;-250;-243.6;71;70.6;3;2.7;29.2;0.0;
14/06/2019 02:05:08;100;0;163.08;17;-19.91;4.38;47.4;14.00;70113;5137.980;-12820.477;208;-250;-243.6;71;70.6;2;1.8;29.2;0.0;
14/06/2019 02:05:28;100;0;153.61;17;-19.14;3.80;49.9;13.90;70092;5137.980;-12820.477;208;-250;-243.6;71;70.6;-1;-0.9;29.2;0.0;
14/06/2019 02:05:48;100;0;149.13;17;-19.56;2.63;52.4;13.90;70069;5137.980;-12820.477;208;-250;-243.6;71;70.6;0;0.0;29.3;0.0;
14/06/2019 02:06:08;100;0;143.76;17;-18.74;3.40;54.9;13.80;70052;5137.980;-12820.477;208;-250;-245.5;71;70.6;-3;-3.2;29.3;0.0;
14/06/2019 02:06:28;100;0;136.92;17;-18.96;1.56;57.4;13.70;70038;5137.980;-12820.477;208;-250;-243.6;71;70.6;-7;-7.2;29.2;0.0;
14/06/2019 02:06:48;100;0;134.90;17;-19.15;-0.34;59.8;13.60;70025;5137.980;-12820.477;208;-250;-243.6;71;70.6;-8;-8.1;29.3;0.0;
14/06/2019 02:07:08;100;0;127.71;17;-19.04;-0.55;62.1;13.60;70019;5137.980;-12820.477;208;-250;-243.6;71;70.6;-13;-13.1;29.2;0.0;
14/06/2019 02:07:28;100;0;126.28;17;-18.83;-2.93;64.4;13.50;70001;5137.980;-12820.477;208;-250;-243.6;71;70.6;-14;-14.0;29.2;0.0;
14/06/2019 02:07:48;100;0;124.60;17;-18.93;-2.95;66.6;13.40;69991;5137.980;-12820.477;208;-250;-243.6;71;70.6;-17;-17.1;29.3;0.0;
14/06/2019 02:08:08;100;0;123.37;17;-18.53;-4.74;68.8;13.40;69982;5137.980;-12820.477;208;-250;-243.6;71;70.6;-19;-19.0;29.2;0.0;
14/06/2019 02:08:28;100;0;127.04;17;-18.43;-5.61;70.8;13.30;69963;5137.980;-12820.477;208;-250;-243.6;71;70.6;-18;-18.1;29.2;0.0;
14/06/2019 02:08:48;100;0;122.95;17;-18.29;-4.56;72.9;13.20;69954;5137.980;-12820.477;208;-250;-243.6;71;70.6;-24;-23.9;29.3;0.0;
14/06/2019 02:09:08;100;0;117.00;17;-18.38;-7.92;75.2;13.20;69947;5137.980;-12820.477;208;-250;-243.6;71;70.6;-30;-29.8;29.2;0.0;
14/06/2019 02:09:28;100;0;122.52;17;-17.57;-10.88;77.3;13.10;69931;5137.980;-12820.477;208;-250;-241.6;71;70.6;-28;-28.0;29.2;0.0;
14/06/2019 02:09:48;100;0;119.70;17;-17.96;-9.31;79.2;13.00;69927;5137.980;-12820.477;208;-250;-243.6;71;70.6;-30;-29.8;29.3;0.0;
14/06/2019 02:10:08;100;0;120.13;17;-17.84;-10.75;81.1;13.00;69928;5137.980;-12820.477;208;-250;-243.6;71;70.6;-29;-28.9;29.3;0.0;
14/06/2019 02:10:28;100;0;123.16;17;-17.97;-9.99;82.8;12.90;69907;5137.980;-12820.477;208;-250;-241.6;71;70.6;-27;-27.1;29.2;0.0;
14/06/2019 02:10:48;100;0;122.15;17;-17.38;-9.01;84.6;12.80;69902;5137.980;-12820.477;208;-250;-241.6;71;70.6;-28;-28.0;29.3;0.0;
14/06/2019 02:11:08;100;0;126.51;17;-16.58;-10.18;86.5;12.80;69886;5137.980;-12820.477;208;-250;-241.6;71;70.6;-26;-26.2;29.2;0.0;
14/06/2019 02:11:28;100;0;127.46;17;-16.46;-8.52;88.2;12.70;69876;5137.980;-12820.477;208;-250;-243.6;71;70.6;-26;-25.3;29.2;0.0;
14/06/2019 02:11:48;100;0;129.72;17;-16.74;-8.66;89.9;12.70;69874;5137.980;-12820.477;208;-250;-241.6;71;70.6;-25;-24.8;29.3;0.0;
14/06/2019 02:12:08;100;0;134.20;17;-16.61;-8.07;91.6;12.60;69855;5137.980;-12820.477;208;-250;-241.6;71;70.6;-23;-23.0;29.3;0.0;
14/06/2019 02:12:28;100;0;133.99;17;-16.39;-7.10;93.2;12.50;69846;5137.980;-12820.477;208;-250;-241.6;71;70.6;-25;-24.8;29.2;0.0;
14/06/2019 02:12:48;100;0;133.42;17;-16.05;-8.48;94.8;12.50;69844;5137.980;-12820.477;208;-250;-241.6;71;70.6;-25;-25.3;29.3;0.0;
14/06/2019 02:13:08;100;0;134.18;17;-15.68;-8.45;96.4;12.40;69839;5137.980;-12820.477;208;-250;-241.6;71;70.6;-25;-25.3;29.3;0.0;
14/06/2019 02:13:28;100;0;134.37;17;-15.87;-8.49;98.0;12.40;69822;5137.980;-12820.477;208;-250;-243.6;71;70.6;-25;-25.3;29.2;0.0;
14/06/2019 02:13:48;100;0;136.14;17;-15.48;-8.46;99.7;12.30;69817;5137.980;-12820.477;208;-250;-241.6;71;70.6;-24;-23.9;29.3;0.0;
14/06/2019 02:14:08;100;0;137.96;17;-15.57;-7.52;101.2;12.30;69807;5137.980;-12820.477;208;-250;-241.6;71;70.6;-24;-23.5;29.3;0.0;
14/06/2019 02:14:28;100;0;140.63;17;-15.65;-7.65;102.7;12.20;69802;5137.980;-12820.477;208;-250;-241.6;71;70.6;-23;-23.0;29.2;0.0;
14/06/2019 02:14:48;100;0;142.70;17;-15.52;-7.08;104.4;12.10;69798;5137.980;-12820.477;208;-250;-239.6;71;70.6;-23;-22.1;29.2;0.0;
14/06/2019 02:15:08;100;0;142.94;17;-15.58;-7.04;105.9;12.10;69777;5137.980;-12820.477;208;-250;-241.6;71;70.6;-23;-22.1;29.2;0.0;
14/06/2019 02:15:28;100;0;143.33;17;-15.61;-7.11;107.4;12.10;69782;5137.980;-12820.477;208;-250;-241.6;71;70.6;-23;-22.1;29.2;44.9;
14/06/2019 02:15:48;100;0;142.18;17;-15.45;-6.81;108.8;12.00;69780;5137.980;-12820.477;208;-250;-241.6;71;70.6;-24;-24.4;29.2;43.4;
14/06/2019 02:16:08;100;0;143.77;17;-15.50;-8.30;110.4;11.90;69775;5137.980;-12820.477;208;-250;-241.6;71;70.6;-24;-24.4;29.2;42.0;
14/06/2019 02:16:28;100;0;146.41;17;-15.45;-8.30;111.8;11.90;69770;5137.980;-12820.477;208;-250;-241.6;71;70.6;-22;-22.1;29.2;40.6;
14/06/2019 02:16:48;100;0;147.95;17;-15.32;-6.78;113.4;11.90;69759;5137.980;-12820.477;208;-250;-241.6;71;70.6;-22;-21.7;29.3;39.1;
14/06/2019 02:17:08;100;0;148.43;17;-15.29;-6.77;114.9;11.80;69752;5137.980;-12820.477;208;-250;-241.6;71;70.6;-22;-21.7;29.3;37.4;
14/06/2019 02:17:28;100;0;147.08;17;-15.16;-6.71;116.4;11.70;69749;5137.980;-12820.477;208;-250;-241.6;71;70.6;-23;-23.5;29.3;35.9;
14/06/2019 02:17:48;100;0;149.06;17;-15.06;-7.86;117.8;11.70;69744;5137.980;-12820.477;208;-250;-241.6;71;70.6;-22;-22.1;29.2;34.3;
14/06/2019 02:18:08;100;0;154.57;17;-14.91;-6.85;119.2;11.60;69733;5137.980;-12820.477;208;-250;-241.6;71;70.6;-19;-19.0;29.2;32.9;
14/06/2019 02:18:28;100;0;159.40;17;-14.84;-5.35;120.5;11.60;69726;5137.980;-12820.477;208;-250;-241.6;71;70.6;-18;-18.1;29.2;31.6;
14/06/2019 02:18:48;100;0;159.86;17;-14.59;-5.23;121.7;11.50;69717;5137.980;-12820.477;208;-250;-241.6;71;70.6;-19;-19.0;29.2;30.3;
14/06/2019 02:19:08;100;0;162.15;17;-14.35;-5.81;122.9;11.50;69702;5137.980;-12820.477;208;-250;-241.6;71;70.6;-18;-18.1;29.3;28.9;
14/06/2019 02:19:29;100;0;162.07;17;-14.33;-4.83;124.3;11.40;69699;5137.980;-12820.477;208;-250;-241.6;71;70.6;-19;-19.0;29.2;27.5;
14/06/2019 02:19:49;100;0;160.54;17;-14.40;-5.70;125.6;11.40;69689;5137.980;-12820.477;208;-250;-241.6;71;70.6;-21;-21.2;29.2;26.1;
14/06/2019 02:20:09;100;0;161.88;17;-14.25;-6.80;126.9;11.40;69681;5137.980;-12820.477;208;-250;-241.6;71;70.6;-20;-19.9;29.2;24.8;
14/06/2019 02:20:29;100;0;163.17;17;-14.27;-5.58;128.2;11.30;69681;5137.980;-12820.477;208;-250;-239.6;71;70.6;-19;-19.0;29.2;23.4;
14/06/2019 02:20:49;100;0;164.59;17;-14.13;-5.65;129.5;11.30;69665;5137.980;-12820.477;208;-250;-241.6;71;70.6;-19;-19.0;29.2;22.2;
14/06/2019 02:21:09;100;0;167.23;17;-13.78;-5.61;130.8;11.20;69664;5137.980;-12820.477;208;-250;-241.6;71;70.6;-18;-18.1;29.3;20.8;
14/06/2019 02:21:29;100;0;166.85;17;-13.77;-4.72;132.2;11.20;69656;5137.980;-12820.477;208;-250;-241.6;71;70.6;-19;-19.0;29.3;19.5;
14/06/2019 02:21:49;118;0;167.16;17;-13.84;-5.68;133.5;11.10;69639;5137.980;-12820.477;208;50;-223.8;54;53.7;0;0.0;29.2;18.1;
14/06/2019 02:21:59;118;0;137.12;17;12.38;3.75;134.1;11.10;69554;5137.980;-12820.477;208;50;-67.3;54;54.1;0;0.5;28.8;18.1;
14/06/2019 02:22:09;118;0;138.13;17;29.89;3.39;133.6;11.10;69349;5137.980;-12820.477;208;50;53.5;54;54.1;0;0.5;28.8;-1.0;
14/06/2019 02:22:19;118;0;172.52;17;31.10;3.33;132.5;11.10;69169;5137.980;-12820.477;208;50;53.5;54;54.1;0;0.5;29.2;-1.0;
14/06/2019 02:22:29;118;0;171.11;17;31.76;3.31;131.1;11.10;69162;5137.980;-12820.477;208;50;55.4;54;54.1;0;0.5;29.3;-1.0;
14/06/2019 02:22:39;117;0;169.78;17;32.29;3.56;129.4;11.00;69161;5137.980;-12820.477;208;50;53.5;54;54.1;0;0.5;29.2;-1.0;
14/06/2019 02:22:59;117;0;165.87;17;32.23;3.50;125.8;11.00;69152;5137.980;-12820.477;208;50;55.4;54;54.1;20;19.9;29.2;-1.0;
14/06/2019 02:23:19;117;0;170.21;17;32.39;13.40;121.6;11.00;69156;5137.980;-12820.477;208;50;55.4;54;54.1;17;17.1;29.2;-1.0;
14/06/2019 02:23:39;117;0;163.16;17;33.85;11.28;117.5;10.90;69158;5137.980;-12820.477;208;50;55.4;54;54.1;22;22.1;29.3;-1.0;
14/06/2019 02:23:59;117;0;167.00;17;31.06;14.35;113.3;10.90;69169;5137.980;-12820.477;208;50;55.4;54;54.1;19;18.5;29.2;-1.0;
14/06/2019 02:24:19;117;0;167.77;17;30.99;12.13;109.5;10.80;69172;5137.980;-12820.477;208;50;57.4;54;54.1;19;18.1;29.2;-1.0;
14/06/2019 02:24:39;117;0;176.33;17;30.91;12.10;105.8;10.80;69174;5137.980;-12820.477;208;50;55.4;54;54.1;14;14.0;29.2;-1.0;
14/06/2019 02:24:59;117;0;176.65;17;30.88;9.61;102.2;10.80;69190;5137.980;-12820.477;208;50;55.4;54;54.1;15;14.9;29.2;-1.0;
14/06/2019 02:25:19;117;0;176.92;17;30.73;10.68;98.6;10.70;69181;5137.980;-12820.477;208;50;55.4;54;54.1;16;15.8;29.3;-1.0;
14/06/2019 02:25:39;117;0;177.50;17;30.15;10.77;95.2;10.70;69178;5137.980;-12820.477;208;50;55.4;54;54.1;16;15.8;29.3;-1.0;
14/06/2019 02:25:59;117;0;182.11;17;29.81;10.86;92.0;10.70;69186;5137.980;-12820.477;208;50;55.4;54;54.1;14;14.0;29.2;-1.0;
14/06/2019 02:26:19;117;0;185.10;17;30.60;9.64;88.8;10.70;69195;5137.980;-12820.477;208;50;55.4;54;54.1;13;13.1;29.3;-1.0;
14/06/2019 02:26:39;117;0;187.12;17;29.78;9.31;85.6;10.60;69200;5137.980;-12820.477;208;50;55.4;54;54.1;13;13.1;29.2;-1.0;
14/06/2019 02:26:59;117;0;185.49;17;29.45;9.61;82.5;10.60;69213;5137.980;-12820.477;208;50;55.4;54;54.1;15;14.9;29.2;-1.0;
14/06/2019 02:27:19;117;0;198.45;17;28.04;10.92;79.6;10.60;69206;5137.980;-12820.477;208;50;55.4;54;54.1;15;15.8;29.2;-1.0;
14/06/2019 02:27:39;117;0;205.38;17;28.86;10.72;76.9;10.60;69213;5137.980;-12820.477;208;50;55.4;54;54.1;6;5.4;29.2;-1.0;
14/06/2019 02:27:59;117;0;200.96;17;27.15;5.48;74.3;10.60;69227;5137.980;-12820.477;208;50;55.4;54;54.1;11;10.8;29.2;-1.0;
14/06/2019 02:28:19;117;0;200.36;17;27.96;8.69;72.0;10.50;69229;5137.980;-12820.477;208;50;55.4;54;54.1;11;11.7;29.2;-1.0;
14/06/2019 02:28:39;117;0;198.86;17;27.33;8.79;69.6;10.50;69233;5137.980;-12820.477;208;50;55.4;54;54.1;12;12.2;29.3;-1.0;
14/06/2019 02:28:59;117;0;205.56;17;27.00;9.47;67.3;10.50;69232;5137.980;-12820.477;208;50;55.4;54;54.1;7;7.2;29.3;-1.0;
14/06/2019 02:29:19;117;0;205.35;17;26.88;6.44;65.1;10.50;69237;5137.980;-12820.477;208;50;57.4;54;54.1;8;8.1;29.3;-1.0;
14/06/2019 02:29:39;117;0;206.08;17;26.43;7.49;62.7;10.50;69250;5137.980;-12820.477;208;50;55.4;54;54.1;7;7.2;29.3;-1.0;
14/06/2019 02:29:59;117;0;204.50;17;26.47;6.29;60.5;10.50;69244;5137.980;-12820.477;208;50;55.4;54;54.1;8;8.1;29.2;-1.0;
14/06/2019 02:30:19;117;0;208.99;17;26.33;7.48;58.4;10.50;69255;5137.980;-12820.477;208;50;55.4;54;54.1;5;4.5;29.2;-1.0;
14/06/2019 02:30:39;117;0;208.89;17;26.32;5.05;56.4;10.50;69253;5137.980;-12820.477;208;50;57.4;54;54.1;5;4.1;29.3;-1.0;
14/06/2019 02:30:59;117;0;210.94;17;25.94;5.12;54.4;10.40;69251;5137.980;-12820.477;208;50;55.4;54;54.1;4;4.1;29.3;-1.0;
14/06/2019 02:31:19;117;0;206.76;17;25.75;5.02;52.5;10.40;69256;5137.980;-12820.477;208;50;55.4;54;54.1;6;5.9;29.2;-1.0;
14/06/2019 02:31:39;117;0;204.46;17;25.86;6.29;50.7;10.40;69260;5137.980;-12820.477;208;50;55.4;54;54.1;6;6.3;29.2;-1.0;
14/06/2019 02:31:59;117;0;205.33;17;25.15;6.36;48.8;10.40;69268;5137.980;-12820.477;208;50;55.4;54;54.1;4;4.1;29.3;-1.0;
14/06/2019 02:32:19;117;0;207.77;17;25.60;4.75;47.0;10.40;69278;5137.980;-12820.477;208;50;57.4;54;54.1;3;3.2;29.3;-1.0;
14/06/2019 02:32:39;117;0;211.11;17;25.38;4.11;45.2;10.40;69281;5137.980;-12820.477;208;50;55.4;54;54.1;0;0.0;29.2;-1.0;
14/06/2019 02:32:59;117;0;213.50;17;25.32;2.78;43.4;10.40;69289;5137.980;-12820.477;208;50;55.4;54;54.1;0;-0.5;29.2;-1.0;
14/06/2019 02:33:19;117;0;219.90;17;25.55;2.80;41.7;10.40;69297;5137.980;-12820.477;208;50;57.4;54;54.1;-3;-3.2;29.2;-1.0;
14/06/2019 02:33:39;117;0;223.39;17;24.28;1.31;39.8;10.40;69292;5137.980;-12820.477;208;50;55.4;54;54.1;-5;-5.0;29.2;-1.0;
14/06/2019 02:33:59;117;0;224.01;17;24.53;0.43;38.2;10.40;69304;5137.980;-12820.477;208;50;55.4;54;54.1;-4;-3.6;29.3;-1.0;
14/06/2019 02:34:19;117;0;225.12;17;24.65;1.73;36.6;10.40;69300;5137.980;-12820.477;208;50;55.4;54;54.1;-4;-3.2;29.2;-1.0;
14/06/2019 02:34:39;117;0;222.53;17;25.09;1.76;35.1;10.40;69318;5137.980;-12820.477;208;50;57.4;54;54.2;-3;-3.2;29.3;-1.0;
14/06/2019 02:34:59;117;0;221.93;17;24.46;1.75;33.4;10.40;69335;5137.980;-12820.477;208;50;57.4;54;54.1;-3;-3.2;29.3;-1.0;
14/06/2019 02:35:19;117;0;220.34;17;24.98;1.67;31.7;10.40;69357;5137.980;-12820.477;208;50;57.4;54;54.1;-3;-3.2;29.3;-1.0;
14/06/2019 02:35:39;117;0;221.82;17;24.41;1.77;30.0;10.40;69354;5137.980;-12820.477;208;50;57.4;54;54.1;-5;-5.0;29.2;-1.0;
14/06/2019 02:35:59;117;0;220.12;17;24.97;0.41;28.2;10.40;69358;5137.980;-12820.477;208;50;55.4;54;54.1;-5;-5.4;29.2;-1.0;
14/06/2019 02:36:19;117;0;210.31;17;24.79;0.63;26.4;10.50;69389;5137.980;-12820.477;208;50;57.4;54;54.1;0;0.0;29.3;-1.0;
14/06/2019 02:36:39;117;0;216.70;17;23.50;3.61;24.7;10.50;69410;5137.980;-12820.477;208;50;55.4;54;54.1;-6;-5.9;29.2;-1.0;
14/06/2019 02:36:59;117;0;211.13;17;23.64;-0.15;23.2;10.50;69424;5137.980;-12820.477;208;50;57.4;54;54.1;-3;-2.7;29.2;-1.0;
14/06/2019 02:37:19;117;0;203.17;17;23.12;2.12;21.7;10.50;69456;5137.980;-12820.477;208;50;55.4;54;54.1;0;0.5;29.2;-1.0;
14/06/2019 02:37:39;117;0;203.86;17;22.73;3.67;20.3;10.50;69476;5137.980;-12820.477;208;50;57.4;54;54.1;-2;-2.3;29.3;-1.0;
14/06/2019 02:37:59;117;0;203.38;17;23.05;1.87;19.0;10.50;69489;5137.980;-12820.477;208;50;57.4;54;54.1;-4;-4.1;29.2;-1.0;
14/06/2019 02:38:19;117;0;198.28;17;21.46;1.07;17.7;10.60;69504;5137.980;-12820.477;208;50;57.4;54;54.1;-2;-1.8;29.3;-1.0;
14/06/2019 02:38:39;117;0;202.11;17;22.37;2.72;16.7;10.60;69517;5137.980;-12820.477;208;50;57.4;54;54.1;-6;-5.9;29.2;-1.0;
14/06/2019 02:38:59;117;0;202.15;17;22.46;0.02;15.7;10.60;69537;5137.980;-12820.477;208;50;55.4;54;54.1;-6;-6.3;29.3;-1.0;
14/06/2019 02:39:19;117;0;202.33;17;22.02;0.01;14.7;10.60;69556;5137.980;-12820.477;208;50;57.4;54;54.1;-6;-6.3;29.2;-1.0;
14/06/2019 02:39:39;117;0;200.27;17;22.36;0.32;13.9;10.70;69573;5137.980;-12820.477;208;50;59.4;54;54.1;-6;-6.3;29.3;-1.0;
14/06/2019 02:39:59;117;0;193.68;17;21.63;0.40;12.9;10.70;69602;5137.980;-12820.477;208;50;57.4;54;54.1;-2;-1.8;29.2;-1.0;
14/06/2019 02:40:19;117;0;192.80;17;20.32;2.18;12.2;10.70;69616;5137.980;-12820.477;208;50;57.4;54;54.1;-3;-3.2;29.2;-1.0;
14/06/2019 02:40:39;117;0;203.23;17;20.99;1.15;11.7;10.80;69632;5137.980;-12820.477;208;50;57.4;54;54.1;-11;-10.8;29.2;-1.0;
14/06/2019 02:40:59;117;0;208.14;17;19.56;-2.42;11.5;10.80;69641;5137.980;-12820.477;208;50;57.4;54;54.1;-13;-13.1;29.2;-1.0;
14/06/2019 02:41:19;117;0;209.76;17;20.85;-3.63;11.4;10.80;69660;5137.980;-12820.477;208;50;57.4;54;54.1;-12;-11.7;29.2;-1.0;
14/06/2019 02:41:39;117;0;211.17;17;20.67;-2.59;11.3;10.90;69678;5137.980;-12820.477;208;50;57.4;54;54.1;-13;-13.1;29.2;-1.0;
14/06/2019 02:41:59;117;0;213.64;17;20.71;-3.49;11.2;10.90;69688;5137.980;-12820.477;208;50;57.4;54;54.1;-14;-14.4;29.2;-1.0;
14/06/2019 02:42:19;117;0;216.18;17;21.60;-4.72;11.1;10.90;69676;5137.980;-12820.477;208;50;57.4;54;54.1;-15;-14.9;29.2;-1.0;
14/06/2019 02:42:39;117;32;218.41;17;20.92;-3.42;10.9;10.90;69691;5137.980;-12820.477;208;400;59.4;20;19.7;0;0.5;29.3;-1.0;
14/06/2019 02:42:59;117;32;213.37;17;62.06;1.09;10.5;11.00;69707;5137.980;-12820.477;208;400;231.7;20;19.7;0;0.5;29.2;-1.0;
