Timestamp;NavState;SecurityLevel;Heading;Declination;Pitch;Roll;Depth;Temperature;Pa;Lat;Lon;DesiredH;BallastCmd;BallastPos;LinCmd;LinPos;AngCmd;AngPos;Voltage;Altitude;
16/06/2019 22:28:21;117;0;43.64;17;16.23;1.56;9.6;10.00;69347;5127.070;-12834.767;60;150;156.4;57;57.1;-5;-4.5;28.6;-1.0;
16/06/2019 22:28:31;115;0;42.89;17;15.58;1.39;8.9;10.00;69348;5127.070;-12834.767;60;500;168.3;100;100.3;0;1.4;28.6;-1.0;
16/06/2019 22:28:41;115;0;57.31;17;-25.89;4.96;8.4;10.00;69288;5127.070;-12834.767;60;500;318.8;100;99.9;0;0.9;28.2;-1.0;
16/06/2019 22:28:51;115;0;46.00;17;-66.73;2.57;8.9;10.00;69089;5127.070;-12834.767;60;500;467.3;100;100.0;0;1.4;28.2;-1.0;
16/06/2019 22:29:01;115;0;43.57;17;-58.12;4.01;7.7;10.10;68845;5127.070;-12834.767;60;500;506.9;100;99.9;0;1.4;28.3;-1.0;
16/06/2019 22:29:11;115;0;14.01;17;-28.05;4.65;4.9;10.10;68808;5127.070;-12834.767;60;500;506.9;100;99.9;0;1.4;28.6;-1.0;
16/06/2019 22:29:21;116;0;322.06;17;-76.42;34.73;1.8;10.20;68834;5127.070;-12834.767;60;500;506.9;100;100.0;0;1.4;28.6;-1.0;
16/06/2019 22:29:41;116;0;281.35;17;-21.11;4.77;1.5;10.20;68868;5127.070;-12834.767;60;500;506.9;100;99.9;0;1.4;28.6;-1.0;
16/06/2019 22:30:01;116;0;204.77;17;-6.58;5.18;1.4;10.40;68911;5127.070;-12834.767;60;500;510.9;100;99.7;0;1.4;28.6;-1.0;
16/06/2019 22:30:21;116;0;179.14;17;-3.31;2.78;1.5;10.40;68924;5127.109;-12834.351;60;500;508.9;100;99.9;0;0.9;28.6;-1.0;
16/06/2019 22:30:45;116;0;200.93;17;-5.61;3.28;1.4;10.60;68944;5127.105;-12834.351;60;500;508.9;100;99.9;0;1.4;28.6;-1.0;
16/06/2019 22:31:05;116;0;198.23;17;-5.83;4.26;1.4;10.70;68966;5127.101;-12834.350;60;500;508.9;100;99.7;0;1.4;28.6;-1.0;
16/06/2019 22:31:25;116;0;185.50;17;-9.66;6.44;1.5;10.80;68979;5127.098;-12834.351;60;500;508.9;100;99.9;0;1.4;28.6;-1.0;
16/06/2019 22:31:45;116;0;187.75;17;-9.20;5.77;1.5;11.00;68987;5127.094;-12834.350;55;500;506.9;100;99.7;0;1.4;28.6;-1.0;
16/06/2019 22:32:05;116;0;209.57;17;-5.39;4.40;1.5;11.10;69008;5127.223;-12834.128;55;500;510.9;100;99.7;0;1.4;28.6;-1.0;
16/06/2019 22:34:04;116;0;187.68;17;-10.05;-0.24;1.5;11.90;69071;5127.231;-12834.116;55;500;508.9;100;99.7;0;1.4;28.6;-1.0;
16/06/2019 22:34:24;116;0;198.33;17;-6.21;6.41;1.4;12.10;69078;5127.204;-12834.147;55;500;508.9;100;99.7;0;1.4;28.6;-1.0;
16/06/2019 22:34:44;116;0;186.18;17;-5.35;4.61;1.5;12.20;69084;5127.216;-12834.112;55;500;508.9;100;99.9;0;1.4;28.6;-1.0;
16/06/2019 22:35:18;116;0;187.00;17;-4.39;2.75;1.5;12.40;69095;5127.216;-12834.112;55;500;510.9;100;99.7;0;1.4;28.6;-1.0;
16/06/2019 22:35:38;116;0;196.80;17;-5.75;3.02;1.5;12.60;69106;5127.216;-12834.112;55;500;508.9;100;99.9;0;1.4;28.6;-1.0;
16/06/2019 22:35:58;116;0;193.06;17;-6.92;0.48;1.4;12.70;69114;5127.025;-12834.334;55;500;508.9;100;99.9;0;1.4;28.6;-1.0;
16/06/2019 22:37:18;116;0;209.49;17;-5.34;0.44;1.5;13.40;69144;5127.024;-12834.333;55;500;508.9;100;99.9;0;1.4;28.6;-1.0;
16/06/2019 22:37:38;116;0;209.17;17;-22.02;6.72;1.5;13.50;69144;5127.023;-12834.331;55;500;508.9;100;99.7;0;1.4;28.6;-1.0;
16/06/2019 22:37:58;116;0;186.55;17;-5.79;6.22;1.5;13.60;69153;5127.023;-12834.329;55;500;508.9;100;99.7;0;1.4;28.6;-1.0;
16/06/2019 22:38:31;116;0;178.98;17;-27.56;1.70;1.6;13.80;69157;5127.023;-12834.329;55;500;508.9;100;99.7;0;1.4;28.6;-1.0;
16/06/2019 22:38:51;116;0;173.53;17;-16.37;-0.79;1.5;13.90;69178;5127.054;-12834.392;55;500;508.9;100;99.7;0;1.4;28.6;-1.0;
16/06/2019 22:39:11;116;0;183.19;17;-15.66;5.33;1.5;14.10;69171;5127.012;-12834.375;55;500;508.9;100;99.9;0;1.4;28.6;-1.0;
16/06/2019 22:39:31;116;0;202.75;17;-25.49;5.40;1.5;14.20;69176;5127.011;-12834.371;55;500;510.9;100;99.9;0;1.4;28.6;-1.0;
16/06/2019 22:39:51;110;0;206.58;17;-13.71;3.18;1.5;14.30;69189;5127.011;-12834.371;55;-300;409.9;100;99.7;0;1.4;28.6;-1.0;
16/06/2019 22:40:01;110;0;188.90;17;-6.64;1.70;1.5;14.30;69425;5127.011;-12834.371;55;-300;267.3;100;99.7;0;1.4;28.5;-1.0;
16/06/2019 22:40:11;110;0;197.56;17;-15.61;0.81;1.5;14.40;69614;5127.011;-12834.371;55;-300;120.8;100;99.9;0;1.4;28.5;-1.0;
16/06/2019 22:40:21;110;0;186.45;17;-34.02;2.50;1.9;14.40;69859;5127.011;-12834.371;55;-300;-49.5;100;100.0;0;1.4;28.6;-1.0;
16/06/2019 22:40:31;110;0;178.50;17;-55.80;5.16;2.9;14.40;70132;5127.011;-12834.371;55;-300;-247.5;95;94.8;0;1.4;28.5;-1.0;
16/06/2019 22:40:41;110;0;178.21;17;-55.89;3.54;4.5;14.40;70456;5127.011;-12834.371;55;-300;-301.0;78;77.8;0;1.4;28.5;-1.0;
16/06/2019 22:40:51;110;0;192.65;17;-47.66;4.22;7.3;14.40;70506;5127.011;-12834.371;55;-300;-301.0;73;73.0;0;1.4;28.6;-1.0;
16/06/2019 22:41:01;100;0;195.26;17;-35.24;4.45;10.4;14.40;70490;5127.011;-12834.371;55;-300;-301.0;73;73.0;0;1.4;28.6;-1.0;
16/06/2019 22:41:21;100;0;194.40;17;-27.17;4.26;15.4;14.40;70456;5127.011;-12834.371;55;-300;-297.0;73;73.0;45;45.1;28.6;0.0;
16/06/2019 22:41:41;100;0;176.01;17;-22.17;25.43;19.9;14.40;70415;5127.011;-12834.371;55;-300;-297.0;73;73.0;45;46.0;28.6;0.0;
16/06/2019 22:42:01;100;0;151.34;17;-22.28;25.82;23.4;14.30;70367;5127.011;-12834.371;55;-300;-297.0;73;73.0;39;38.4;28.6;0.0;
16/06/2019 22:42:21;100;0;130.05;17;-22.57;21.31;26.9;14.30;70326;5127.011;-12834.371;55;-300;-297.0;73;73.0;26;26.2;28.6;0.0;
16/06/2019 22:42:41;100;0;114.88;17;-24.63;15.27;30.2;14.20;70300;5127.011;-12834.371;55;-300;-295.0;73;73.0;20;19.4;28.6;0.0;
16/06/2019 22:43:01;100;0;108.18;17;-24.09;11.78;33.8;14.10;70255;5127.011;-12834.371;55;-300;-295.0;73;73.0;22;22.1;28.6;0.0;
16/06/2019 22:43:21;100;0;98.43;17;-24.09;13.88;37.3;14.10;70226;5127.011;-12834.371;55;-300;-295.0;73;73.0;19;19.0;28.6;0.0;
16/06/2019 22:43:41;100;0;92.91;17;-24.47;11.70;40.8;14.00;70185;5127.011;-12834.371;55;-300;-295.0;73;72.9;19;18.1;28.6;0.0;
16/06/2019 22:44:01;100;0;83.87;17;-23.65;11.65;44.3;13.90;70148;5127.011;-12834.371;55;-300;-299.0;73;73.0;17;17.1;28.6;0.0;
16/06/2019 22:44:21;100;0;75.30;17;-23.50;10.83;47.8;13.80;70115;5127.011;-12834.371;55;-300;-293.1;73;73.0;16;15.3;28.6;0.0;
16/06/2019 22:44:41;100;0;64.02;17;-23.62;10.09;51.3;13.70;70106;5127.011;-12834.371;55;-300;-295.0;73;72.9;13;13.1;28.6;0.0;
16/06/2019 22:45:01;100;0;50.38;17;-23.77;9.33;54.9;13.70;70080;5127.011;-12834.371;55;-300;-295.0;73;72.9;8;8.1;28.6;0.0;
16/06/2019 22:45:21;100;0;39.38;17;-23.85;6.60;58.4;13.60;70070;5127.011;-12834.371;55;-300;-295.0;73;72.9;6;5.9;28.6;0.0;
16/06/2019 22:45:41;100;0;34.22;17;-24.30;5.64;61.9;13.50;70044;5127.011;-12834.371;55;-300;-295.0;73;72.9;6;5.0;28.6;0.0;
16/06/2019 22:46:01;100;0;25.27;17;-24.84;5.74;65.2;13.50;70020;5127.011;-12834.371;55;-300;-295.0;73;73.0;5;5.0;28.6;0.0;
16/06/2019 22:46:21;100;0;13.25;17;-23.12;5.61;68.8;13.40;69996;5127.011;-12834.371;55;-300;-295.0;73;72.9;1;0.9;28.6;0.0;
16/06/2019 22:46:41;100;0;5.99;17;-23.13;3.35;71.9;13.30;69976;5127.011;-12834.371;55;-300;-295.0;73;72.9;0;0.0;28.6;0.0;
16/06/2019 22:47:01;100;0;359.14;17;-23.00;3.23;75.0;13.20;69946;5127.011;-12834.371;55;-300;-293.1;73;72.9;0;0.0;28.6;0.0;
16/06/2019 22:47:21;100;0;356.36;17;-23.18;3.29;78.1;13.20;69937;5127.011;-12834.371;55;-300;-295.0;73;72.9;0;0.0;28.6;0.0;
16/06/2019 22:47:41;100;0;353.52;17;-23.30;3.26;81.2;13.10;69916;5127.011;-12834.371;55;-300;-295.0;73;72.9;0;0.0;28.6;0.0;
16/06/2019 22:48:01;100;0;348.07;17;-23.31;3.32;84.4;13.00;69903;5127.011;-12834.371;55;-300;-293.1;73;72.9;-3;-3.6;28.6;0.0;
16/06/2019 22:48:21;100;0;345.53;17;-22.97;1.54;87.6;13.00;69894;5127.011;-12834.371;55;-300;-295.0;73;72.9;-5;-5.4;28.6;0.0;
16/06/2019 22:48:41;100;0;340.77;17;-22.88;0.62;90.8;12.90;69870;5127.011;-12834.371;55;-300;-293.1;73;72.9;-9;-9.5;28.6;0.0;
16/06/2019 22:49:01;100;0;334.53;17;-22.55;-1.23;94.0;12.80;69861;5127.011;-12834.371;55;-300;-293.1;73;72.9;-13;-13.5;28.6;0.0;
16/06/2019 22:49:21;100;0;333.37;17;-22.80;-3.05;97.1;12.80;69864;5127.011;-12834.371;55;-300;-293.1;73;72.9;-15;-15.3;28.6;0.0;
16/06/2019 22:49:41;100;0;332.78;17;-22.56;-3.75;100.3;12.70;69854;5127.011;-12834.371;55;-300;-295.0;73;72.9;-17;-17.6;28.6;0.0;
16/06/2019 22:50:01;100;0;329.14;17;-22.25;-4.91;103.4;12.60;69830;5127.011;-12834.371;55;-300;-295.0;73;72.9;-20;-19.9;28.6;0.0;
16/06/2019 22:50:21;100;0;329.16;17;-22.47;-6.04;106.3;12.60;69833;5127.011;-12834.371;55;-300;-293.1;73;72.9;-22;-22.1;28.6;0.0;
16/06/2019 22:50:41;100;0;329.38;17;-22.80;-7.02;109.1;12.50;69825;5127.011;-12834.371;55;-300;-293.1;73;72.9;-24;-24.4;28.6;0.0;
16/06/2019 22:51:01;100;0;329.47;17;-23.09;-8.00;111.9;12.50;69824;5127.011;-12834.371;55;-300;-295.0;73;72.9;-27;-27.1;28.6;0.0;
16/06/2019 22:51:21;100;0;327.33;17;-22.62;-9.49;114.9;12.40;69800;5127.011;-12834.371;55;-300;-295.0;73;72.9;-29;-28.9;28.6;0.0;
16/06/2019 22:51:41;100;0;329.18;17;-21.23;-10.18;117.8;12.40;69793;5127.011;-12834.371;55;-300;-293.1;73;72.9;-28;-28.0;28.6;0.0;
16/06/2019 22:52:01;100;0;332.65;17;-21.95;-9.23;120.4;12.30;69785;5127.011;-12834.371;55;-300;-293.1;73;72.9;-26;-25.7;28.5;0.0;
16/06/2019 22:52:21;100;0;331.78;17;-21.06;-8.23;122.9;12.20;69775;5127.011;-12834.371;55;-300;-293.1;73;72.9;-27;-27.1;28.6;0.0;
16/06/2019 22:52:41;100;0;332.59;17;-21.07;-9.35;125.4;12.20;69761;5127.011;-12834.371;55;-300;-293.1;73;72.9;-27;-27.5;28.6;0.0;
16/06/2019 22:53:01;100;0;338.05;17;-21.21;-9.53;127.6;12.10;69751;5127.011;-12834.371;55;-300;-293.1;73;72.9;-24;-23.5;28.6;0.0;
16/06/2019 22:53:21;100;0;341.91;17;-21.20;-7.28;129.9;12.10;69744;5127.011;-12834.371;55;-300;-293.1;73;72.9;-23;-23.0;28.6;0.0;
16/06/2019 22:53:41;100;0;341.62;17;-20.22;-7.14;132.3;12.00;69727;5127.011;-12834.371;55;-300;-293.1;73;72.9;-25;-24.8;28.6;0.0;
16/06/2019 22:54:01;100;0;340.13;17;-20.42;-8.41;134.6;12.00;69714;5127.011;-12834.371;55;-300;-293.1;73;72.9;-26;-26.2;28.6;0.0;
16/06/2019 22:54:21;100;0;340.23;17;-20.74;-8.89;136.9;11.90;69701;5127.011;-12834.371;55;-300;-293.1;73;72.9;-26;-26.2;28.6;0.0;
16/06/2019 22:54:41;100;0;341.03;17;-19.89;-8.97;139.3;11.90;69689;5127.011;-12834.371;55;-300;-293.1;73;72.9;-25;-24.8;28.6;0.0;
16/06/2019 22:55:01;100;0;348.65;17;-19.30;-7.94;141.7;11.80;69669;5127.011;-12834.371;55;-300;-293.1;73;73.0;-21;-21.2;28.6;0.0;
16/06/2019 22:55:21;100;0;354.63;17;-19.01;-6.12;144.0;11.70;69659;5127.011;-12834.371;55;-300;-293.1;73;72.9;-19;-18.5;28.6;0.0;
16/06/2019 22:55:41;100;0;355.38;17;-18.95;-4.99;146.2;11.70;69640;5127.011;-12834.371;55;-300;-293.1;73;72.9;-21;-21.2;28.6;0.0;
16/06/2019 22:56:01;100;0;356.09;17;-19.06;-6.54;148.4;11.60;69624;5127.011;-12834.371;55;-300;-293.1;73;72.9;-21;-21.2;28.6;0.0;
16/06/2019 22:56:21;100;0;357.00;17;-19.21;-6.65;150.5;11.50;69609;5127.011;-12834.371;55;-300;-293.1;73;72.9;-21;-21.7;28.6;0.0;
16/06/2019 22:56:41;100;0;357.75;17;-19.37;-6.66;152.6;11.50;69594;5127.011;-12834.371;55;-300;-293.1;73;72.9;-22;-22.1;28.6;0.0;
16/06/2019 22:57:01;100;0;0.81;17;-19.12;-7.16;154.8;11.40;69580;5127.011;-12834.371;55;-300;-293.1;73;72.9;-20;-19.9;28.6;0.0;
16/06/2019 22:57:21;100;0;0.22;17;-18.98;-5.40;156.9;11.40;69567;5127.011;-12834.371;55;-300;-293.1;73;72.9;-21;-21.2;28.6;0.0;
16/06/2019 22:57:41;100;0;1.33;17;-19.02;-6.77;158.9;11.30;69565;5127.011;-12834.371;55;-300;-293.1;73;72.9;-21;-21.7;28.6;0.0;
16/06/2019 22:58:01;100;0;2.44;17;-19.02;-6.73;161.1;11.20;69556;5127.011;-12834.371;55;-300;-291.1;73;72.9;-21;-21.7;28.6;0.0;
16/06/2019 22:58:21;100;0;3.94;17;-19.02;-6.74;163.2;11.20;69542;5127.011;-12834.371;55;-300;-293.1;73;72.9;-21;-21.7;28.6;0.0;
16/06/2019 22:58:41;100;0;4.70;17;-18.98;-6.73;165.2;11.10;69527;5127.011;-12834.371;55;-300;-291.1;73;72.9;-20;-19.9;28.6;43.9;
16/06/2019 22:59:01;100;0;4.88;17;-18.95;-5.60;167.3;11.10;69523;5127.011;-12834.371;55;-300;-293.1;73;72.9;-21;-21.2;28.6;41.6;
16/06/2019 22:59:21;100;0;5.90;17;-18.94;-6.64;169.3;11.00;69516;5127.011;-12834.371;55;-300;-291.1;73;72.9;-20;-19.9;28.6;39.5;
16/06/2019 22:59:41;100;0;5.93;17;-18.87;-5.51;171.4;10.90;69503;5127.011;-12834.371;55;-300;-293.1;73;72.9;-21;-21.7;28.6;37.2;
16/06/2019 23:00:01;100;0;7.09;17;-19.15;-6.78;173.5;10.90;69507;5127.011;-12834.371;55;-300;-291.1;73;72.9;-20;-19.9;28.6;35.1;
16/06/2019 23:00:21;100;0;6.92;17;-18.93;-5.36;175.6;10.80;69496;5127.011;-12834.371;55;-300;-293.1;73;72.9;-21;-21.2;28.6;32.8;
16/06/2019 23:00:41;100;0;8.13;17;-18.96;-6.80;177.6;10.80;69496;5127.011;-12834.371;55;-300;-293.1;73;72.9;-20;-19.9;28.6;30.7;
16/06/2019 23:01:01;100;0;8.39;17;-18.83;-5.63;179.7;10.70;69489;5127.011;-12834.371;55;-300;-293.1;73;72.9;-20;-19.4;28.6;28.7;
16/06/2019 23:01:22;100;0;8.68;17;-18.83;-5.61;181.6;10.70;69478;5127.011;-12834.371;55;-300;-293.1;73;72.9;-20;-19.4;28.6;26.7;
16/06/2019 23:01:42;100;0;9.45;17;-18.88;-5.59;183.6;10.60;69485;5127.011;-12834.371;55;-300;-291.1;73;72.9;-20;-19.4;28.6;24.8;
16/06/2019 23:02:02;100;0;9.36;17;-18.96;-5.56;185.6;10.60;69474;5127.011;-12834.371;55;-300;-291.1;73;72.9;-20;-19.4;28.6;22.8;
16/06/2019 23:02:22;100;0;10.14;17;-18.80;-5.45;187.5;10.60;69484;5127.011;-12834.371;55;-300;-293.1;73;72.9;-19;-19.0;28.6;20.8;
16/06/2019 23:02:42;100;0;10.00;17;-18.95;-5.07;189.5;10.50;69480;5127.011;-12834.371;55;-300;-291.1;73;72.9;-20;-19.9;28.6;18.8;
16/06/2019 23:03:02;118;0;10.97;17;-18.77;-6.04;191.5;10.50;69468;5127.011;-12834.371;55;150;-277.2;57;56.6;0;0.9;28.6;9.9;
16/06/2019 23:03:12;118;0;44.04;17;2.72;4.11;192.3;10.50;69384;5127.011;-12834.371;55;150;-120.8;57;57.2;0;0.5;28.0;9.9;
16/06/2019 23:03:22;118;0;40.98;17;20.22;3.64;192.1;10.40;69177;5127.011;-12834.371;55;150;33.7;57;57.1;0;0.9;28.0;-1.0;
16/06/2019 23:03:32;118;0;40.19;17;23.84;3.63;191.1;10.40;68925;5127.011;-12834.371;55;150;156.4;57;57.1;0;0.9;28.0;-1.0;
16/06/2019 23:03:42;118;0;4.65;17;24.73;3.69;189.9;10.40;68743;5127.011;-12834.371;55;150;156.4;57;57.2;0;0.9;28.6;-1.0;
16/06/2019 23:03:52;118;0;4.90;17;27.04;3.92;188.3;10.40;68741;5127.011;-12834.371;55;150;156.4;57;57.1;0;0.9;28.6;-1.0;
16/06/2019 23:04:02;117;0;4.69;17;27.78;3.94;186.4;10.40;68753;5127.011;-12834.371;55;150;156.4;57;57.2;0;0.9;28.6;-1.0;
16/06/2019 23:04:22;117;0;3.49;17;28.12;3.67;182.1;10.30;68750;5127.011;-12834.371;55;150;156.4;57;57.1;24;23.9;28.6;-1.0;
16/06/2019 23:04:42;117;0;10.19;17;27.82;15.38;177.3;10.30;68747;5127.011;-12834.371;55;150;156.4;57;57.1;19;19.0;28.6;-1.0;
16/06/2019 23:05:02;117;0;16.12;17;28.03;12.28;172.7;10.20;68721;5127.011;-12834.371;55;150;156.4;57;57.2;16;15.8;28.6;-1.0;
16/06/2019 23:05:22;117;0;21.37;17;28.06;10.41;168.1;10.20;68725;5127.011;-12834.371;55;150;158.4;57;57.2;14;14.0;28.6;-1.0;
16/06/2019 23:05:42;117;0;24.96;17;28.15;9.66;163.5;10.10;68713;5127.011;-12834.371;55;150;156.4;57;57.2;14;13.5;28.6;-1.0;
16/06/2019 23:06:02;117;0;28.36;17;28.21;9.63;159.0;10.10;68720;5127.011;-12834.371;55;150;158.4;57;57.2;13;12.6;28.6;-1.0;
16/06/2019 23:06:22;117;0;31.02;17;28.23;9.18;154.3;10.10;68708;5127.011;-12834.371;55;150;156.4;57;57.1;13;12.2;28.6;-1.0;
16/06/2019 23:06:42;117;0;36.99;17;28.47;9.25;149.6;10.00;68716;5127.011;-12834.371;55;150;156.4;57;57.1;12;12.2;28.6;-1.0;
16/06/2019 23:07:02;117;0;38.20;17;28.45;8.93;144.8;10.00;68724;5127.011;-12834.371;55;150;158.4;57;57.1;12;12.2;28.6;-1.0;
16/06/2019 23:07:22;117;0;29.14;17;27.27;9.18;139.9;9.90;68740;5127.011;-12834.371;55;150;158.4;57;57.1;18;18.1;28.6;-1.0;
16/06/2019 23:07:42;117;0;41.29;17;25.07;12.77;135.8;9.90;68756;5127.011;-12834.371;55;150;158.4;57;57.1;18;19.0;28.6;-1.0;
16/06/2019 23:08:02;117;0;45.37;17;26.33;12.76;131.9;9.90;68774;5127.011;-12834.371;55;150;158.4;57;57.1;10;9.5;28.6;-1.0;
16/06/2019 23:08:22;117;0;57.75;17;24.32;7.37;127.9;9.90;68789;5127.011;-12834.371;55;150;158.4;57;57.1;4;4.1;28.6;-1.0;
16/06/2019 23:08:42;117;0;59.22;17;24.89;5.04;124.5;9.90;68801;5127.011;-12834.371;55;150;158.4;57;57.1;5;5.0;28.6;-1.0;
16/06/2019 23:09:02;117;0;59.85;17;24.07;5.67;121.1;9.90;68821;5127.011;-12834.371;55;150;156.4;57;57.1;6;5.9;28.6;-1.0;
16/06/2019 23:09:22;117;0;55.11;17;23.23;6.41;117.8;9.90;68838;5127.011;-12834.371;55;150;156.4;57;57.1;9;9.5;28.6;-1.0;
16/06/2019 23:09:42;117;0;58.04;17;23.26;8.23;114.6;9.90;68843;5127.011;-12834.371;55;150;158.4;57;57.1;6;5.9;28.6;-1.0;
16/06/2019 23:10:02;117;0;61.99;17;22.85;5.75;111.6;9.90;68854;5127.011;-12834.371;55;150;156.4;57;57.2;4;4.1;28.6;-1.0;
16/06/2019 23:10:22;117;0;66.86;17;22.47;4.94;108.6;9.80;68853;5127.011;-12834.371;55;150;156.4;57;57.1;2;1.8;28.6;-1.0;
16/06/2019 23:10:42;117;0;69.34;17;22.87;3.83;105.8;9.80;68860;5127.011;-12834.371;55;150;158.4;57;57.1;1;0.9;28.6;-1.0;
16/06/2019 23:11:02;117;0;68.90;17;22.85;3.22;102.8;9.80;68872;5127.011;-12834.371;55;150;158.4;57;57.1;2;1.8;28.6;-1.0;
16/06/2019 23:11:22;117;0;66.12;17;22.32;4.37;99.8;9.80;68874;5127.011;-12834.371;55;150;156.4;57;57.1;3;3.2;28.6;-1.0;
16/06/2019 23:11:42;117;0;63.92;17;21.97;4.94;97.0;9.80;68874;5127.011;-12834.371;55;150;158.4;57;57.1;4;4.1;28.6;-1.0;
16/06/2019 23:12:02;117;0;62.08;17;22.47;5.12;94.3;9.80;68869;5127.011;-12834.371;55;150;158.4;57;57.1;3;3.2;28.6;-1.0;
16/06/2019 23:12:22;117;0;61.99;17;22.08;4.53;91.7;9.80;68880;5127.011;-12834.371;55;150;158.4;57;57.1;3;2.7;28.6;-1.0;
16/06/2019 23:12:42;117;0;61.92;17;22.16;4.57;88.8;9.80;68878;5127.011;-12834.371;55;150;156.4;57;57.1;2;1.4;28.6;-1.0;
16/06/2019 23:13:02;117;0;67.19;17;21.77;3.44;85.9;9.80;68886;5127.011;-12834.371;55;150;158.4;57;57.1;-2;-1.8;28.6;-1.0;
16/06/2019 23:13:22;117;0;64.25;17;21.88;1.94;83.1;9.80;68881;5127.011;-12834.371;55;150;158.4;57;57.1;0;0.5;28.6;-1.0;
16/06/2019 23:13:42;117;0;66.26;17;21.73;3.65;80.2;9.80;68894;5127.011;-12834.371;55;150;158.4;57;57.1;-1;-0.9;28.6;-1.0;
16/06/2019 23:14:02;117;0;66.95;17;21.62;2.46;77.3;9.80;68905;5127.011;-12834.371;55;150;158.4;57;57.1;-2;-1.8;28.6;-1.0;
16/06/2019 23:14:22;117;0;67.97;17;21.33;1.96;74.5;9.80;68894;5127.011;-12834.371;55;150;158.4;57;57.1;-3;-3.2;28.6;-1.0;
16/06/2019 23:14:42;117;0;68.72;17;21.39;1.32;71.7;9.80;68903;5127.011;-12834.371;55;150;158.4;57;57.1;-4;-4.1;28.6;-1.0;
16/06/2019 23:15:02;117;0;68.36;17;20.97;0.82;68.9;9.80;68922;5127.011;-12834.371;55;150;158.4;57;57.1;-4;-4.5;28.6;-1.0;
16/06/2019 23:15:22;117;0;68.93;17;20.63;0.91;66.3;9.80;68919;5127.011;-12834.371;55;150;158.4;57;57.1;-4;-5.0;28.6;-1.0;
16/06/2019 23:15:42;117;0;73.17;17;19.88;0.92;63.7;9.80;68927;5127.011;-12834.371;55;150;158.4;57;57.1;-8;-8.1;28.6;-1.0;
16/06/2019 23:16:02;117;0;70.58;17;19.85;-0.99;61.2;9.80;68941;5127.011;-12834.371;55;150;156.4;57;57.1;-6;-5.4;28.6;-1.0;
16/06/2019 23:16:22;117;0;67.06;17;19.56;0.97;58.6;9.80;68958;5127.011;-12834.371;55;150;156.4;57;57.1;-5;-5.0;28.6;-1.0;
16/06/2019 23:16:42;117;0;65.32;17;19.61;0.97;56.1;9.80;68974;5127.011;-12834.371;55;150;158.4;57;57.1;-5;-5.0;28.6;-1.0;
16/06/2019 23:17:02;117;0;65.30;17;19.18;0.97;53.6;9.80;68986;5127.011;-12834.371;55;150;160.4;57;57.2;-6;-5.9;28.6;-1.0;
16/06/2019 23:17:22;117;0;68.09;17;19.10;0.20;51.4;9.80;68992;5127.011;-12834.371;55;150;158.4;57;57.1;-8;-8.1;28.6;-1.0;
16/06/2019 23:17:42;117;0;66.87;17;19.13;-1.10;49.1;9.90;69005;5127.011;-12834.371;55;150;158.4;57;57.1;-8;-8.6;28.6;-1.0;
16/06/2019 23:18:02;117;0;64.41;17;19.22;-1.09;46.8;9.90;69012;5127.011;-12834.371;55;150;158.4;57;57.1;-7;-7.2;28.6;-1.0;
16/06/2019 23:18:22;117;0;64.14;17;18.86;0.26;44.5;9.90;69023;5127.011;-12834.371;55;150;158.4;57;57.1;-8;-8.1;28.6;-1.0;
16/06/2019 23:18:42;117;0;62.35;17;18.84;-0.97;42.2;9.90;69042;5127.011;-12834.371;55;150;158.4;57;57.1;-8;-8.6;28.6;-1.0;
16/06/2019 23:19:02;117;0;60.40;17;18.44;-0.91;40.1;9.90;69045;5127.011;-12834.371;55;150;158.4;57;57.1;-8;-8.6;28.6;-1.0;
16/06/2019 23:19:22;117;0;57.04;17;18.92;-1.03;37.9;9.90;69049;5127.011;-12834.371;55;150;158.4;57;57.2;-7;-7.2;28.6;-1.0;
16/06/2019 23:19:42;117;0;58.45;17;18.66;0.29;35.9;9.90;69064;5127.011;-12834.371;55;150;160.4;57;57.1;-9;-9.0;28.6;-1.0;
16/06/2019 23:20:02;117;0;60.30;17;18.64;-1.27;33.6;10.00;69074;5127.011;-12834.371;55;150;158.4;57;57.1;-11;-10.8;28.6;-1.0;
16/06/2019 23:20:22;117;0;55.74;17;18.16;-2.27;31.5;10.00;69087;5127.011;-12834.371;55;150;158.4;57;57.2;-9;-9.0;28.6;-1.0;
16/06/2019 23:20:42;117;0;47.58;17;17.89;-0.87;29.5;10.00;69093;5127.011;-12834.371;55;150;158.4;57;57.1;-6;-5.4;28.6;-1.0;
16/06/2019 23:21:02;117;0;37.71;17;17.39;1.04;27.5;10.00;69101;5127.011;-12834.371;55;150;158.4;57;57.2;-6;-5.0;28.6;-1.0;
16/06/2019 23:21:22;117;0;34.48;17;17.26;1.12;25.6;10.00;69124;5127.011;-12834.371;55;150;158.4;57;57.2;-3;-3.2;28.6;-1.0;
16/06/2019 23:21:42;117;0;36.84;17;17.56;2.45;23.9;10.10;69141;5127.011;-12834.371;55;150;158.4;57;57.2;-6;-5.9;28.6;-1.0;
16/06/2019 23:22:02;117;0;28.76;17;17.35;0.18;22.2;10.10;69162;5127.011;-12834.371;55;150;158.4;57;57.2;-2;-1.8;28.6;-1.0;
16/06/2019 23:22:22;117;0;23.88;17;17.21;2.83;20.6;10.10;69179;5127.011;-12834.371;55;150;158.4;57;57.1;0;0.0;28.6;-1.0;
16/06/2019 23:22:42;117;0;20.47;17;16.99;3.90;18.9;10.10;69198;5127.011;-12834.371;55;150;158.4;57;57.2;0;0.5;28.6;-1.0;
16/06/2019 23:23:02;117;0;15.76;17;16.11;3.84;17.2;10.20;69233;5127.011;-12834.371;55;150;158.4;57;57.1;2;1.8;28.6;-1.0;
16/06/2019 23:23:22;117;0;16.28;17;15.81;4.74;15.5;10.20;69273;5127.011;-12834.371;55;150;158.4;57;57.1;0;-0.5;28.6;-1.0;
16/06/2019 23:23:42;117;0;13.48;17;15.87;2.98;13.9;10.30;69289;5127.011;-12834.371;55;150;158.4;57;57.1;2;1.8;28.6;-1.0;
16/06/2019 23:24:02;117;0;10.75;17;15.81;4.82;12.3;10.30;69315;5127.011;-12834.371;55;150;158.4;57;57.1;3;3.2;28.6;-1.0;
16/06/2019 23:24:22;117;0;12.30;17;15.40;5.52;10.6;10.30;69331;5127.011;-12834.371;55;150;158.4;57;57.1;1;0.9;28.6;-1.0;
16/06/2019 23:24:42;117;0;17.66;17;15.54;3.88;9.0;10.40;69374;5127.011;-12834.371;55;150;158.4;57;57.1;0;-0.5;28.6;-1.0;
16/06/2019 23:25:02;117;0;19.06;17;15.83;3.27;7.5;10.40;69396;5127.011;-12834.371;55;150;158.4;57;57.1;0;-0.5;28.6;-1.0;
16/06/2019 23:25:22;117;0;22.00;17;15.04;2.92;5.9;10.50;69417;5127.011;-12834.371;55;150;158.4;57;57.2;0;-0.5;28.6;-1.0;
