Timestamp;NavState;SecurityLevel;Heading;Declination;Pitch;Roll;Depth;Temperature;Pa;Lat;Lon;DesiredH;BallastCmd;BallastPos;LinCmd;LinPos;AngCmd;AngPos;Voltage;Altitude;
15/06/2019 08:32:25;117;0;250.55;17;15.86;2.01;9.8;10.50;69450;5126.521;-12830.080;250;150;158.4;57;56.9;-2;-2.3;29.0;-1.0;
15/06/2019 08:32:35;115;0;248.64;17;15.62;2.12;9.0;10.50;69458;5126.521;-12830.080;250;500;170.3;100;100.1;0;0.5;29.0;-1.0;
15/06/2019 08:32:45;115;0;227.92;17;-25.24;4.17;8.4;10.60;69387;5126.521;-12830.080;250;500;318.8;100;100.0;0;0.9;28.6;-1.0;
15/06/2019 08:32:55;115;0;259.83;17;-67.17;4.93;9.1;10.60;69188;5126.521;-12830.080;250;500;471.3;100;100.0;0;0.9;28.6;-1.0;
15/06/2019 08:33:05;115;0;277.78;17;-56.44;2.97;8.0;10.60;68944;5126.521;-12830.080;250;500;506.9;100;100.0;0;0.9;28.6;-1.0;
15/06/2019 08:33:15;115;0;292.58;17;-33.71;2.42;5.2;10.60;68925;5126.521;-12830.080;250;500;506.9;100;100.0;0;0.9;29.0;-1.0;
15/06/2019 08:33:25;116;0;57.88;17;-83.19;-79.82;1.4;10.70;68935;5126.521;-12830.080;250;500;505.0;100;100.0;0;0.9;29.0;-1.0;
15/06/2019 08:33:45;116;0;14.91;17;-38.25;5.66;1.2;10.80;68958;5126.521;-12830.080;250;500;508.9;100;99.9;0;0.5;28.9;-1.0;
15/06/2019 08:34:05;116;0;330.34;17;-9.10;4.85;1.2;10.90;68969;5126.047;-12830.698;250;500;506.9;100;99.9;0;0.5;28.9;-1.0;
15/06/2019 08:34:27;116;0;309.83;17;-9.73;0.51;1.2;11.00;68989;5126.046;-12830.698;250;500;508.9;100;99.9;0;0.9;28.9;-1.0;
15/06/2019 08:34:47;116;0;302.54;17;-6.87;6.09;1.2;11.10;68998;5126.044;-12830.703;250;500;508.9;100;99.9;0;0.9;29.0;-1.0;
15/06/2019 08:35:07;116;0;300.96;17;-7.40;8.98;1.2;11.20;69015;5126.002;-12830.759;253;500;508.9;100;99.9;0;0.5;29.0;-1.0;
15/06/2019 08:39:50;116;0;300.08;17;-6.36;5.41;1.2;12.30;69103;5126.002;-12830.760;253;500;508.9;100;99.9;0;0.9;28.9;-1.0;
15/06/2019 08:40:10;116;0;299.55;17;-5.95;4.67;1.3;12.40;69104;5125.995;-12830.768;253;500;508.9;100;99.9;0;0.9;28.9;-1.0;
15/06/2019 08:40:38;116;0;296.03;17;-5.20;3.45;1.2;12.50;69119;5125.992;-12830.772;253;500;508.9;100;99.9;0;0.9;28.9;-1.0;
15/06/2019 08:40:58;116;0;287.08;17;-17.40;3.59;1.3;12.60;69131;5125.989;-12830.775;253;500;508.9;100;99.9;0;0.5;28.9;-1.0;
15/06/2019 08:41:18;116;0;302.58;17;-8.46;3.82;1.3;12.70;69121;5125.988;-12830.776;253;500;508.9;100;99.9;0;0.5;28.9;-1.0;
15/06/2019 08:41:38;116;0;303.21;17;-14.81;8.30;1.2;12.80;69122;5125.986;-12830.781;253;500;508.9;100;99.9;0;0.9;29.0;-1.0;
15/06/2019 08:41:58;116;0;298.95;17;-6.74;8.80;1.2;12.90;69135;5125.975;-12830.800;253;500;508.9;100;99.9;0;0.9;29.0;-1.0;
15/06/2019 08:43:17;116;0;292.21;17;-11.30;2.17;1.3;13.30;69155;5125.974;-12830.800;253;500;508.9;100;99.9;0;0.5;28.8;-1.0;
15/06/2019 08:43:37;116;0;301.21;17;-7.09;0.28;1.2;13.40;69158;5125.962;-12830.819;253;500;508.9;100;99.9;0;0.5;28.9;-1.0;
15/06/2019 08:44:57;116;0;289.02;17;-18.12;3.45;1.3;13.90;69187;5125.957;-12830.824;253;500;508.9;100;99.9;0;0.9;28.9;-1.0;
15/06/2019 08:45:33;116;0;312.65;17;-20.47;3.43;1.3;14.10;69193;5125.956;-12830.826;253;500;508.9;100;99.9;0;0.9;29.0;-1.0;
15/06/2019 08:45:53;116;0;303.17;17;-6.41;3.73;1.2;14.20;69183;5125.955;-12830.830;253;500;508.9;100;99.9;0;0.5;28.9;-1.0;
15/06/2019 08:46:13;116;0;302.26;17;-6.65;2.17;1.3;14.30;69194;5125.950;-12830.838;253;500;508.9;100;99.9;0;0.9;28.9;-1.0;
15/06/2019 08:46:34;116;0;301.72;17;-5.99;6.77;1.3;14.30;69190;5125.949;-12830.842;253;500;510.9;100;100.0;0;0.9;28.9;-1.0;
15/06/2019 08:46:54;116;0;287.31;17;-5.37;2.08;1.2;14.40;69206;5125.944;-12830.846;253;500;508.9;100;99.9;0;0.5;29.0;-1.0;
15/06/2019 08:47:14;116;0;304.53;17;-5.98;5.61;1.2;14.50;69206;5125.942;-12830.848;253;500;508.9;100;99.9;0;0.9;28.9;-1.0;
15/06/2019 08:47:34;116;0;283.83;17;-8.99;3.50;1.2;14.50;69205;5125.940;-12830.854;253;500;508.9;100;99.9;0;0.5;29.0;-1.0;
15/06/2019 08:47:54;116;0;302.47;17;-9.86;1.37;1.2;14.60;69207;5125.937;-12830.858;253;500;508.9;100;99.7;0;0.5;28.9;-1.0;
15/06/2019 08:48:14;116;0;292.56;17;-6.60;3.26;1.2;14.70;69206;5125.934;-12830.865;253;500;508.9;100;99.9;0;0.9;29.0;-1.0;
15/06/2019 08:48:42;116;0;311.36;17;-29.19;4.18;1.5;14.70;69219;5125.933;-12830.866;253;500;508.9;100;99.9;0;0.9;28.9;-1.0;
15/06/2019 08:49:02;116;0;310.96;17;-13.01;3.86;1.2;14.80;69223;5125.930;-12830.869;253;500;508.9;100;99.9;0;0.9;29.0;-1.0;
15/06/2019 08:49:22;116;0;305.46;17;-10.51;-0.47;1.2;14.80;69216;5125.921;-12830.884;253;500;508.9;100;99.9;0;0.9;29.0;-1.0;
15/06/2019 08:50:26;116;0;307.48;17;-5.62;3.47;1.2;15.00;69227;5125.921;-12830.884;253;500;510.9;100;99.9;0;0.5;29.0;-1.0;
15/06/2019 08:50:46;116;0;297.24;17;-8.64;4.03;1.2;15.10;69230;5125.918;-12830.888;253;500;508.9;100;99.9;0;0.5;28.9;-1.0;
15/06/2019 08:51:06;116;0;295.87;17;-6.85;2.02;1.2;15.10;69230;5125.916;-12830.891;253;500;508.9;100;99.9;0;0.9;28.9;-1.0;
15/06/2019 08:51:26;116;0;291.99;17;-8.32;3.29;1.3;15.20;69233;5125.913;-12830.893;253;500;508.9;100;99.9;0;0.5;29.0;-1.0;
15/06/2019 08:51:46;110;0;296.81;17;-9.81;1.11;1.2;15.20;69235;5125.913;-12830.893;253;-300;405.9;100;99.9;0;0.5;29.0;-1.0;
15/06/2019 08:51:56;110;0;316.91;17;-5.13;3.70;1.2;15.20;69476;5125.913;-12830.893;253;-300;263.4;100;99.9;0;0.5;28.9;-1.0;
15/06/2019 08:52:06;110;0;312.49;17;-14.69;2.85;1.3;15.20;69662;5125.913;-12830.893;253;-300;114.9;100;99.9;0;0.9;28.8;-1.0;
15/06/2019 08:52:16;110;0;308.36;17;-30.90;3.84;1.7;15.20;69907;5125.913;-12830.893;253;-300;-59.4;100;100.0;0;0.9;28.9;-1.0;
15/06/2019 08:52:26;110;0;313.25;17;-67.20;5.52;2.9;15.20;70203;5125.913;-12830.893;253;-300;-267.3;94;93.9;0;0.5;28.8;-1.0;
15/06/2019 08:52:36;110;0;293.27;17;-60.68;3.58;5.0;15.20;70551;5125.913;-12830.893;253;-300;-301.0;75;75.0;0;0.9;28.9;-1.0;
15/06/2019 08:52:46;110;0;281.32;17;-43.77;3.81;8.2;15.20;70573;5125.913;-12830.893;253;-300;-301.0;73;72.9;0;0.5;28.9;-1.0;
15/06/2019 08:52:56;100;0;270.49;17;-34.91;4.41;11.3;15.20;70574;5125.913;-12830.893;253;-300;-299.0;73;72.7;0;0.5;29.0;-1.0;
15/06/2019 08:53:16;100;0;260.10;17;-27.56;4.22;16.6;15.20;70553;5125.913;-12830.893;253;-300;-297.0;73;72.7;7;7.7;28.9;0.0;
15/06/2019 08:53:36;100;0;241.51;17;-24.93;7.72;21.4;15.20;70525;5125.913;-12830.893;253;-300;-297.0;73;72.7;-3;-3.2;28.9;0.0;
15/06/2019 08:53:56;100;0;227.70;17;-25.14;2.10;25.2;15.10;70479;5125.913;-12830.893;253;-300;-295.0;73;72.7;-3;-3.6;29.0;0.0;
15/06/2019 08:54:16;100;0;217.10;17;-25.08;2.04;29.1;15.00;70427;5125.913;-12830.893;253;-300;-295.0;73;72.6;-11;-11.3;28.9;0.0;
15/06/2019 08:54:36;100;0;210.61;17;-24.58;-1.90;33.0;15.00;70380;5125.913;-12830.893;253;-300;-295.0;73;72.7;-12;-12.2;29.0;0.0;
15/06/2019 08:54:56;100;0;204.45;17;-24.57;-2.40;36.7;14.90;70314;5125.913;-12830.893;253;-300;-297.0;73;72.7;-12;-12.6;28.9;0.0;
15/06/2019 08:55:16;100;0;202.36;17;-24.24;-2.31;40.3;14.80;70261;5125.913;-12830.893;253;-300;-295.0;73;72.7;-11;-10.8;29.0;0.0;
15/06/2019 08:55:36;100;0;185.67;17;-24.39;-0.97;43.9;14.70;70218;5125.913;-12830.893;253;-300;-295.0;73;72.7;-22;-22.1;28.9;0.0;
15/06/2019 08:55:56;100;0;187.60;17;-24.60;-6.72;47.5;14.60;70195;5125.913;-12830.893;253;-300;-295.0;73;72.7;-18;-17.6;28.9;0.0;
15/06/2019 08:56:16;100;0;190.61;17;-24.20;-4.15;50.9;14.50;70162;5125.913;-12830.893;253;-300;-295.0;73;72.7;-17;-17.1;29.0;0.0;
15/06/2019 08:56:36;100;0;195.58;17;-24.36;-4.54;54.5;14.40;70145;5125.913;-12830.893;253;-300;-295.0;73;72.7;-14;-13.5;29.0;0.0;
15/06/2019 08:56:56;100;0;193.00;17;-23.62;-2.49;58.1;14.30;70119;5125.913;-12830.893;253;-300;-295.0;73;72.7;-17;-17.1;28.9;0.0;
15/06/2019 08:57:16;100;0;193.92;17;-23.93;-4.48;61.7;14.20;70089;5125.913;-12830.893;253;-300;-295.0;73;72.7;-17;-17.6;28.9;0.0;
15/06/2019 08:57:36;100;0;204.02;17;-23.39;-4.59;65.2;14.10;70075;5125.913;-12830.893;253;-300;-295.0;73;72.7;-12;-12.2;28.9;0.0;
15/06/2019 08:57:56;100;0;213.11;17;-23.23;-2.14;68.5;14.00;70059;5125.913;-12830.893;253;-300;-295.0;73;72.7;-9;-8.6;28.9;0.0;
15/06/2019 08:58:16;100;0;213.39;17;-23.46;-0.06;71.9;14.00;70039;5125.913;-12830.893;253;-300;-295.0;73;72.6;-12;-12.2;28.9;0.0;
15/06/2019 08:58:36;100;0;207.07;17;-23.05;-2.39;75.3;13.90;70023;5125.913;-12830.893;253;-300;-295.0;73;72.7;-18;-18.1;29.0;0.0;
15/06/2019 08:58:56;100;0;204.12;17;-23.48;-4.83;78.5;13.80;70014;5125.913;-12830.893;253;-300;-295.0;73;72.7;-20;-19.9;28.9;0.0;
15/06/2019 08:59:16;100;0;204.69;17;-22.96;-5.88;82.0;13.70;70005;5125.913;-12830.893;253;-300;-295.0;73;72.7;-20;-20.3;29.0;0.0;
15/06/2019 08:59:36;100;0;209.88;17;-22.60;-5.82;85.5;13.60;69984;5125.913;-12830.893;253;-300;-295.0;73;72.7;-17;-17.1;28.9;0.0;
15/06/2019 08:59:56;100;0;207.83;17;-22.75;-3.97;88.8;13.60;69976;5125.913;-12830.893;253;-300;-295.0;73;72.7;-19;-19.0;28.9;0.0;
15/06/2019 09:00:16;100;0;206.59;17;-22.58;-5.37;92.1;13.50;69961;5125.913;-12830.893;253;-300;-295.0;73;72.7;-21;-21.2;29.0;0.0;
15/06/2019 09:00:36;100;0;209.52;17;-22.39;-6.49;95.4;13.40;69957;5125.913;-12830.893;253;-300;-295.0;73;72.7;-19;-18.5;29.0;0.0;
15/06/2019 09:00:56;100;0;212.92;17;-22.24;-4.76;98.6;13.30;69938;5125.913;-12830.893;253;-300;-295.0;73;72.7;-18;-18.1;28.9;0.0;
15/06/2019 09:01:16;100;0;213.78;17;-22.30;-4.76;101.8;13.30;69931;5125.913;-12830.893;253;-300;-293.1;73;72.7;-18;-18.1;28.9;0.0;
15/06/2019 09:01:36;100;0;209.01;17;-21.68;-4.75;104.9;13.20;69916;5125.913;-12830.893;253;-300;-293.1;73;72.7;-21;-21.2;29.0;0.0;
15/06/2019 09:01:56;100;0;213.35;17;-21.71;-6.38;107.7;13.10;69917;5125.913;-12830.893;253;-300;-295.0;73;72.7;-18;-18.1;28.9;0.0;
15/06/2019 09:02:16;100;0;217.17;17;-21.19;-4.29;110.5;13.10;69901;5125.913;-12830.893;253;-300;-293.1;73;72.7;-16;-15.8;29.0;0.0;
15/06/2019 09:02:36;100;0;217.47;17;-21.20;-3.46;113.3;13.00;69899;5125.913;-12830.893;253;-300;-295.0;73;72.7;-17;-17.1;28.9;0.0;
15/06/2019 09:02:56;100;0;220.95;17;-21.16;-4.54;115.9;12.90;69895;5125.913;-12830.893;253;-300;-295.0;73;72.7;-16;-15.8;29.0;0.0;
15/06/2019 09:03:16;100;0;223.00;17;-20.92;-3.41;118.5;12.90;69880;5125.913;-12830.893;253;-300;-295.0;73;72.7;-15;-14.9;28.9;0.0;
15/06/2019 09:03:36;100;0;220.26;17;-20.58;-3.44;121.1;12.80;69857;5125.913;-12830.893;253;-300;-293.1;73;72.7;-18;-18.1;29.0;0.0;
15/06/2019 09:03:56;100;0;214.26;17;-20.37;-5.10;123.5;12.70;69850;5125.913;-12830.893;253;-300;-293.1;73;72.7;-21;-21.7;28.9;0.0;
15/06/2019 09:04:16;100;0;210.01;17;-20.22;-6.72;126.2;12.70;69835;5125.913;-12830.893;253;-300;-293.1;73;72.7;-22;-22.1;29.0;0.0;
15/06/2019 09:04:36;100;0;208.40;17;-19.90;-6.67;128.6;12.60;69824;5125.913;-12830.893;253;-300;-295.0;73;72.7;-22;-21.7;29.0;0.0;
15/06/2019 09:04:56;100;0;207.37;17;-20.13;-6.87;130.9;12.50;69818;5125.913;-12830.893;253;-300;-293.1;73;72.7;-22;-21.7;29.0;0.0;
15/06/2019 09:05:16;100;0;208.26;17;-19.49;-6.75;133.0;12.50;69796;5125.913;-12830.893;253;-300;-293.1;73;72.6;-20;-19.9;29.0;0.0;
15/06/2019 09:05:36;100;0;214.67;17;-19.70;-5.40;135.1;12.40;69789;5125.913;-12830.893;253;-300;-293.1;73;72.7;-17;-17.1;28.9;0.0;
15/06/2019 09:05:56;100;0;219.41;17;-19.42;-4.26;137.1;12.30;69772;5125.913;-12830.893;253;-300;-293.1;73;72.7;-15;-14.4;29.0;0.0;
15/06/2019 09:06:16;100;0;222.52;17;-19.37;-3.05;139.2;12.30;69750;5125.913;-12830.893;253;-300;-295.0;73;72.6;-15;-14.0;28.9;0.0;
15/06/2019 09:06:36;100;0;215.53;17;-18.50;-2.98;141.4;12.20;69733;5125.913;-12830.893;253;-300;-293.1;73;72.7;-20;-19.9;29.0;0.0;
15/06/2019 09:06:56;100;0;211.94;17;-18.73;-6.06;143.5;12.10;69714;5125.913;-12830.893;253;-300;-293.1;73;72.7;-21;-21.2;29.0;0.0;
15/06/2019 09:07:16;100;0;210.65;17;-18.87;-6.57;145.4;12.10;69709;5125.913;-12830.893;253;-300;-293.1;73;72.7;-21;-21.7;28.9;0.0;
15/06/2019 09:07:36;100;0;210.79;17;-18.68;-6.57;147.5;12.00;69692;5125.913;-12830.893;253;-300;-293.1;73;72.7;-20;-19.9;29.0;0.0;
15/06/2019 09:07:56;100;0;208.98;17;-18.64;-5.53;149.6;11.90;69673;5125.913;-12830.893;253;-300;-293.1;73;72.7;-21;-21.7;29.0;0.0;
15/06/2019 09:08:16;100;0;210.58;17;-18.61;-6.87;151.7;11.80;69668;5125.913;-12830.893;253;-300;-293.1;73;72.7;-19;-19.0;28.9;0.0;
15/06/2019 09:08:36;100;0;211.93;17;-18.58;-5.12;153.7;11.80;69655;5125.913;-12830.893;253;-300;-293.1;73;72.7;-19;-18.1;28.9;0.0;
15/06/2019 09:08:56;100;0;212.90;17;-18.45;-5.08;155.9;11.70;69642;5125.913;-12830.893;253;-300;-293.1;73;72.7;-18;-18.1;28.9;0.0;
15/06/2019 09:09:17;100;0;212.11;17;-18.45;-5.14;158.0;11.70;69637;5125.913;-12830.893;253;-300;-295.0;73;72.7;-19;-19.0;28.9;0.0;
15/06/2019 09:09:37;100;0;210.70;17;-18.66;-5.63;160.0;11.60;69624;5125.913;-12830.893;253;-300;-295.0;73;72.7;-20;-20.3;28.9;43.2;
15/06/2019 09:09:57;100;0;209.52;17;-18.76;-6.10;161.9;11.60;69625;5125.913;-12830.893;253;-300;-293.1;73;72.7;-20;-20.8;28.9;41.1;
15/06/2019 09:10:17;100;0;210.36;17;-18.83;-6.18;163.9;11.50;69611;5125.913;-12830.893;253;-300;-295.0;73;72.7;-19;-18.5;28.9;39.1;
15/06/2019 09:10:37;100;0;210.19;17;-18.67;-4.94;166.0;11.40;69600;5125.913;-12830.893;253;-300;-293.1;73;72.7;-19;-17.6;28.9;37.0;
15/06/2019 09:10:57;100;0;209.22;17;-18.61;-4.85;168.0;11.40;69590;5125.913;-12830.893;253;-300;-293.1;73;72.7;-20;-19.9;29.0;35.0;
15/06/2019 09:11:17;100;0;210.01;17;-19.01;-5.96;170.1;11.30;69590;5125.913;-12830.893;253;-300;-293.1;73;72.7;-19;-19.0;29.0;33.0;
15/06/2019 09:11:37;100;0;214.81;17;-19.11;-5.14;171.9;11.30;69591;5125.913;-12830.893;253;-300;-293.1;73;72.6;-17;-17.1;28.9;31.1;
15/06/2019 09:11:57;100;0;213.56;17;-18.47;-4.25;173.9;11.20;69581;5125.913;-12830.893;253;-300;-293.1;73;72.7;-18;-18.1;28.9;29.1;
15/06/2019 09:12:17;100;0;213.87;17;-18.50;-5.51;175.8;11.10;69576;5125.913;-12830.893;253;-300;-293.1;73;72.7;-19;-19.4;28.9;27.2;
15/06/2019 09:12:37;100;0;215.55;17;-19.72;-5.78;177.6;11.10;69572;5125.913;-12830.893;253;-300;-293.1;73;72.7;-18;-18.1;29.0;25.3;
15/06/2019 09:12:57;100;0;217.41;17;-18.31;-4.63;179.5;11.00;69557;5125.913;-12830.893;253;-300;-293.1;73;72.7;-17;-17.1;29.0;23.2;
15/06/2019 09:13:17;100;0;218.90;17;-18.49;-4.00;181.4;11.00;69560;5125.913;-12830.893;253;-300;-293.1;73;72.7;-17;-16.2;28.9;21.1;
15/06/2019 09:13:37;100;0;219.44;17;-18.49;-3.98;183.3;10.90;69555;5125.913;-12830.893;253;-300;-291.1;73;72.7;-17;-16.2;28.9;19.2;
15/06/2019 09:13:57;118;0;218.48;17;-18.68;-4.27;185.5;10.90;69560;5125.913;-12830.893;253;150;-277.2;57;56.8;0;0.9;28.9;17.1;
15/06/2019 09:14:07;118;0;161.51;17;3.21;3.98;186.2;10.90;69463;5125.913;-12830.893;253;150;-120.8;57;57.2;0;0.9;28.4;17.1;
15/06/2019 09:14:17;118;0;163.70;17;20.30;3.73;185.9;10.80;69258;5125.913;-12830.893;253;150;33.7;57;57.1;0;0.9;28.4;-1.0;
15/06/2019 09:14:27;118;0;165.20;17;23.93;3.81;185.0;10.80;69001;5125.913;-12830.893;253;150;156.4;57;57.1;0;0.9;28.4;-1.0;
15/06/2019 09:14:37;118;0;210.34;17;24.63;3.77;183.8;10.80;68814;5125.913;-12830.893;253;150;156.4;57;57.1;0;0.9;28.9;-1.0;
15/06/2019 09:14:47;118;0;207.68;17;26.51;3.66;182.2;10.80;68819;5125.913;-12830.893;253;150;156.4;57;57.1;0;0.9;28.9;-1.0;
15/06/2019 09:14:57;117;0;207.66;17;27.53;4.20;180.3;10.80;68827;5125.913;-12830.893;253;150;156.4;57;57.1;0;0.9;28.9;-1.0;
15/06/2019 09:15:17;117;0;206.44;17;27.94;3.88;176.2;10.70;68824;5125.913;-12830.893;253;150;156.4;57;57.1;25;24.8;29.0;-1.0;
15/06/2019 09:15:37;117;0;216.01;17;27.71;16.07;171.5;10.70;68816;5125.913;-12830.893;253;150;156.4;57;57.1;17;17.1;29.0;-1.0;
15/06/2019 09:15:57;117;0;217.39;17;27.89;11.20;167.0;10.60;68811;5125.913;-12830.893;253;150;156.4;57;57.1;17;16.7;28.9;-1.0;
15/06/2019 09:16:17;117;0;223.35;17;27.99;11.25;162.6;10.60;68804;5125.913;-12830.893;253;150;156.4;57;57.1;14;14.0;28.9;-1.0;
15/06/2019 09:16:37;117;0;229.08;17;27.97;9.83;158.2;10.50;68802;5125.913;-12830.893;253;150;158.4;57;57.1;12;12.2;28.9;-1.0;
15/06/2019 09:16:57;117;0;229.88;17;27.94;9.01;153.6;10.50;68799;5125.913;-12830.893;253;150;158.4;57;57.1;14;14.0;29.0;-1.0;
15/06/2019 09:17:17;117;0;236.71;17;27.45;10.03;149.2;10.40;68796;5125.913;-12830.893;253;150;156.4;57;57.1;14;14.4;29.0;-1.0;
15/06/2019 09:17:37;117;0;241.79;17;27.07;10.34;145.0;10.40;68807;5125.913;-12830.893;253;150;158.4;57;57.1;10;9.5;28.9;-1.0;
15/06/2019 09:17:57;117;0;246.41;17;27.54;7.65;140.9;10.40;68817;5125.913;-12830.893;253;150;158.4;57;57.1;8;8.1;29.0;-1.0;
15/06/2019 09:18:17;117;0;244.75;17;27.76;7.01;136.7;10.30;68827;5125.913;-12830.893;253;150;158.4;57;57.1;11;10.8;29.0;-1.0;
15/06/2019 09:18:37;117;0;247.69;17;26.85;8.95;132.3;10.30;68840;5125.913;-12830.893;253;150;158.4;57;57.1;9;9.0;28.9;-1.0;
15/06/2019 09:18:57;117;0;252.60;17;25.74;7.33;128.3;10.30;68855;5125.913;-12830.893;253;150;158.4;57;57.1;7;7.2;28.9;-1.0;
15/06/2019 09:19:17;117;0;252.10;17;25.50;6.40;124.8;10.30;68865;5125.913;-12830.893;253;150;158.4;57;57.1;7;6.8;29.0;-1.0;
15/06/2019 09:19:37;117;0;253.22;17;25.32;6.40;121.3;10.20;68879;5125.913;-12830.893;253;150;158.4;57;57.1;7;6.8;29.0;-1.0;
15/06/2019 09:19:57;117;0;256.37;17;25.33;6.42;117.6;10.20;68877;5125.913;-12830.893;253;150;158.4;57;57.1;5;5.0;28.9;-1.0;
15/06/2019 09:20:17;117;0;251.28;17;24.41;5.37;113.9;10.20;68902;5125.913;-12830.893;253;150;158.4;57;57.1;8;8.6;28.9;-1.0;
15/06/2019 09:20:37;117;0;248.69;17;23.90;7.70;110.4;10.20;68924;5125.913;-12830.893;253;150;158.4;57;57.1;9;9.0;29.0;-1.0;
15/06/2019 09:20:57;117;0;248.06;17;23.26;7.59;107.2;10.20;68925;5125.913;-12830.893;253;150;158.4;57;57.1;8;8.1;28.9;-1.0;
15/06/2019 09:21:17;117;0;252.50;17;23.49;6.88;104.1;10.20;68923;5125.913;-12830.893;253;150;158.4;57;57.1;4;4.1;29.0;-1.0;
15/06/2019 09:21:37;117;0;254.18;17;22.46;4.66;100.9;10.20;68929;5125.913;-12830.893;253;150;160.4;57;57.1;3;2.7;28.9;-1.0;
15/06/2019 09:21:57;117;0;245.87;17;23.10;4.31;98.0;10.10;68940;5125.913;-12830.893;253;150;158.4;57;57.1;9;9.0;28.9;-1.0;
15/06/2019 09:22:17;117;0;244.41;17;22.91;8.21;95.1;10.10;68951;5125.913;-12830.893;253;150;158.4;57;57.1;7;7.2;28.9;-1.0;
15/06/2019 09:22:37;117;0;242.11;17;22.12;6.34;92.1;10.10;68946;5125.913;-12830.893;253;150;160.4;57;57.1;7;6.3;28.9;-1.0;
15/06/2019 09:22:57;117;0;241.48;17;22.09;6.49;89.4;10.10;68956;5125.913;-12830.893;253;150;158.4;57;57.1;7;6.3;28.9;-1.0;
15/06/2019 09:23:17;117;0;239.60;17;21.86;6.36;86.5;10.10;68961;5125.913;-12830.893;253;150;158.4;57;57.1;7;6.3;28.9;-1.0;
15/06/2019 09:23:37;117;0;239.03;17;22.53;6.40;83.8;10.10;68956;5125.913;-12830.893;253;150;160.4;57;57.1;7;6.3;29.0;-1.0;
15/06/2019 09:23:57;117;0;238.83;17;21.63;6.62;80.7;10.10;68964;5125.913;-12830.893;253;150;160.4;57;57.1;7;6.3;28.9;-1.0;
15/06/2019 09:24:17;117;0;240.51;17;21.36;6.25;77.7;10.10;68972;5125.913;-12830.893;253;150;158.4;57;57.1;5;5.0;29.0;-1.0;
15/06/2019 09:24:37;117;0;242.53;17;21.70;5.19;74.9;10.10;68974;5125.913;-12830.893;253;150;158.4;57;57.1;4;4.1;28.9;-1.0;
15/06/2019 09:24:57;117;0;245.08;17;20.78;5.15;72.0;10.10;68982;5125.913;-12830.893;253;150;158.4;57;57.1;2;1.8;29.0;-1.0;
15/06/2019 09:25:17;117;0;237.27;17;22.00;3.94;69.2;10.10;68974;5125.913;-12830.893;253;150;158.4;57;57.1;8;8.1;28.9;-1.0;
15/06/2019 09:25:37;117;0;237.87;17;21.31;7.42;66.2;10.10;68985;5125.913;-12830.893;253;150;160.4;57;57.1;7;6.8;28.9;-1.0;
15/06/2019 09:25:57;117;0;234.50;17;21.29;6.51;63.3;10.10;68987;5125.913;-12830.893;253;150;158.4;57;57.1;7;6.3;29.0;-1.0;
15/06/2019 09:26:17;117;0;231.52;17;21.04;6.29;60.3;10.10;68991;5125.913;-12830.893;253;150;158.4;57;57.1;8;8.1;28.9;-1.0;
15/06/2019 09:26:37;117;0;227.79;17;20.70;7.70;57.5;10.10;68994;5125.913;-12830.893;253;150;158.4;57;57.1;10;9.9;29.0;-1.0;
15/06/2019 09:26:57;117;0;228.14;17;20.55;8.35;54.8;10.10;69002;5125.913;-12830.893;253;150;158.4;57;57.1;9;8.6;29.0;-1.0;
15/06/2019 09:27:17;117;0;230.05;17;19.42;7.12;52.2;10.10;69004;5125.913;-12830.893;253;150;158.4;57;57.1;7;7.2;29.0;-1.0;
15/06/2019 09:27:37;117;0;226.02;17;19.90;6.42;50.0;10.10;69018;5125.913;-12830.893;253;150;158.4;57;57.1;10;9.9;29.0;-1.0;
15/06/2019 09:27:57;117;0;227.04;17;19.57;8.52;47.8;10.10;69028;5125.913;-12830.893;253;150;158.4;57;57.1;9;9.0;29.0;-1.0;
15/06/2019 09:28:17;117;0;227.11;17;19.43;7.26;45.4;10.10;69042;5125.913;-12830.893;253;150;158.4;57;57.1;9;8.1;29.0;-1.0;
15/06/2019 09:28:37;117;0;225.17;17;19.54;7.26;43.1;10.10;69054;5125.913;-12830.893;253;150;158.4;57;57.1;11;10.8;28.9;-1.0;
15/06/2019 09:28:57;117;0;225.88;17;19.10;8.72;40.8;10.10;69061;5125.913;-12830.893;253;150;158.4;57;57.1;11;11.3;29.0;-1.0;
15/06/2019 09:29:17;117;0;227.64;17;19.04;8.74;38.6;10.10;69074;5125.913;-12830.893;253;150;158.4;57;57.1;10;9.9;28.9;-1.0;
15/06/2019 09:29:37;117;0;233.61;17;18.66;8.09;36.6;10.10;69084;5125.913;-12830.893;253;150;160.4;57;57.1;7;7.2;28.9;-1.0;
15/06/2019 09:29:57;117;0;239.00;17;18.52;6.48;34.5;10.20;69089;5125.913;-12830.893;253;150;156.4;57;57.1;7;6.8;28.9;-1.0;
15/06/2019 09:30:17;117;0;239.27;17;18.09;6.52;32.6;10.20;69103;5125.913;-12830.893;253;150;158.4;57;57.1;6;5.9;29.0;-1.0;
15/06/2019 09:30:37;117;0;245.49;17;17.74;5.98;30.8;10.20;69113;5125.913;-12830.893;253;150;158.4;57;57.1;3;3.2;28.9;-1.0;
15/06/2019 09:30:57;117;0;241.60;17;17.60;4.46;29.1;10.20;69134;5125.913;-12830.893;253;150;158.4;57;57.1;7;7.2;28.9;-1.0;
15/06/2019 09:31:17;117;0;242.44;17;17.41;7.27;27.4;10.20;69155;5125.913;-12830.893;253;150;158.4;57;57.1;6;5.9;28.9;-1.0;
15/06/2019 09:31:37;117;0;245.30;17;17.05;6.02;25.8;10.20;69191;5125.913;-12830.893;253;150;158.4;57;57.1;4;3.6;28.9;-1.0;
15/06/2019 09:31:57;117;0;247.73;17;16.71;4.79;24.3;10.30;69209;5125.913;-12830.893;253;150;158.4;57;57.1;3;3.2;28.9;-1.0;
15/06/2019 09:32:17;117;0;252.12;17;16.37;4.90;22.7;10.30;69250;5125.913;-12830.893;253;150;158.4;57;57.1;1;0.9;28.9;-1.0;
15/06/2019 09:32:37;117;0;256.40;17;15.88;3.41;21.2;10.30;69273;5125.913;-12830.893;253;150;158.4;57;57.1;0;-0.5;28.9;-1.0;
15/06/2019 09:32:57;117;0;255.98;17;15.87;2.82;19.6;10.40;69304;5125.913;-12830.893;253;150;158.4;57;57.1;0;-0.9;28.9;-1.0;
15/06/2019 09:33:17;117;0;254.95;17;16.00;2.90;18.1;10.40;69340;5125.913;-12830.893;253;150;158.4;57;57.1;1;0.9;28.9;-1.0;
15/06/2019 09:33:37;117;0;257.36;17;15.70;4.11;16.8;10.50;69370;5125.913;-12830.893;253;150;158.4;57;57.1;0;-0.5;28.9;-1.0;
15/06/2019 09:33:57;117;0;259.07;17;15.89;2.85;15.3;10.50;69400;5125.913;-12830.893;253;150;158.4;57;57.1;-1;-0.9;29.0;-1.0;
15/06/2019 09:34:17;117;0;256.01;17;15.51;2.87;13.9;10.50;69414;5125.913;-12830.893;253;150;158.4;57;57.1;0;0.0;29.0;-1.0;
15/06/2019 09:34:37;117;0;256.37;17;15.50;3.70;12.4;10.60;69439;5125.913;-12830.893;253;150;160.4;57;57.1;0;0.9;28.9;-1.0;
15/06/2019 09:34:57;117;0;258.20;17;15.29;3.89;11.2;10.60;69463;5125.913;-12830.893;253;150;160.4;57;57.1;-2;-1.8;28.9;-1.0;
