Timestamp;NavState;SecurityLevel;Heading;Declination;Pitch;Roll;Depth;Temperature;Pa;Lat;Lon;DesiredH;BallastCmd;BallastPos;LinCmd;LinPos;AngCmd;AngPos;Voltage;Altitude;
15/06/2019 07:33:44;117;0;239.97;17;15.04;2.18;9.2;10.70;69518;5127.049;-12829.551;248;150;156.4;57;57.1;-5;-5.0;28.9;-1.0;
15/06/2019 07:33:54;115;0;243.85;17;14.33;0.81;8.5;10.70;69525;5127.049;-12829.551;248;500;170.3;100;100.4;0;0.5;29.0;-1.0;
15/06/2019 07:34:04;115;0;219.05;17;-27.69;5.02;8.1;10.70;69445;5127.049;-12829.551;248;500;320.8;100;99.9;0;0.9;28.6;-1.0;
15/06/2019 07:34:14;115;0;203.22;17;-66.35;7.52;8.8;10.80;69249;5127.049;-12829.551;248;500;473.3;100;99.9;0;0.9;28.6;-1.0;
15/06/2019 07:34:24;115;0;165.11;17;-57.45;6.26;7.9;10.80;68993;5127.049;-12829.551;248;500;505.0;100;100.0;0;0.9;28.6;-1.0;
15/06/2019 07:34:34;115;0;175.46;17;-39.22;5.43;4.9;10.80;68965;5127.049;-12829.551;248;500;505.0;100;99.9;0;0.9;29.0;-1.0;
15/06/2019 07:34:44;116;0;88.73;17;-64.46;19.02;1.4;10.90;68976;5127.049;-12829.551;248;500;506.9;100;99.9;0;0.9;29.0;-1.0;
15/06/2019 07:35:04;116;0;75.33;17;-28.42;6.00;1.4;10.90;68989;5126.636;-12830.016;248;500;506.9;100;99.7;0;0.9;29.0;-1.0;
15/06/2019 07:35:24;116;0;96.71;17;-24.97;4.10;1.4;11.00;68988;5126.635;-12830.015;248;500;506.9;100;99.7;0;0.9;28.9;-1.0;
15/06/2019 07:35:44;116;0;86.98;17;-32.89;2.04;1.4;11.10;69013;5126.631;-12830.015;250;500;506.9;100;99.7;0;0.9;29.0;-1.0;
15/06/2019 07:36:04;116;0;78.95;17;-13.01;4.15;1.3;11.20;69014;5126.625;-12830.015;250;500;508.9;100;99.7;0;0.9;28.9;-1.0;
15/06/2019 07:36:24;116;0;56.80;17;-40.70;4.74;1.6;11.30;69025;5126.625;-12830.013;250;500;508.9;100;99.7;0;0.9;28.9;-1.0;
15/06/2019 07:36:44;116;0;58.00;17;-18.04;7.56;1.3;11.50;69035;5126.622;-12830.013;250;500;508.9;100;99.7;0;0.9;29.0;-1.0;
15/06/2019 07:37:04;116;0;24.11;17;-8.23;6.60;1.2;11.60;69037;5126.607;-12830.013;250;500;508.9;100;99.6;0;0.9;28.9;-1.0;
15/06/2019 07:38:36;116;0;302.55;17;-22.51;1.26;1.3;12.20;69077;5126.605;-12830.013;250;500;508.9;100;99.7;0;0.9;29.0;-1.0;
15/06/2019 07:38:56;116;0;290.68;17;-6.24;2.88;1.2;12.30;69075;5126.604;-12830.014;250;500;508.9;100;99.7;0;0.9;29.0;-1.0;
15/06/2019 07:39:16;116;0;297.28;17;-6.50;3.13;1.2;12.50;69088;5126.601;-12830.033;250;500;508.9;100;99.6;0;0.9;29.0;-1.0;
15/06/2019 07:40:00;116;0;283.19;17;-4.66;2.11;1.2;12.70;69089;5126.602;-12830.037;250;500;508.9;100;99.7;0;0.9;28.8;-1.0;
15/06/2019 07:40:20;116;0;287.27;17;-9.22;-0.82;1.2;12.90;69099;5126.615;-12830.057;250;500;508.9;100;99.7;0;0.9;29.0;-1.0;
15/06/2019 07:40:40;116;0;286.63;17;-5.85;8.29;1.2;13.00;69106;5126.543;-12830.061;250;500;508.9;100;99.7;0;0.9;28.9;-1.0;
15/06/2019 07:46:16;116;0;296.61;17;-5.40;6.09;1.2;14.10;69172;5126.543;-12830.062;250;500;508.9;100;99.7;0;0.9;28.9;-1.0;
15/06/2019 07:46:36;116;0;286.54;17;-8.83;0.37;1.2;14.20;69173;5126.540;-12830.063;250;500;508.9;100;99.7;0;0.9;28.9;-1.0;
15/06/2019 07:46:56;116;0;274.29;17;-4.66;6.09;1.2;14.20;69173;5126.531;-12830.073;250;500;508.9;100;99.7;0;0.9;28.8;-1.0;
15/06/2019 07:47:54;116;0;283.69;17;-17.28;1.45;1.3;14.30;69181;5126.530;-12830.074;250;500;510.9;100;99.6;0;0.9;28.9;-1.0;
15/06/2019 07:48:14;116;0;288.67;17;-24.21;4.07;1.3;14.40;69186;5126.527;-12830.075;250;500;508.9;100;99.7;0;0.9;29.0;-1.0;
15/06/2019 07:48:34;116;0;282.23;17;-6.17;2.04;1.2;14.40;69193;5126.525;-12830.078;250;500;508.9;100;99.7;0;0.9;29.0;-1.0;
15/06/2019 07:48:54;116;0;281.68;17;-6.49;1.87;1.2;14.50;69188;5126.521;-12830.080;250;500;508.9;100;99.7;0;0.9;29.0;-1.0;
15/06/2019 07:49:14;110;0;301.97;17;-16.93;0.01;1.3;14.50;69190;5126.521;-12830.080;250;-300;405.9;100;99.7;0;0.9;28.9;-1.0;
15/06/2019 07:49:24;110;0;306.26;17;-8.18;4.26;1.2;14.60;69438;5126.521;-12830.080;250;-300;265.3;100;99.7;0;0.9;28.9;-1.0;
15/06/2019 07:49:34;110;0;300.09;17;-8.75;4.59;1.2;14.60;69629;5126.521;-12830.080;250;-300;126.7;100;99.7;0;0.9;28.9;-1.0;
15/06/2019 07:49:44;110;0;293.88;17;-12.17;3.67;1.3;14.60;69843;5126.521;-12830.080;250;-300;-25.7;100;99.7;0;0.9;28.8;-1.0;
15/06/2019 07:49:54;110;0;303.91;17;-38.76;4.29;2.0;14.60;70085;5126.521;-12830.080;250;-300;-215.8;98;97.9;0;0.9;28.9;-1.0;
15/06/2019 07:50:04;110;0;312.27;17;-60.63;5.00;4.2;14.60;70416;5126.521;-12830.080;250;-300;-301.0;80;79.9;0;0.9;28.8;-1.0;
15/06/2019 07:50:14;110;0;296.76;17;-53.40;5.44;7.7;14.60;70528;5126.521;-12830.080;250;-300;-301.0;73;73.0;0;0.9;28.9;-1.0;
15/06/2019 07:50:24;100;0;282.40;17;-38.11;3.43;11.6;14.60;70524;5126.521;-12830.080;250;-300;-299.0;73;72.7;0;0.9;28.9;-1.0;
15/06/2019 07:50:44;100;0;270.56;17;-27.59;4.13;17.4;14.60;70522;5126.521;-12830.080;250;-300;-297.0;73;72.9;19;19.0;28.9;0.0;
15/06/2019 07:51:04;100;0;257.07;17;-24.72;12.69;22.7;14.60;70497;5126.521;-12830.080;250;-300;-295.0;73;72.7;7;7.2;28.9;0.0;
15/06/2019 07:51:24;100;0;247.11;17;-23.95;6.31;27.0;14.50;70444;5126.521;-12830.080;250;-300;-295.0;73;72.7;1;0.9;28.9;0.0;
15/06/2019 07:51:44;100;0;239.83;17;-24.50;3.39;30.8;14.50;70382;5126.521;-12830.080;250;-300;-295.0;73;72.7;-1;-1.4;29.0;0.0;
15/06/2019 07:52:04;100;0;223.86;17;-24.86;2.77;34.6;14.40;70330;5126.521;-12830.080;250;-300;-295.0;73;72.9;-1;-1.4;29.0;0.0;
15/06/2019 07:52:24;100;0;223.04;17;-24.73;2.85;38.2;14.30;70281;5126.521;-12830.080;250;-300;-295.0;73;72.7;-4;-4.5;29.0;0.0;
15/06/2019 07:52:44;100;0;219.60;17;-24.30;1.58;42.0;14.30;70226;5126.521;-12830.080;250;-300;-295.0;73;72.7;-5;-5.0;29.0;0.0;
15/06/2019 07:53:04;100;0;214.83;17;-23.81;1.00;45.6;14.20;70185;5126.521;-12830.080;250;-300;-293.1;73;72.7;-6;-5.9;28.9;0.0;
15/06/2019 07:53:24;100;0;205.81;17;-23.88;0.49;49.0;14.10;70148;5126.521;-12830.080;250;-300;-293.1;73;72.7;-10;-9.9;29.0;0.0;
15/06/2019 07:53:44;100;0;198.94;17;-24.07;-1.26;52.4;14.00;70122;5126.521;-12830.080;250;-300;-293.1;73;72.7;-12;-12.2;29.0;0.0;
15/06/2019 07:54:04;100;0;196.17;17;-23.78;-2.32;55.8;13.90;70097;5126.521;-12830.080;250;-300;-295.0;73;72.7;-12;-12.6;29.0;0.0;
15/06/2019 07:54:24;100;0;202.97;17;-23.85;-2.39;59.2;13.90;70069;5126.521;-12830.080;250;-300;-295.0;73;72.7;-7;-6.8;28.9;0.0;
15/06/2019 07:54:44;100;0;204.55;17;-23.55;0.58;62.4;13.80;70051;5126.521;-12830.080;250;-300;-293.1;73;72.7;-7;-6.3;29.0;0.0;
15/06/2019 07:55:04;100;0;203.04;17;-23.76;0.70;65.6;13.70;70039;5126.521;-12830.080;250;-300;-293.1;73;72.7;-9;-9.5;29.0;0.0;
15/06/2019 07:55:24;100;0;200.79;17;-23.26;-1.05;68.7;13.60;70021;5126.521;-12830.080;250;-300;-293.1;73;72.7;-11;-10.8;28.9;0.0;
15/06/2019 07:55:44;100;0;194.70;17;-23.37;-1.72;72.0;13.50;70009;5126.521;-12830.080;250;-300;-293.1;73;72.7;-14;-14.0;29.0;0.0;
15/06/2019 07:56:04;100;0;198.03;17;-23.19;-3.11;75.2;13.50;70000;5126.521;-12830.080;250;-300;-293.1;73;72.7;-11;-10.4;28.9;0.0;
15/06/2019 07:56:24;100;0;199.56;17;-22.46;-0.93;78.4;13.40;69976;5126.521;-12830.080;250;-300;-293.1;73;72.7;-11;-9.9;29.0;0.0;
15/06/2019 07:56:44;100;0;199.32;17;-22.51;-0.97;81.4;13.30;69959;5126.521;-12830.080;250;-300;-293.1;73;72.7;-12;-12.2;29.0;0.0;
15/06/2019 07:57:04;100;0;195.71;17;-22.75;-2.56;84.3;13.30;69952;5126.521;-12830.080;250;-300;-293.1;73;72.7;-15;-14.9;29.0;0.0;
15/06/2019 07:57:24;100;0;197.37;17;-21.92;-3.44;87.4;13.20;69935;5126.521;-12830.080;250;-300;-293.1;73;72.7;-14;-14.0;28.9;0.0;
15/06/2019 07:57:44;100;0;198.34;17;-22.66;-2.69;90.2;13.10;69927;5126.521;-12830.080;250;-300;-295.0;73;72.7;-14;-13.1;29.0;0.0;
15/06/2019 07:58:04;100;0;193.65;17;-21.63;-2.68;93.2;13.10;69918;5126.521;-12830.080;250;-300;-293.1;73;72.7;-18;-18.1;28.9;0.0;
15/06/2019 07:58:24;100;0;186.02;17;-21.56;-5.04;96.2;13.00;69912;5126.521;-12830.080;250;-300;-293.1;73;72.7;-23;-23.0;29.0;0.0;
15/06/2019 07:58:44;100;0;183.93;17;-21.74;-7.38;98.9;12.90;69901;5126.521;-12830.080;250;-300;-293.1;73;72.7;-25;-24.8;28.9;0.0;
15/06/2019 07:59:04;100;0;188.24;17;-22.01;-8.22;101.5;12.90;69899;5126.521;-12830.080;250;-300;-293.1;73;72.7;-21;-21.2;29.0;0.0;
15/06/2019 07:59:24;100;0;199.37;17;-21.65;-5.95;104.2;12.80;69882;5126.521;-12830.080;250;-300;-293.1;73;72.6;-16;-15.8;29.0;0.0;
15/06/2019 07:59:44;100;0;206.31;17;-21.07;-3.59;107.1;12.70;69872;5126.521;-12830.080;250;-300;-293.1;73;72.7;-15;-14.9;29.0;0.0;
15/06/2019 08:00:04;100;0;205.84;17;-20.15;-3.10;109.9;12.70;69867;5126.521;-12830.080;250;-300;-291.1;73;72.7;-18;-18.5;29.0;0.0;
15/06/2019 08:00:24;100;0;205.87;17;-20.93;-5.22;112.5;12.60;69861;5126.521;-12830.080;250;-300;-291.1;73;72.7;-19;-19.0;29.0;0.0;
15/06/2019 08:00:44;100;0;206.80;17;-20.68;-5.19;115.0;12.60;69840;5126.521;-12830.080;250;-300;-293.1;73;72.7;-19;-19.0;28.9;0.0;
15/06/2019 08:01:04;100;0;208.74;17;-20.04;-5.29;117.7;12.50;69828;5126.521;-12830.080;250;-300;-293.1;73;72.7;-18;-17.6;28.9;0.0;
15/06/2019 08:01:24;100;0;206.04;17;-20.53;-4.34;120.2;12.40;69817;5126.521;-12830.080;250;-300;-293.1;73;72.7;-20;-20.3;29.0;0.0;
15/06/2019 08:01:44;100;0;202.64;17;-20.06;-6.01;122.8;12.40;69805;5126.521;-12830.080;250;-300;-291.1;73;72.7;-22;-22.6;29.0;0.0;
15/06/2019 08:02:04;100;0;196.87;17;-20.29;-7.13;125.4;12.30;69803;5126.521;-12830.080;250;-300;-293.1;73;72.7;-25;-24.8;29.0;0.0;
15/06/2019 08:02:24;100;0;194.41;17;-19.39;-8.17;128.0;12.30;69781;5126.521;-12830.080;250;-300;-291.1;73;72.7;-24;-23.9;29.0;0.0;
15/06/2019 08:02:44;100;0;192.06;17;-19.17;-7.32;130.5;12.20;69765;5126.521;-12830.080;250;-300;-293.1;73;72.7;-24;-23.0;29.0;0.0;
15/06/2019 08:03:04;100;0;191.11;17;-19.37;-7.28;132.8;12.10;69751;5126.521;-12830.080;250;-300;-291.1;73;72.7;-24;-23.0;29.0;0.0;
15/06/2019 08:03:24;100;0;197.54;17;-19.32;-7.33;135.0;12.10;69745;5126.521;-12830.080;250;-300;-291.1;73;72.7;-20;-19.9;29.0;0.0;
15/06/2019 08:03:44;100;0;204.63;17;-18.67;-5.33;137.1;12.00;69728;5126.521;-12830.080;250;-300;-293.1;73;72.7;-17;-17.1;29.0;0.0;
15/06/2019 08:04:04;100;0;202.20;17;-18.95;-4.18;139.1;12.00;69712;5126.521;-12830.080;250;-300;-293.1;73;72.7;-20;-20.3;29.0;0.0;
15/06/2019 08:04:24;100;0;198.61;17;-19.02;-6.09;141.1;11.90;69700;5126.521;-12830.080;250;-300;-291.1;73;72.7;-22;-22.1;28.9;0.0;
15/06/2019 08:04:44;100;0;196.64;17;-18.82;-7.10;143.2;11.80;69681;5126.521;-12830.080;250;-300;-291.1;73;72.7;-23;-23.0;28.9;0.0;
15/06/2019 08:05:04;100;0;196.33;17;-18.22;-7.42;145.3;11.80;69683;5126.521;-12830.080;250;-300;-291.1;73;72.7;-22;-22.1;29.0;0.0;
15/06/2019 08:05:24;100;0;197.03;17;-18.62;-6.57;147.3;11.70;69666;5126.521;-12830.080;250;-300;-293.1;73;72.7;-21;-21.2;29.0;0.0;
15/06/2019 08:05:45;100;0;195.72;17;-18.83;-6.62;149.3;11.60;69644;5126.521;-12830.080;250;-300;-293.1;73;72.7;-23;-23.0;28.9;0.0;
15/06/2019 08:06:05;100;0;196.82;17;-18.38;-7.69;151.4;11.60;69619;5126.521;-12830.080;250;-300;-293.1;73;72.6;-22;-21.7;29.0;0.0;
15/06/2019 08:06:25;100;0;195.68;17;-18.55;-6.58;153.3;11.50;69624;5126.521;-12830.080;250;-300;-293.1;73;72.7;-22;-21.2;29.0;0.0;
15/06/2019 08:06:45;100;0;195.33;17;-18.69;-6.48;155.3;11.40;69610;5126.521;-12830.080;250;-300;-291.1;73;72.7;-22;-21.2;29.0;0.0;
15/06/2019 08:07:05;100;0;195.71;17;-18.60;-6.47;157.4;11.40;69587;5126.521;-12830.080;250;-300;-291.1;73;72.6;-22;-21.2;28.9;0.0;
15/06/2019 08:07:25;100;0;195.80;17;-18.76;-6.48;159.2;11.30;69598;5126.521;-12830.080;250;-300;-291.1;73;72.7;-22;-21.2;29.0;43.4;
15/06/2019 08:07:45;100;0;196.60;17;-18.74;-6.53;161.4;11.30;69585;5126.521;-12830.080;250;-300;-291.1;73;72.7;-21;-21.2;29.0;41.3;
15/06/2019 08:08:05;100;0;197.63;17;-18.94;-6.72;163.5;11.20;69579;5126.521;-12830.080;250;-300;-293.1;73;72.7;-21;-21.2;29.0;39.3;
15/06/2019 08:08:25;100;0;198.33;17;-18.27;-6.49;165.5;11.20;69578;5126.521;-12830.080;250;-300;-291.1;73;72.7;-21;-21.2;29.0;37.1;
15/06/2019 08:08:45;100;0;199.33;17;-19.47;-6.60;167.5;11.10;69574;5126.521;-12830.080;250;-300;-291.1;73;72.7;-20;-19.9;29.0;35.0;
15/06/2019 08:09:05;100;0;200.43;17;-17.78;-5.66;169.7;11.10;69571;5126.521;-12830.080;250;-300;-291.1;73;72.7;-20;-19.4;29.0;32.9;
15/06/2019 08:09:25;100;0;200.57;17;-18.39;-5.55;171.7;11.00;69569;5126.521;-12830.080;250;-300;-291.1;73;72.6;-21;-21.2;29.0;30.8;
15/06/2019 08:09:45;100;0;200.24;17;-18.83;-6.75;173.6;11.00;69552;5126.521;-12830.080;250;-300;-291.1;73;72.7;-21;-21.7;28.9;28.8;
15/06/2019 08:10:05;100;0;201.05;17;-19.20;-6.81;175.5;10.90;69546;5126.521;-12830.080;250;-300;-291.1;73;72.7;-20;-19.9;29.0;26.8;
15/06/2019 08:10:25;100;0;203.69;17;-18.55;-5.55;177.5;10.90;69545;5126.521;-12830.080;250;-300;-291.1;73;72.7;-19;-18.5;29.0;24.7;
15/06/2019 08:10:45;100;0;204.09;17;-18.98;-4.73;179.6;10.80;69545;5126.521;-12830.080;250;-300;-293.1;73;72.7;-19;-18.1;28.9;22.7;
15/06/2019 08:11:05;100;0;207.32;17;-18.00;-4.85;181.6;10.80;69535;5126.521;-12830.080;250;-300;-291.1;73;72.7;-18;-18.1;29.0;20.4;
15/06/2019 08:11:25;100;0;205.48;17;-18.55;-5.27;183.7;10.70;69542;5126.521;-12830.080;250;-300;-293.1;73;72.6;-20;-19.9;29.0;18.4;
15/06/2019 08:11:45;118;0;207.10;17;-18.16;-6.02;185.8;10.70;69535;5126.521;-12830.080;250;150;-277.2;57;56.8;0;0.9;29.0;16.3;
15/06/2019 08:11:55;118;0;155.20;17;3.77;4.06;186.7;10.60;69441;5126.521;-12830.080;250;150;-116.8;57;57.1;0;0.9;28.4;16.3;
15/06/2019 08:12:05;118;0;156.26;17;20.57;3.47;186.4;10.70;69248;5126.521;-12830.080;250;150;37.6;57;57.1;0;0.9;28.4;-1.0;
15/06/2019 08:12:15;118;0;154.64;17;22.47;3.86;185.5;10.60;68984;5126.521;-12830.080;250;150;154.5;57;56.9;0;0.9;28.4;-1.0;
15/06/2019 08:12:25;118;0;197.23;17;25.15;3.25;184.3;10.60;68811;5126.521;-12830.080;250;150;156.4;57;57.1;0;0.9;29.0;-1.0;
15/06/2019 08:12:35;118;0;197.98;17;28.27;3.87;182.8;10.60;68812;5126.521;-12830.080;250;150;156.4;57;56.9;0;0.9;28.9;-1.0;
15/06/2019 08:12:45;117;0;197.95;17;28.34;3.64;180.9;10.60;68807;5126.521;-12830.080;250;150;156.4;57;56.9;0;0.9;28.9;-1.0;
15/06/2019 08:13:05;117;0;195.98;17;28.12;3.79;176.6;10.50;68807;5126.521;-12830.080;250;150;156.4;57;56.9;26;26.2;28.9;-1.0;
15/06/2019 08:13:25;117;0;205.21;17;27.72;17.01;171.6;10.50;68794;5126.521;-12830.080;250;150;156.4;57;56.9;18;18.1;29.0;-1.0;
15/06/2019 08:13:45;117;0;208.32;17;28.21;11.86;167.2;10.50;68803;5126.521;-12830.080;250;150;156.4;57;56.9;17;17.1;29.0;-1.0;
15/06/2019 08:14:05;117;0;211.39;17;28.22;11.14;162.4;10.40;68786;5126.521;-12830.080;250;150;158.4;57;56.9;17;16.2;29.0;-1.0;
15/06/2019 08:14:25;117;0;216.01;17;28.18;11.19;157.7;10.40;68790;5126.521;-12830.080;250;150;156.4;57;56.9;15;14.9;29.0;-1.0;
15/06/2019 08:14:45;117;0;219.68;17;28.21;9.94;153.0;10.30;68781;5126.521;-12830.080;250;150;156.4;57;56.9;15;14.0;28.9;-1.0;
15/06/2019 08:15:05;117;0;225.84;17;27.91;9.92;148.4;10.30;68777;5126.521;-12830.080;250;150;156.4;57;56.9;12;11.7;29.0;-1.0;
15/06/2019 08:15:25;117;0;228.63;17;27.59;8.71;143.8;10.20;68782;5126.521;-12830.080;250;150;156.4;57;56.9;12;11.3;28.9;-1.0;
15/06/2019 08:15:45;117;0;232.54;17;27.30;8.70;139.5;10.20;68788;5126.521;-12830.080;250;150;156.4;57;56.9;12;11.3;28.9;-1.0;
15/06/2019 08:16:05;117;0;231.06;17;27.90;8.85;135.1;10.10;68791;5126.521;-12830.080;250;150;156.4;57;56.9;12;11.3;29.0;-1.0;
15/06/2019 08:16:25;117;0;231.20;17;27.32;8.67;130.7;10.10;68812;5126.521;-12830.080;250;150;158.4;57;56.9;12;11.3;29.0;-1.0;
15/06/2019 08:16:45;117;0;235.02;17;26.08;8.41;126.5;10.10;68813;5126.521;-12830.080;250;150;156.4;57;56.9;12;11.3;29.0;-1.0;
15/06/2019 08:17:05;117;0;242.07;17;25.97;8.64;122.8;10.10;68837;5126.521;-12830.080;250;150;158.4;57;56.9;9;8.6;29.0;-1.0;
15/06/2019 08:17:25;117;0;247.14;17;25.03;7.08;119.1;10.10;68840;5126.521;-12830.080;250;150;156.4;57;56.9;7;6.8;28.9;-1.0;
15/06/2019 08:17:45;117;0;247.53;17;25.53;6.21;115.5;10.00;68869;5126.521;-12830.080;250;150;158.4;57;56.9;8;8.6;29.0;-1.0;
15/06/2019 08:18:05;117;0;248.37;17;24.78;7.76;111.8;10.00;68865;5126.521;-12830.080;250;150;158.4;57;56.9;8;9.0;28.9;-1.0;
15/06/2019 08:18:25;117;0;237.17;17;25.69;7.70;108.3;10.00;68877;5126.521;-12830.080;250;150;156.4;57;56.9;15;14.9;28.9;-1.0;
15/06/2019 08:18:45;117;0;233.98;17;24.97;11.02;104.8;10.00;68893;5126.521;-12830.080;250;150;156.4;57;56.9;15;15.8;29.0;-1.0;
15/06/2019 08:19:05;117;0;240.75;17;23.52;10.92;101.3;10.00;68899;5126.521;-12830.080;250;150;158.4;57;56.9;9;8.6;28.9;-1.0;
15/06/2019 08:19:25;117;0;246.99;17;23.08;7.01;98.2;10.00;68903;5126.521;-12830.080;250;150;158.4;57;57.1;6;5.9;29.0;-1.0;
15/06/2019 08:19:45;117;0;247.71;17;22.79;5.80;95.2;10.00;68917;5126.521;-12830.080;250;150;156.4;57;56.9;6;5.4;29.0;-1.0;
15/06/2019 08:20:05;117;0;242.40;17;23.22;5.80;92.4;10.00;68918;5126.521;-12830.080;250;150;158.4;57;56.9;10;9.9;28.9;-1.0;
15/06/2019 08:20:25;117;0;242.05;17;23.02;8.40;89.4;10.00;68928;5126.521;-12830.080;250;150;158.4;57;56.9;9;9.0;29.0;-1.0;
15/06/2019 08:20:45;117;0;239.58;17;22.46;7.16;86.5;10.00;68926;5126.521;-12830.080;250;150;158.4;57;56.9;10;10.4;28.9;-1.0;
15/06/2019 08:21:05;117;0;239.82;17;22.50;8.55;83.8;10.00;68932;5126.521;-12830.080;250;150;156.4;57;56.9;9;9.0;29.0;-1.0;
15/06/2019 08:21:25;117;0;241.60;17;22.30;7.15;81.0;10.00;68934;5126.521;-12830.080;250;150;158.4;57;56.9;7;7.2;29.0;-1.0;
15/06/2019 08:21:45;117;0;236.17;17;22.34;6.69;78.1;10.00;68944;5126.521;-12830.080;250;150;156.4;57;56.9;10;10.4;28.9;-1.0;
15/06/2019 08:22:05;117;0;234.38;17;22.10;8.44;75.4;9.90;68944;5126.521;-12830.080;250;150;156.4;57;56.9;11;10.8;29.0;-1.0;
15/06/2019 08:22:25;117;0;235.71;17;21.54;8.49;72.6;9.90;68959;5126.521;-12830.080;250;150;156.4;57;56.9;9;9.0;28.9;-1.0;
15/06/2019 08:22:45;117;0;238.39;17;21.17;7.22;70.0;9.90;68956;5126.521;-12830.080;250;150;158.4;57;56.9;7;7.2;29.0;-1.0;
15/06/2019 08:23:05;117;0;237.57;17;21.66;6.56;67.5;9.90;68964;5126.521;-12830.080;250;150;158.4;57;56.9;8;8.1;29.0;-1.0;
15/06/2019 08:23:25;117;0;235.95;17;21.64;7.41;64.8;10.00;68972;5126.521;-12830.080;250;150;158.4;57;56.9;9;9.0;29.0;-1.0;
15/06/2019 08:23:45;117;0;234.39;17;21.25;8.04;61.9;9.90;68970;5126.521;-12830.080;250;150;160.4;57;57.1;9;9.5;29.0;-1.0;
15/06/2019 08:24:05;117;0;230.62;17;21.36;8.19;59.2;9.90;68981;5126.521;-12830.080;250;150;156.4;57;56.9;9;9.9;29.0;-1.0;
15/06/2019 08:24:25;117;0;226.91;17;20.25;7.96;56.5;10.00;68983;5126.521;-12830.080;250;150;156.4;57;56.9;12;12.2;29.0;-1.0;
15/06/2019 08:24:45;117;0;226.98;17;20.41;9.41;54.0;10.00;68988;5126.521;-12830.080;250;150;156.4;57;56.9;11;10.4;29.0;-1.0;
15/06/2019 08:25:05;117;0;225.09;17;20.21;8.01;51.5;10.00;69002;5126.521;-12830.080;250;150;156.4;57;57.1;12;12.2;28.9;-1.0;
15/06/2019 08:25:25;117;0;227.49;17;19.60;9.50;49.0;10.00;69011;5126.521;-12830.080;250;150;156.4;57;56.9;10;9.9;28.9;-1.0;
15/06/2019 08:25:45;117;0;234.19;17;19.26;7.68;46.7;10.00;69011;5126.521;-12830.080;250;150;156.4;57;56.9;10;9.0;28.9;-1.0;
15/06/2019 08:26:05;117;0;237.56;17;19.13;7.63;44.3;10.00;69018;5126.521;-12830.080;250;150;158.4;57;56.9;6;5.4;28.9;-1.0;
15/06/2019 08:26:25;117;0;239.73;17;19.19;5.81;42.0;10.00;69026;5126.521;-12830.080;250;150;158.4;57;56.9;6;5.0;29.0;-1.0;
15/06/2019 08:26:45;117;0;244.28;17;19.00;5.69;39.7;10.00;69037;5126.521;-12830.080;250;150;158.4;57;56.9;4;3.6;29.0;-1.0;
15/06/2019 08:27:05;117;0;248.44;17;19.02;4.66;37.5;10.00;69052;5126.521;-12830.080;250;150;158.4;57;56.9;2;1.4;28.9;-1.0;
15/06/2019 08:27:25;117;0;243.85;17;19.14;3.59;35.3;10.00;69060;5126.521;-12830.080;250;150;158.4;57;56.9;6;5.9;28.9;-1.0;
15/06/2019 08:27:45;117;0;243.99;17;18.34;6.60;33.1;10.00;69070;5126.521;-12830.080;250;150;156.4;57;56.9;6;6.8;28.9;-1.0;
15/06/2019 08:28:05;117;0;243.03;17;18.00;6.65;31.1;10.00;69090;5126.521;-12830.080;250;150;158.4;57;56.9;5;5.0;28.9;-1.0;
15/06/2019 08:28:25;117;0;241.88;17;17.62;5.47;29.2;10.10;69128;5126.521;-12830.080;250;150;158.4;57;56.9;6;5.9;28.9;-1.0;
15/06/2019 08:28:45;117;0;244.15;17;17.53;6.80;27.3;10.10;69141;5126.521;-12830.080;250;150;158.4;57;56.9;3;2.7;29.0;-1.0;
15/06/2019 08:29:05;117;0;240.24;17;16.92;4.41;25.4;10.10;69170;5126.521;-12830.080;250;150;158.4;57;56.9;6;5.9;29.0;-1.0;
15/06/2019 08:29:25;117;0;247.14;17;17.19;6.61;23.7;10.10;69201;5126.521;-12830.080;250;150;158.4;57;56.9;0;0.0;29.0;-1.0;
15/06/2019 08:29:45;117;0;249.71;17;16.99;2.85;22.0;10.20;69217;5126.521;-12830.080;250;150;158.4;57;56.9;0;-0.9;29.0;-1.0;
15/06/2019 08:30:05;117;0;251.35;17;16.75;3.04;20.2;10.20;69254;5126.521;-12830.080;250;150;158.4;57;57.1;0;-0.5;28.9;-1.0;
15/06/2019 08:30:25;117;0;250.32;17;16.54;2.85;18.4;10.20;69275;5126.521;-12830.080;250;150;158.4;57;56.9;0;-0.9;29.0;-1.0;
15/06/2019 08:30:45;117;0;247.80;17;16.40;2.94;16.8;10.30;69304;5126.521;-12830.080;250;150;158.4;57;56.9;1;0.9;29.0;-1.0;
15/06/2019 08:31:05;117;0;253.93;17;15.87;4.31;15.5;10.30;69334;5126.521;-12830.080;250;150;156.4;57;56.9;-2;-2.3;28.9;-1.0;
15/06/2019 08:31:25;117;0;250.89;17;16.23;1.87;14.1;10.40;69370;5126.521;-12830.080;250;150;156.4;57;56.9;0;0.0;29.0;-1.0;
15/06/2019 08:31:45;117;0;250.19;17;15.67;3.57;12.8;10.40;69393;5126.521;-12830.080;250;150;158.4;57;57.1;-1;-0.9;28.9;-1.0;
15/06/2019 08:32:05;117;0;251.59;17;16.20;2.76;11.3;10.50;69423;5126.521;-12830.080;250;150;158.4;57;57.1;-2;-1.8;28.9;-1.0;
