Timestamp;NavState;SecurityLevel;Heading;Declination;Pitch;Roll;Depth;Temperature;Pa;Lat;Lon;DesiredH;BallastCmd;BallastPos;LinCmd;LinPos;AngCmd;AngPos;Voltage;Altitude;
15/06/2019 11:39:19;117;0;262.28;17;15.16;-3.31;8.7;10.90;69544;5124.796;-12833.188;261;150;158.4;57;57.1;-8;-7.7;28.9;-1.0;
15/06/2019 11:39:29;115;0;262.60;17;14.72;0.08;8.0;10.90;69546;5124.796;-12833.188;261;500;168.3;100;100.3;0;0.9;28.9;-1.0;
15/06/2019 11:39:39;115;0;278.57;17;-28.11;4.69;7.5;10.90;69475;5124.796;-12833.188;261;500;320.8;100;99.9;0;0.9;28.6;-1.0;
15/06/2019 11:39:49;115;0;295.10;17;-64.44;3.20;8.0;10.90;69271;5124.796;-12833.188;261;500;469.3;100;99.9;0;0.9;28.6;-1.0;
15/06/2019 11:39:59;115;0;294.31;17;-56.03;3.31;6.9;11.00;69032;5124.796;-12833.188;261;500;506.9;100;99.7;0;0.9;28.6;-1.0;
15/06/2019 11:40:09;115;0;283.28;17;-30.16;3.12;4.1;11.00;68995;5124.796;-12833.188;261;500;506.9;100;99.7;0;0.9;28.9;-1.0;
15/06/2019 11:40:19;116;0;290.60;17;-57.21;2.62;1.3;11.00;68992;5124.796;-12833.188;261;500;505.0;100;99.7;0;0.5;28.9;-1.0;
15/06/2019 11:40:39;116;0;265.13;17;-13.95;4.09;1.3;11.10;69018;5124.436;-12834.145;261;500;506.9;100;99.7;0;0.9;28.9;-1.0;
15/06/2019 11:40:59;116;0;249.44;17;-10.08;1.63;1.2;11.20;69023;5124.438;-12834.149;261;500;508.9;100;99.7;0;0.9;28.9;-1.0;
15/06/2019 11:41:19;116;0;268.72;17;-16.86;4.74;1.3;11.30;69034;5124.437;-12834.153;264;500;508.9;100;99.6;0;0.9;28.9;-1.0;
15/06/2019 11:41:39;116;0;277.69;17;-8.00;2.26;1.2;11.40;69051;5124.428;-12834.220;264;500;508.9;100;99.7;0;0.9;28.9;-1.0;
15/06/2019 11:46:23;116;0;309.22;17;-13.20;-2.03;1.3;12.80;69141;5124.428;-12834.222;264;500;508.9;100;99.7;0;0.9;28.9;-1.0;
15/06/2019 11:46:43;116;0;287.52;17;-11.14;4.50;1.2;12.80;69134;5124.428;-12834.223;264;500;508.9;100;99.7;0;0.9;28.9;-1.0;
15/06/2019 11:47:03;116;0;304.47;17;-10.14;5.19;1.3;12.90;69153;5124.427;-12834.230;264;500;506.9;100;99.7;0;0.9;28.9;-1.0;
15/06/2019 11:47:23;116;0;305.42;17;-7.37;1.02;1.2;13.00;69137;5124.424;-12834.249;264;500;508.9;100;99.7;0;0.9;28.9;-1.0;
15/06/2019 11:48:36;116;0;298.35;17;-10.36;2.06;1.3;13.40;69169;5124.424;-12834.249;264;500;508.9;100;99.6;0;0.9;28.9;-1.0;
15/06/2019 11:48:56;116;0;300.73;17;-5.89;2.28;1.3;13.50;69164;5124.423;-12834.254;264;500;508.9;100;99.7;0;0.9;28.9;-1.0;
15/06/2019 11:49:16;116;0;287.57;17;-7.19;2.90;1.3;13.60;69169;5124.422;-12834.273;264;500;508.9;100;99.7;0;0.9;28.9;-1.0;
15/06/2019 11:50:15;116;0;313.55;17;-23.48;6.05;1.4;13.90;69185;5124.423;-12834.273;264;500;508.9;100;99.7;0;0.9;28.9;-1.0;
15/06/2019 11:50:35;116;0;306.13;17;-22.77;2.41;1.3;14.00;69187;5124.422;-12834.278;264;500;508.9;100;99.7;0;0.9;28.9;-1.0;
15/06/2019 11:50:55;116;0;306.55;17;-16.02;2.89;1.3;14.10;69189;5124.420;-12834.286;264;500;508.9;100;99.7;0;0.9;28.9;-1.0;
15/06/2019 11:51:15;116;0;296.16;17;-7.11;4.22;1.3;14.10;69194;5124.418;-12834.287;264;500;508.9;100;99.7;0;0.9;28.9;-1.0;
15/06/2019 11:51:35;116;0;293.06;17;-9.57;2.09;1.2;14.20;69194;5124.419;-12834.290;264;500;508.9;100;99.7;0;0.9;28.9;-1.0;
15/06/2019 11:51:55;116;0;296.74;17;-7.84;4.28;1.2;14.30;69203;5124.418;-12834.295;264;500;508.9;100;99.7;0;0.9;28.9;-1.0;
15/06/2019 11:52:15;110;0;292.29;17;-7.72;5.61;1.2;14.30;69196;5124.418;-12834.295;264;-300;407.9;100;99.7;0;0.9;28.9;-1.0;
15/06/2019 11:52:25;110;0;303.63;17;-9.27;2.27;1.2;14.40;69449;5124.418;-12834.295;264;-300;269.3;100;99.6;0;0.9;28.8;-1.0;
15/06/2019 11:52:35;110;0;301.14;17;-6.47;-0.58;1.3;14.40;69626;5124.418;-12834.295;264;-300;122.8;100;99.7;0;0.9;28.8;-1.0;
15/06/2019 11:52:45;110;0;319.29;17;-30.93;5.43;1.6;14.40;69871;5124.418;-12834.295;264;-300;-47.5;100;99.9;0;0.9;28.8;-1.0;
15/06/2019 11:52:55;110;0;318.20;17;-60.59;4.31;2.8;14.40;70150;5124.418;-12834.295;264;-300;-253.5;95;94.8;0;0.9;28.8;-1.0;
15/06/2019 11:53:05;110;0;308.84;17;-57.64;2.80;4.8;14.40;70495;5124.418;-12834.295;264;-300;-303.0;77;77.0;0;0.9;28.9;-1.0;
15/06/2019 11:53:15;110;0;292.36;17;-48.05;4.50;8.0;14.40;70539;5124.418;-12834.295;264;-300;-301.0;73;72.9;0;0.9;28.9;-1.0;
15/06/2019 11:53:25;100;0;282.06;17;-36.29;4.63;11.5;14.40;70542;5124.418;-12834.295;264;-300;-301.0;73;72.7;0;0.9;28.9;-1.0;
15/06/2019 11:53:45;100;0;260.11;17;-27.43;4.17;17.0;14.40;70524;5124.418;-12834.295;264;-300;-297.0;73;72.7;0;0.9;28.9;0.0;
15/06/2019 11:54:05;100;0;245.97;17;-25.97;4.25;21.9;14.40;70495;5124.418;-12834.295;264;-300;-295.0;73;72.7;0;0.9;28.9;0.0;
15/06/2019 11:54:25;100;0;232.47;17;-25.72;4.22;26.1;14.40;70467;5124.418;-12834.295;264;-300;-297.0;73;72.7;-10;-9.9;28.9;0.0;
15/06/2019 11:54:45;100;0;221.65;17;-25.96;-1.09;30.2;14.30;70428;5124.418;-12834.295;264;-300;-295.0;73;72.7;-13;-13.5;28.9;0.0;
15/06/2019 11:55:05;100;0;206.42;17;-26.23;-2.83;34.4;14.30;70391;5124.418;-12834.295;264;-300;-297.0;73;72.7;-18;-18.1;28.9;0.0;
15/06/2019 11:55:25;100;0;207.28;17;-25.05;-4.79;38.4;14.20;70359;5124.418;-12834.295;264;-300;-295.0;73;72.7;-14;-13.5;28.9;0.0;
15/06/2019 11:55:45;100;0;195.81;17;-25.17;-2.36;42.3;14.20;70312;5124.418;-12834.295;264;-300;-295.0;73;72.7;-20;-19.9;28.9;0.0;
15/06/2019 11:56:05;100;0;195.95;17;-25.03;-5.68;45.8;14.10;70270;5124.418;-12834.295;264;-300;-295.0;73;72.7;-19;-19.0;28.8;0.0;
15/06/2019 11:56:25;100;0;197.12;17;-24.77;-4.71;49.6;14.00;70229;5124.418;-12834.295;264;-300;-295.0;73;72.7;-18;-18.1;28.9;0.0;
15/06/2019 11:56:45;100;0;200.73;17;-25.09;-4.16;53.1;14.00;70212;5124.418;-12834.295;264;-300;-295.0;73;72.7;-18;-17.1;28.9;0.0;
15/06/2019 11:57:05;100;0;195.90;17;-24.60;-4.26;56.9;13.90;70176;5124.418;-12834.295;264;-300;-295.0;73;72.7;-23;-23.0;28.9;0.0;
15/06/2019 11:57:25;100;0;194.69;17;-24.31;-7.18;60.6;13.80;70156;5124.418;-12834.295;264;-300;-295.0;73;72.7;-25;-24.8;28.9;0.0;
15/06/2019 11:57:45;100;0;195.60;17;-24.45;-8.01;64.2;13.80;70127;5124.418;-12834.295;264;-300;-295.0;73;72.7;-25;-25.3;28.9;0.0;
15/06/2019 11:58:05;100;0;198.86;17;-24.79;-7.97;67.8;13.70;70109;5124.418;-12834.295;264;-300;-295.0;73;72.7;-23;-23.0;28.9;0.0;
15/06/2019 11:58:25;100;0;196.44;17;-24.25;-6.58;71.3;13.60;70082;5124.418;-12834.295;264;-300;-295.0;73;72.7;-25;-24.8;28.9;0.0;
15/06/2019 11:58:45;100;0;196.57;17;-24.84;-8.38;74.9;13.60;70063;5124.418;-12834.295;264;-300;-295.0;73;72.7;-25;-25.3;28.8;0.0;
15/06/2019 11:59:05;100;0;202.78;17;-23.66;-8.27;78.4;13.50;70052;5124.418;-12834.295;264;-300;-295.0;73;72.7;-21;-21.2;28.9;0.0;
15/06/2019 11:59:25;100;0;203.37;17;-23.75;-6.01;81.6;13.40;70031;5124.418;-12834.295;264;-300;-295.0;73;72.7;-22;-22.6;28.9;0.0;
15/06/2019 11:59:45;100;0;209.56;17;-23.95;-7.02;84.8;13.30;70017;5124.418;-12834.295;264;-300;-295.0;73;72.7;-19;-19.0;29.0;0.0;
15/06/2019 12:00:05;100;0;217.49;17;-23.16;-5.04;88.0;13.30;70003;5124.418;-12834.295;264;-300;-295.0;73;72.7;-16;-15.3;28.9;0.0;
15/06/2019 12:00:25;100;0;220.62;17;-22.91;-3.25;91.3;13.20;69986;5124.418;-12834.295;264;-300;-295.0;73;72.7;-16;-14.9;28.9;0.0;
15/06/2019 12:00:45;100;0;217.69;17;-23.02;-3.25;94.5;13.10;69977;5124.418;-12834.295;264;-300;-293.1;73;72.6;-20;-19.9;28.9;0.0;
15/06/2019 12:01:05;100;0;214.16;17;-23.10;-5.63;97.7;13.10;69978;5124.418;-12834.295;264;-300;-295.0;73;72.7;-22;-22.6;28.9;0.0;
15/06/2019 12:01:25;100;0;209.19;17;-23.35;-7.07;101.0;13.00;69970;5124.418;-12834.295;264;-300;-295.0;73;72.7;-24;-23.9;28.9;0.0;
15/06/2019 12:01:45;100;0;205.78;17;-22.90;-7.90;104.2;13.00;69957;5124.418;-12834.295;264;-300;-293.1;73;72.7;-25;-24.8;28.9;0.0;
15/06/2019 12:02:05;100;0;209.32;17;-23.46;-8.08;107.2;12.90;69945;5124.418;-12834.295;264;-300;-295.0;73;72.7;-22;-22.1;28.9;0.0;
15/06/2019 12:02:25;100;0;213.44;17;-22.32;-6.40;110.4;12.80;69935;5124.418;-12834.295;264;-300;-295.0;73;72.7;-20;-19.9;28.9;0.0;
15/06/2019 12:02:45;100;0;216.78;17;-21.39;-5.21;113.5;12.80;69933;5124.418;-12834.295;264;-300;-293.1;73;72.7;-19;-19.0;28.9;0.0;
15/06/2019 12:03:05;100;0;219.27;17;-21.38;-5.24;116.2;12.70;69908;5124.418;-12834.295;264;-300;-297.0;73;72.7;-18;-18.1;28.9;0.0;
15/06/2019 12:03:25;100;0;219.45;17;-21.03;-4.38;119.0;12.70;69905;5124.418;-12834.295;264;-300;-295.0;73;72.7;-19;-19.4;28.9;0.0;
15/06/2019 12:03:45;100;0;215.59;17;-20.52;-5.67;121.9;12.60;69893;5124.418;-12834.295;264;-300;-295.0;73;72.7;-22;-22.1;28.9;0.0;
15/06/2019 12:04:05;100;0;211.94;17;-21.06;-7.13;124.4;12.50;69876;5124.418;-12834.295;264;-300;-293.1;73;72.7;-23;-23.0;28.9;0.0;
15/06/2019 12:04:25;100;0;216.49;17;-20.70;-7.05;127.0;12.50;69859;5124.418;-12834.295;264;-300;-295.0;73;72.7;-20;-19.9;28.9;0.0;
15/06/2019 12:04:45;100;0;213.40;17;-20.32;-5.36;129.7;12.40;69858;5124.418;-12834.295;264;-300;-293.1;73;72.7;-22;-22.1;28.9;0.0;
15/06/2019 12:05:05;100;0;215.96;17;-20.63;-7.23;132.0;12.40;69851;5124.418;-12834.295;264;-300;-293.1;73;72.7;-20;-19.9;28.9;0.0;
15/06/2019 12:05:25;100;0;229.84;17;-20.53;-5.55;134.3;12.30;69832;5124.418;-12834.295;264;-300;-293.1;73;72.7;-12;-12.2;28.9;0.0;
15/06/2019 12:05:45;100;0;228.09;17;-19.43;-1.69;136.5;12.20;69817;5124.418;-12834.295;264;-300;-293.1;73;72.7;-16;-16.2;28.9;0.0;
15/06/2019 12:06:05;100;0;227.10;17;-19.15;-4.28;138.7;12.20;69792;5124.418;-12834.295;264;-300;-295.0;73;72.7;-17;-17.1;28.9;0.0;
15/06/2019 12:06:25;100;0;225.78;17;-19.34;-4.84;141.0;12.10;69781;5124.418;-12834.295;264;-300;-295.0;73;72.7;-19;-19.0;28.9;0.0;
15/06/2019 12:06:45;100;0;224.67;17;-19.34;-5.65;143.1;12.10;69765;5124.418;-12834.295;264;-300;-293.1;73;72.7;-19;-19.9;28.9;0.0;
15/06/2019 12:07:05;100;0;221.28;17;-19.15;-5.72;145.3;12.00;69758;5124.418;-12834.295;264;-300;-293.1;73;72.7;-21;-21.2;28.9;0.0;
15/06/2019 12:07:25;100;0;225.11;17;-18.98;-6.70;147.5;11.90;69749;5124.418;-12834.295;264;-300;-293.1;73;72.7;-18;-18.1;28.9;0.0;
15/06/2019 12:07:45;100;0;226.20;17;-18.55;-4.64;149.8;11.90;69739;5124.418;-12834.295;264;-300;-293.1;73;72.7;-18;-17.1;28.9;0.0;
15/06/2019 12:08:05;100;0;225.23;17;-18.60;-4.63;151.9;11.80;69712;5124.418;-12834.295;264;-300;-293.1;73;72.7;-19;-19.4;28.9;0.0;
15/06/2019 12:08:25;100;0;226.24;17;-18.73;-5.76;154.0;11.80;69709;5124.418;-12834.295;264;-300;-293.1;73;72.7;-18;-18.1;28.9;0.0;
15/06/2019 12:08:45;100;0;226.06;17;-18.92;-4.67;156.0;11.70;69702;5124.418;-12834.295;264;-300;-293.1;73;72.7;-18;-17.1;28.9;0.0;
15/06/2019 12:09:05;100;0;225.07;17;-18.66;-4.60;158.1;11.60;69696;5124.418;-12834.295;264;-300;-293.1;73;72.7;-19;-19.0;28.9;0.0;
15/06/2019 12:09:25;100;0;227.21;17;-18.78;-5.73;160.1;11.60;69675;5124.418;-12834.295;264;-300;-293.1;73;72.7;-18;-17.6;28.9;0.0;
15/06/2019 12:09:45;100;0;223.70;17;-18.56;-4.59;162.1;11.50;69667;5124.418;-12834.295;264;-300;-293.1;73;72.7;-20;-19.9;28.9;43.9;
15/06/2019 12:10:05;100;0;221.07;17;-18.53;-5.92;164.1;11.40;69655;5124.418;-12834.295;264;-300;-293.1;73;72.7;-21;-21.2;28.9;41.8;
15/06/2019 12:10:25;100;0;223.69;17;-18.73;-6.84;166.0;11.40;69641;5124.418;-12834.295;264;-300;-293.1;73;72.7;-19;-18.5;28.9;39.9;
15/06/2019 12:10:45;100;0;225.95;17;-18.63;-4.97;167.7;11.30;69634;5124.418;-12834.295;264;-300;-293.1;73;72.7;-18;-18.1;28.9;37.9;
15/06/2019 12:11:05;100;0;226.93;17;-18.68;-5.00;169.7;11.30;69624;5124.418;-12834.295;264;-300;-293.1;73;72.7;-18;-18.1;28.9;36.0;
15/06/2019 12:11:25;100;0;229.49;17;-18.65;-5.03;171.5;11.20;69619;5124.418;-12834.295;264;-300;-293.1;73;72.7;-16;-15.8;28.9;34.2;
15/06/2019 12:11:45;100;0;230.06;17;-18.46;-3.52;173.3;11.20;69616;5124.418;-12834.295;264;-300;-293.1;73;72.7;-17;-17.1;28.9;32.3;
15/06/2019 12:12:05;100;0;231.55;17;-18.61;-4.95;175.2;11.10;69594;5124.418;-12834.295;264;-300;-293.1;73;72.7;-17;-18.1;28.9;30.3;
15/06/2019 12:12:26;100;0;232.62;17;-18.40;-4.92;177.2;11.10;69600;5124.418;-12834.295;264;-300;-293.1;73;72.6;-16;-15.3;28.9;28.4;
15/06/2019 12:12:46;100;0;233.31;17;-18.11;-3.69;179.0;11.00;69581;5124.418;-12834.295;264;-300;-293.1;73;72.7;-16;-14.4;28.9;26.6;
15/06/2019 12:13:06;100;0;228.37;17;-18.55;-3.30;181.0;11.00;69582;5124.418;-12834.295;264;-300;-291.1;73;72.7;-20;-20.3;28.9;24.6;
15/06/2019 12:13:26;100;0;230.61;17;-18.08;-6.14;183.0;10.90;69573;5124.418;-12834.295;264;-300;-293.1;73;72.7;-18;-17.6;28.9;22.5;
15/06/2019 12:13:46;100;0;231.18;17;-18.45;-4.38;185.0;10.90;69576;5124.418;-12834.295;264;-300;-293.1;73;72.7;-17;-17.1;28.9;20.5;
15/06/2019 12:14:06;100;0;229.52;17;-17.85;-5.15;187.2;10.80;69561;5124.418;-12834.295;264;-300;-293.1;73;72.7;-18;-18.1;28.9;18.3;
15/06/2019 12:14:26;118;0;228.30;17;-19.14;-5.37;189.2;10.80;69571;5124.418;-12834.295;264;150;-277.2;57;56.6;0;0.5;28.9;16.2;
15/06/2019 12:14:36;118;0;168.27;17;3.95;4.29;190.1;10.70;69478;5124.418;-12834.295;264;150;-116.8;57;57.2;0;0.5;28.4;16.2;
15/06/2019 12:14:46;118;0;171.83;17;20.24;3.63;189.9;10.70;69270;5124.418;-12834.295;264;150;35.6;57;57.2;0;0.5;28.3;-1.0;
15/06/2019 12:14:56;118;0;168.46;17;24.05;3.72;189.0;10.70;69022;5124.418;-12834.295;264;150;154.5;57;57.2;0;0.5;28.3;-1.0;
15/06/2019 12:15:06;118;0;217.54;17;24.26;3.66;187.7;10.70;68843;5124.418;-12834.295;264;150;156.4;57;57.2;0;0.5;28.9;-1.0;
15/06/2019 12:15:16;118;0;218.07;17;26.34;3.50;185.9;10.70;68846;5124.418;-12834.295;264;150;156.4;57;57.2;0;0.5;28.9;-1.0;
15/06/2019 12:15:26;117;0;218.23;17;27.11;3.32;184.1;10.70;68839;5124.418;-12834.295;264;150;156.4;57;57.2;0;0.5;28.9;-1.0;
15/06/2019 12:15:46;117;0;217.05;17;28.14;2.37;179.9;10.60;68834;5124.418;-12834.295;264;150;158.4;57;57.2;25;25.3;28.9;-1.0;
15/06/2019 12:16:06;117;0;228.40;17;27.30;15.96;175.2;10.60;68839;5124.418;-12834.295;264;150;156.4;57;57.2;17;17.1;28.9;-1.0;
15/06/2019 12:16:26;117;0;229.78;17;27.48;11.12;170.9;10.50;68824;5124.418;-12834.295;264;150;158.4;57;57.1;17;16.7;28.9;-1.0;
15/06/2019 12:16:46;117;0;230.79;17;28.21;11.45;166.5;10.50;68815;5124.418;-12834.295;264;150;156.4;57;57.1;17;16.7;28.9;-1.0;
15/06/2019 12:17:06;117;0;236.39;17;27.89;11.29;161.8;10.50;68813;5124.418;-12834.295;264;150;156.4;57;57.2;14;14.0;28.9;-1.0;
15/06/2019 12:17:26;117;0;240.33;17;27.92;9.53;157.1;10.40;68821;5124.418;-12834.295;264;150;156.4;57;57.2;13;13.1;28.9;-1.0;
15/06/2019 12:17:46;117;0;242.98;17;27.32;9.49;152.7;10.40;68819;5124.418;-12834.295;264;150;156.4;57;57.1;13;13.1;28.9;-1.0;
15/06/2019 12:18:06;117;0;245.86;17;27.54;9.49;148.1;10.30;68822;5124.418;-12834.295;264;150;156.4;57;57.1;12;12.2;28.9;-1.0;
15/06/2019 12:18:26;117;0;244.79;17;27.21;8.67;143.7;10.30;68845;5124.418;-12834.295;264;150;158.4;57;57.1;14;14.0;28.9;-1.0;
15/06/2019 12:18:46;117;0;251.24;17;26.68;10.28;139.4;10.20;68838;5124.418;-12834.295;264;150;158.4;57;57.2;14;14.9;28.9;-1.0;
15/06/2019 12:19:06;117;0;260.71;17;26.26;10.30;135.1;10.20;68843;5124.418;-12834.295;264;150;158.4;57;57.1;7;7.2;28.9;-1.0;
15/06/2019 12:19:26;117;0;252.92;17;26.77;6.37;130.9;10.20;68861;5124.418;-12834.295;264;150;158.4;57;57.1;13;13.1;28.9;-1.0;
15/06/2019 12:19:46;117;0;259.81;17;25.09;9.75;126.8;10.20;68881;5124.418;-12834.295;264;150;158.4;57;57.1;8;8.1;28.9;-1.0;
15/06/2019 12:20:06;117;0;257.18;17;24.75;6.88;123.1;10.20;68889;5124.418;-12834.295;264;150;158.4;57;57.1;10;9.9;28.9;-1.0;
15/06/2019 12:20:26;117;0;259.60;17;23.99;8.16;119.7;10.20;68903;5124.418;-12834.295;264;150;158.4;57;57.1;9;9.0;28.9;-1.0;
15/06/2019 12:20:46;117;0;252.92;17;23.87;7.57;116.6;10.10;68915;5124.418;-12834.295;264;150;158.4;57;57.2;13;13.5;28.9;-1.0;
15/06/2019 12:21:06;117;0;257.94;17;23.43;10.16;113.5;10.10;68929;5124.418;-12834.295;264;150;158.4;57;57.1;9;8.6;28.9;-1.0;
15/06/2019 12:21:26;117;0;256.26;17;23.17;7.05;110.3;10.10;68943;5124.418;-12834.295;264;150;158.4;57;57.2;9;8.1;29.0;-1.0;
15/06/2019 12:21:46;117;0;248.90;17;22.53;7.15;107.4;10.10;68936;5124.418;-12834.295;264;150;158.4;57;57.2;14;14.0;28.9;-1.0;
15/06/2019 12:22:06;117;0;261.99;17;21.94;10.64;104.4;10.10;68952;5124.418;-12834.295;264;150;156.4;57;57.2;5;5.0;28.9;-1.0;
15/06/2019 12:22:26;117;0;266.54;17;21.57;5.40;101.6;10.10;68961;5124.418;-12834.295;264;150;158.4;57;57.1;3;2.7;29.0;-1.0;
15/06/2019 12:22:46;117;0;263.34;17;21.46;4.15;98.7;10.10;68966;5124.418;-12834.295;264;150;158.4;57;57.1;6;6.3;28.9;-1.0;
15/06/2019 12:23:06;117;0;262.80;17;21.07;6.58;96.1;10.10;68971;5124.418;-12834.295;264;150;158.4;57;57.1;6;6.8;28.9;-1.0;
15/06/2019 12:23:26;117;0;264.39;17;21.38;6.58;93.4;10.10;68977;5124.418;-12834.295;264;150;158.4;57;57.1;4;4.1;28.9;-1.0;
15/06/2019 12:23:46;117;0;261.87;17;21.53;4.91;91.0;10.10;68971;5124.418;-12834.295;264;150;158.4;57;57.1;6;5.9;28.9;-1.0;
15/06/2019 12:24:06;117;0;259.86;17;21.45;6.38;88.3;10.10;68974;5124.418;-12834.295;264;150;158.4;57;57.1;6;6.3;28.9;-1.0;
15/06/2019 12:24:26;117;0;253.48;17;21.74;6.37;85.6;10.10;68983;5124.418;-12834.295;264;150;156.4;57;57.2;9;9.0;28.9;-1.0;
15/06/2019 12:24:46;117;0;252.55;17;20.85;8.06;83.0;10.10;68988;5124.418;-12834.295;264;150;158.4;57;57.1;8;8.1;28.9;-1.0;
15/06/2019 12:25:06;117;0;253.70;17;20.92;6.91;80.6;10.10;68990;5124.418;-12834.295;264;150;158.4;57;57.1;6;5.9;29.0;-1.0;
15/06/2019 12:25:26;117;0;260.65;17;20.70;5.73;78.0;10.10;68996;5124.418;-12834.295;264;150;158.4;57;57.2;1;0.9;28.9;-1.0;
15/06/2019 12:25:46;117;0;265.11;17;20.07;3.05;75.6;10.10;69008;5124.418;-12834.295;264;150;158.4;57;57.1;0;0.0;29.0;-1.0;
15/06/2019 12:26:06;117;0;254.82;17;20.31;3.21;73.4;10.10;69010;5124.418;-12834.295;264;150;156.4;57;57.2;6;5.9;28.9;-1.0;
15/06/2019 12:26:26;117;0;252.53;17;19.76;6.46;71.0;10.10;69024;5124.418;-12834.295;264;150;158.4;57;57.1;6;6.3;28.9;-1.0;
15/06/2019 12:26:46;117;0;252.00;17;19.55;6.53;68.9;10.10;69025;5124.418;-12834.295;264;150;158.4;57;57.1;5;4.5;28.9;-1.0;
15/06/2019 12:27:06;117;0;251.38;17;19.61;5.32;66.9;10.10;69026;5124.418;-12834.295;264;150;158.4;57;57.2;5;4.5;28.9;-1.0;
15/06/2019 12:27:26;117;0;249.88;17;19.38;5.23;64.7;10.10;69029;5124.418;-12834.295;264;150;158.4;57;57.2;5;4.5;28.9;-1.0;
15/06/2019 12:27:46;117;0;254.22;17;19.14;5.29;62.8;10.10;69038;5124.418;-12834.295;264;150;160.4;57;57.1;2;1.8;28.9;-1.0;
15/06/2019 12:28:06;117;0;254.38;17;18.99;3.86;60.6;10.10;69052;5124.418;-12834.295;264;150;158.4;57;57.1;2;1.4;28.9;-1.0;
15/06/2019 12:28:26;117;0;254.52;17;19.22;3.93;58.5;10.10;69063;5124.418;-12834.295;264;150;158.4;57;57.1;2;1.4;28.9;-1.0;
15/06/2019 12:28:46;117;0;254.26;17;19.23;3.87;56.3;10.10;69068;5124.418;-12834.295;264;150;158.4;57;57.2;2;1.4;28.9;-1.0;
15/06/2019 12:29:06;117;0;253.70;17;18.94;3.88;54.2;10.10;69076;5124.418;-12834.295;264;150;158.4;57;57.2;2;1.4;28.9;-1.0;
15/06/2019 12:29:26;117;0;253.67;17;18.93;3.88;52.3;10.10;69093;5124.418;-12834.295;264;150;158.4;57;57.1;2;1.4;28.9;-1.0;
15/06/2019 12:29:46;117;0;248.65;17;18.92;3.88;50.1;10.10;69088;5124.418;-12834.295;264;150;158.4;57;57.2;5;5.0;28.9;-1.0;
15/06/2019 12:30:06;117;0;248.71;17;18.73;5.93;48.0;10.10;69103;5124.418;-12834.295;264;150;158.4;57;57.1;4;3.6;28.9;-1.0;
15/06/2019 12:30:26;117;0;252.42;17;18.64;4.77;45.8;10.20;69121;5124.418;-12834.295;264;150;158.4;57;57.2;1;0.9;28.9;-1.0;
15/06/2019 12:30:46;117;0;249.23;17;18.80;3.48;43.6;10.20;69121;5124.418;-12834.295;264;150;158.4;57;57.2;3;3.2;28.9;-1.0;
15/06/2019 12:31:06;117;0;251.78;17;18.03;5.13;41.4;10.20;69130;5124.418;-12834.295;264;150;158.4;57;57.1;1;0.9;29.0;-1.0;
15/06/2019 12:31:26;117;0;257.22;17;17.97;3.46;39.1;10.20;69154;5124.418;-12834.295;264;150;158.4;57;57.2;-1;-0.9;28.9;-1.0;
15/06/2019 12:31:46;117;0;259.20;17;17.95;2.56;37.1;10.20;69169;5124.418;-12834.295;264;150;158.4;57;57.2;-2;-2.3;28.9;-1.0;
15/06/2019 12:32:06;117;0;258.08;17;17.89;1.98;35.1;10.20;69186;5124.418;-12834.295;264;150;158.4;57;57.1;-1;-0.9;28.9;-1.0;
15/06/2019 12:32:26;117;0;259.09;17;17.32;3.14;32.9;10.30;69200;5124.418;-12834.295;264;150;158.4;57;57.2;-1;0.0;28.9;-1.0;
15/06/2019 12:32:46;117;0;260.44;17;17.02;3.22;30.9;10.30;69206;5124.418;-12834.295;264;150;158.4;57;57.1;-2;-1.8;29.0;-1.0;
15/06/2019 12:33:06;117;0;253.86;17;16.27;2.14;29.1;10.30;69245;5124.418;-12834.295;264;150;158.4;57;57.1;1;1.4;28.9;-1.0;
15/06/2019 12:33:26;117;0;255.03;17;16.32;4.09;27.5;10.30;69257;5124.418;-12834.295;264;150;158.4;57;57.2;-1;-1.4;28.9;-1.0;
15/06/2019 12:33:46;117;0;258.46;17;17.18;2.51;25.9;10.40;69277;5124.418;-12834.295;264;150;156.4;57;57.1;-3;-3.2;28.9;-1.0;
15/06/2019 12:34:06;117;0;259.98;17;16.35;1.57;24.3;10.40;69294;5124.418;-12834.295;264;150;158.4;57;57.1;-4;-4.1;28.9;-1.0;
15/06/2019 12:34:26;117;0;259.11;17;16.24;0.91;22.7;10.40;69308;5124.418;-12834.295;264;150;158.4;57;57.2;-4;-5.0;28.9;-1.0;
15/06/2019 12:34:46;117;0;262.21;17;16.34;0.95;21.0;10.50;69335;5124.418;-12834.295;264;150;158.4;57;57.2;-6;-5.9;28.9;-1.0;
15/06/2019 12:35:06;117;0;258.97;17;16.41;0.13;19.3;10.50;69359;5124.418;-12834.295;264;150;158.4;57;57.2;-3;-2.7;28.9;-1.0;
15/06/2019 12:35:26;117;0;257.75;17;15.65;2.28;17.5;10.50;69383;5124.418;-12834.295;264;150;158.4;57;57.2;-3;-2.3;28.9;-1.0;
15/06/2019 12:35:46;117;0;258.11;17;15.53;2.29;15.8;10.50;69410;5124.418;-12834.295;264;150;158.4;57;57.2;-5;-5.4;28.9;-1.0;
15/06/2019 12:36:06;117;0;257.88;17;15.93;0.63;14.1;10.60;69439;5124.418;-12834.295;264;150;158.4;57;57.2;-5;-5.9;28.9;-1.0;
15/06/2019 12:36:26;117;0;258.26;17;15.62;0.48;12.7;10.60;69463;5124.418;-12834.295;264;150;158.4;57;57.2;-6;-5.9;28.9;-1.0;
15/06/2019 12:36:46;117;0;258.95;17;15.73;0.54;11.1;10.70;69470;5124.418;-12834.295;264;150;158.4;57;57.2;-6;-5.9;28.9;-1.0;
