Timestamp;NavState;SecurityLevel;Heading;Declination;Pitch;Roll;Depth;Temperature;Pa;Lat;Lon;DesiredH;BallastCmd;BallastPos;LinCmd;LinPos;AngCmd;AngPos;Voltage;Altitude;
16/06/2019 02:55:18;117;0;339.14;17;15.68;2.78;9.5;10.60;69474;5122.842;-12841.823;354;150;158.4;57;57.1;-2;-1.4;28.8;-1.0;
16/06/2019 02:55:28;110;0;337.09;17;16.11;3.15;8.6;10.70;69482;5122.842;-12841.823;354;-300;-57.4;73;73.2;0;0.5;28.8;-1.0;
16/06/2019 02:55:39;110;0;354.22;17;-8.16;3.92;8.1;10.70;69984;5122.842;-12841.823;354;-300;-303.0;73;72.9;0;0.5;28.6;-1.0;
16/06/2019 02:55:49;110;0;342.62;17;-21.41;4.14;8.8;10.70;70278;5122.842;-12841.823;354;-300;-305.0;73;72.7;0;0.5;28.8;-1.0;
16/06/2019 02:55:59;100;0;340.40;17;-26.10;3.63;10.4;10.70;70269;5122.842;-12841.823;354;-300;-303.0;73;72.7;0;0.5;28.8;-1.0;
16/06/2019 02:56:19;100;0;333.83;17;-27.01;3.75;14.4;10.80;70266;5122.842;-12841.823;354;-300;-305.0;73;72.9;2;1.8;28.8;0.0;
16/06/2019 02:56:39;100;0;330.36;17;-25.96;4.66;19.0;10.80;70265;5122.842;-12841.823;354;-300;-305.0;73;72.9;0;0.0;28.8;0.0;
16/06/2019 02:56:59;100;0;319.24;17;-24.72;3.34;23.7;10.90;70259;5122.842;-12841.823;354;-300;-305.0;73;72.9;-5;-5.0;28.8;0.0;
16/06/2019 02:57:19;100;0;306.24;17;-25.21;1.05;27.9;10.90;70224;5122.842;-12841.823;354;-300;-305.0;73;72.9;-10;-10.4;28.8;0.0;
16/06/2019 02:57:39;100;0;303.87;17;-24.66;-1.36;32.0;10.90;70188;5122.842;-12841.823;354;-300;-305.0;73;72.9;-9;-9.0;28.8;0.0;
16/06/2019 02:57:59;100;0;304.64;17;-25.22;-0.17;35.9;11.00;70165;5122.842;-12841.823;354;-300;-306.9;73;72.9;-6;-5.4;28.8;0.0;
16/06/2019 02:58:19;100;0;304.52;17;-25.19;1.45;39.9;11.00;70148;5122.842;-12841.823;354;-300;-305.0;73;72.9;-6;-5.0;28.8;0.0;
16/06/2019 02:58:39;100;0;297.38;17;-24.20;1.40;44.0;11.00;70126;5122.842;-12841.823;354;-300;-305.0;73;72.9;-10;-9.9;28.8;0.0;
16/06/2019 02:58:59;100;0;298.24;17;-24.54;-1.28;47.8;11.00;70099;5122.842;-12841.823;354;-300;-305.0;73;72.7;-9;-9.0;28.7;0.0;
16/06/2019 02:59:19;100;0;291.79;17;-24.84;-0.16;51.4;11.00;70073;5122.842;-12841.823;354;-300;-305.0;73;72.9;-14;-14.0;28.8;0.0;
16/06/2019 02:59:39;100;0;288.76;17;-25.03;-3.03;55.2;11.00;70052;5122.842;-12841.823;354;-300;-306.9;73;72.9;-16;-15.8;28.8;0.0;
16/06/2019 02:59:59;100;0;290.17;17;-24.42;-3.94;59.1;11.00;70036;5122.842;-12841.823;354;-300;-306.9;73;72.9;-15;-14.9;28.8;0.0;
16/06/2019 03:00:19;100;0;288.73;17;-23.86;-3.34;62.9;11.00;70002;5122.842;-12841.823;354;-300;-306.9;73;72.9;-18;-18.1;28.8;0.0;
16/06/2019 03:00:39;100;0;288.05;17;-24.48;-5.03;66.5;10.90;69982;5122.842;-12841.823;354;-300;-306.9;73;72.9;-19;-19.4;28.8;0.0;
16/06/2019 03:00:59;100;0;290.61;17;-24.03;-5.51;69.9;10.90;69965;5122.842;-12841.823;354;-300;-306.9;73;72.9;-20;-19.9;28.8;0.0;
16/06/2019 03:01:19;100;0;290.20;17;-24.03;-5.95;73.4;10.90;69937;5122.842;-12841.823;354;-300;-306.9;73;72.9;-22;-22.1;28.8;0.0;
16/06/2019 03:01:39;100;0;290.94;17;-24.10;-6.75;77.0;10.90;69916;5122.842;-12841.823;354;-300;-308.9;73;72.9;-24;-24.4;28.8;0.0;
16/06/2019 03:01:59;100;0;289.21;17;-23.85;-7.85;80.8;10.90;69908;5122.842;-12841.823;354;-300;-305.0;73;72.9;-24;-24.4;28.8;0.0;
16/06/2019 03:02:19;100;0;292.78;17;-22.76;-7.87;84.4;10.90;69895;5122.842;-12841.823;354;-300;-305.0;73;72.9;-22;-21.7;28.8;0.0;
16/06/2019 03:02:39;100;0;296.89;17;-22.36;-6.01;87.9;10.80;69882;5122.842;-12841.823;354;-300;-306.9;73;72.9;-21;-21.2;28.9;0.0;
16/06/2019 03:02:59;100;0;301.54;17;-21.63;-6.12;91.3;10.80;69860;5122.842;-12841.823;354;-300;-305.0;73;72.7;-19;-19.0;28.8;0.0;
16/06/2019 03:03:19;100;0;306.03;17;-21.19;-4.90;94.5;10.80;69846;5122.842;-12841.823;354;-300;-305.0;73;72.9;-17;-17.1;28.8;0.0;
16/06/2019 03:03:39;100;0;298.51;17;-21.25;-4.16;97.5;10.80;69824;5122.842;-12841.823;354;-300;-305.0;73;72.9;-23;-23.0;28.8;0.0;
16/06/2019 03:03:59;100;0;302.69;17;-21.00;-7.46;100.5;10.70;69809;5122.842;-12841.823;354;-300;-306.9;73;72.7;-20;-19.4;28.8;0.0;
16/06/2019 03:04:19;100;0;299.38;17;-20.79;-5.18;103.4;10.70;69799;5122.842;-12841.823;354;-300;-305.0;73;72.9;-23;-23.0;28.8;0.0;
16/06/2019 03:04:39;100;0;300.02;17;-20.63;-7.38;106.2;10.70;69781;5122.842;-12841.823;354;-300;-306.9;73;72.7;-22;-21.7;28.8;0.0;
16/06/2019 03:04:59;100;0;297.87;17;-20.53;-6.37;108.9;10.70;69775;5122.842;-12841.823;354;-300;-306.9;73;72.7;-23;-23.0;28.8;0.0;
16/06/2019 03:05:19;100;0;291.51;17;-21.29;-7.62;111.6;10.60;69748;5122.842;-12841.823;354;-300;-305.0;73;72.9;-26;-26.2;28.8;0.0;
16/06/2019 03:05:39;100;0;294.03;17;-19.75;-9.03;114.5;10.60;69752;5122.842;-12841.823;354;-300;-305.0;73;72.9;-23;-22.6;28.8;0.0;
16/06/2019 03:05:59;100;0;296.14;17;-19.74;-6.80;117.1;10.60;69732;5122.842;-12841.823;354;-300;-306.9;73;72.9;-22;-22.1;28.8;0.0;
16/06/2019 03:06:19;100;0;298.95;17;-20.12;-6.82;119.7;10.60;69725;5122.842;-12841.823;354;-300;-305.0;73;72.9;-21;-20.8;28.8;0.0;
16/06/2019 03:06:39;100;0;302.41;17;-19.94;-5.97;122.1;10.50;69716;5122.842;-12841.823;354;-300;-305.0;73;72.7;-19;-19.0;28.8;0.0;
16/06/2019 03:06:59;100;0;307.00;17;-19.89;-5.13;124.6;10.50;69707;5122.842;-12841.823;354;-300;-305.0;73;72.9;-18;-18.1;28.8;0.0;
16/06/2019 03:07:19;100;0;305.86;17;-19.72;-5.07;126.9;10.50;69703;5122.842;-12841.823;354;-300;-305.0;73;72.9;-20;-19.9;28.8;0.0;
16/06/2019 03:07:39;100;0;305.15;17;-19.52;-5.82;129.3;10.50;69697;5122.842;-12841.823;354;-300;-306.9;73;72.9;-20;-20.3;28.8;0.0;
16/06/2019 03:07:59;100;0;305.33;17;-19.03;-5.74;131.8;10.40;69694;5122.842;-12841.823;354;-300;-305.0;73;72.9;-20;-20.3;28.8;0.0;
16/06/2019 03:08:19;100;0;305.46;17;-19.07;-5.89;134.2;10.40;69685;5122.842;-12841.823;354;-300;-305.0;73;72.9;-21;-21.2;28.8;0.0;
16/06/2019 03:08:39;100;0;308.25;17;-19.40;-6.78;136.7;10.40;69677;5122.842;-12841.823;354;-300;-305.0;73;72.9;-19;-18.5;28.8;0.0;
16/06/2019 03:08:59;100;0;307.71;17;-18.68;-5.04;139.0;10.40;69679;5122.842;-12841.823;354;-300;-305.0;73;72.9;-20;-19.9;28.8;0.0;
16/06/2019 03:09:19;100;0;305.12;17;-19.34;-6.01;141.0;10.30;69664;5122.842;-12841.823;354;-300;-305.0;73;72.7;-21;-21.2;28.8;0.0;
16/06/2019 03:09:39;100;0;305.96;17;-19.48;-6.52;143.3;10.30;69657;5122.842;-12841.823;354;-300;-305.0;73;72.7;-21;-21.2;28.8;0.0;
16/06/2019 03:09:59;100;0;307.01;17;-19.13;-6.55;145.6;10.30;69658;5122.842;-12841.823;354;-300;-306.9;73;72.7;-20;-19.9;28.8;0.0;
16/06/2019 03:10:19;100;0;306.08;17;-19.21;-5.45;147.7;10.30;69660;5122.842;-12841.823;354;-300;-305.0;73;72.9;-21;-21.2;28.8;0.0;
16/06/2019 03:10:39;100;0;307.53;17;-18.90;-6.73;149.8;10.20;69646;5122.842;-12841.823;354;-300;-305.0;73;72.9;-20;-19.4;28.8;0.0;
16/06/2019 03:10:59;100;0;308.48;17;-19.17;-5.33;152.0;10.20;69634;5122.842;-12841.823;354;-300;-305.0;73;72.7;-20;-19.0;28.8;0.0;
16/06/2019 03:11:19;100;0;309.57;17;-19.11;-5.30;154.1;10.20;69631;5122.842;-12841.823;354;-300;-306.9;73;72.9;-19;-19.0;28.8;0.0;
16/06/2019 03:11:39;100;0;308.13;17;-19.10;-5.24;156.2;10.10;69624;5122.842;-12841.823;354;-300;-305.0;73;72.9;-20;-19.9;28.8;0.0;
16/06/2019 03:11:59;100;0;310.27;17;-19.31;-6.25;158.2;10.10;69617;5122.842;-12841.823;354;-300;-306.9;73;72.7;-19;-19.0;28.8;0.0;
16/06/2019 03:12:19;100;0;311.99;17;-19.20;-4.99;160.2;10.10;69605;5122.842;-12841.823;354;-300;-305.0;73;72.9;-19;-18.1;28.8;0.0;
16/06/2019 03:12:39;100;0;314.11;17;-18.97;-5.02;162.1;10.10;69607;5122.842;-12841.823;354;-300;-305.0;73;72.9;-17;-16.7;28.8;0.0;
16/06/2019 03:12:59;100;0;313.23;17;-18.73;-4.08;164.0;10.00;69595;5122.842;-12841.823;354;-300;-305.0;73;72.9;-19;-19.4;28.8;0.0;
16/06/2019 03:13:19;100;0;315.65;17;-18.85;-5.70;166.1;10.00;69592;5122.842;-12841.823;354;-300;-305.0;73;72.9;-18;-17.6;28.8;0.0;
16/06/2019 03:13:39;100;0;314.14;17;-18.57;-4.69;168.0;10.00;69575;5122.842;-12841.823;354;-300;-305.0;73;72.9;-19;-19.0;28.8;0.0;
16/06/2019 03:13:59;100;0;316.80;17;-18.47;-5.70;170.0;9.90;69574;5122.842;-12841.823;354;-300;-305.0;73;72.9;-18;-17.6;28.8;0.0;
16/06/2019 03:14:19;100;0;315.33;17;-18.52;-4.54;171.9;9.90;69567;5122.842;-12841.823;354;-300;-306.9;73;72.9;-19;-19.0;28.8;0.0;
16/06/2019 03:14:39;100;0;315.26;17;-19.04;-5.74;173.9;9.90;69556;5122.842;-12841.823;354;-300;-306.9;73;72.7;-19;-19.4;28.8;0.0;
16/06/2019 03:14:59;100;0;317.09;17;-18.37;-5.73;175.8;9.90;69550;5122.842;-12841.823;354;-300;-305.0;73;72.9;-18;-17.6;28.8;44.5;
16/06/2019 03:15:19;100;0;315.25;17;-18.09;-4.47;178.0;9.80;69540;5122.842;-12841.823;354;-300;-305.0;73;72.9;-19;-19.4;28.8;42.3;
16/06/2019 03:15:39;100;0;316.54;17;-18.16;-5.74;180.0;9.80;69525;5122.842;-12841.823;354;-300;-306.9;73;72.7;-18;-17.6;28.8;40.2;
16/06/2019 03:15:59;100;0;315.41;17;-18.04;-4.52;182.0;9.80;69521;5122.842;-12841.823;354;-300;-305.0;73;72.9;-19;-19.0;28.8;38.1;
16/06/2019 03:16:19;100;0;315.16;17;-18.18;-5.50;184.0;9.70;69502;5122.842;-12841.823;354;-300;-306.9;73;72.7;-19;-19.4;28.8;36.1;
16/06/2019 03:16:39;100;0;314.92;17;-18.16;-5.55;186.1;9.70;69506;5122.842;-12841.823;354;-300;-305.0;73;72.9;-19;-19.0;28.8;34.0;
16/06/2019 03:16:59;100;0;314.84;17;-18.22;-5.50;188.2;9.70;69494;5122.842;-12841.823;354;-300;-305.0;73;72.9;-19;-19.4;28.8;31.9;
16/06/2019 03:17:19;100;0;314.83;17;-18.11;-5.54;190.3;9.60;69500;5122.842;-12841.823;354;-300;-305.0;73;72.9;-19;-19.0;28.8;29.7;
16/06/2019 03:17:39;100;0;314.88;17;-18.09;-5.55;192.3;9.60;69485;5122.842;-12841.823;354;-300;-306.9;73;72.9;-19;-19.0;28.8;27.5;
16/06/2019 03:17:59;100;0;314.04;17;-18.08;-5.54;194.5;9.60;69484;5122.842;-12841.823;354;-300;-306.9;73;72.7;-19;-19.0;28.8;25.3;
16/06/2019 03:18:19;100;0;313.17;17;-18.27;-5.52;196.6;9.60;69478;5122.842;-12841.823;354;-300;-306.9;73;72.7;-19;-19.0;28.8;23.2;
16/06/2019 03:18:39;100;0;311.71;17;-17.88;-5.40;198.6;9.50;69481;5122.842;-12841.823;354;-300;-305.0;73;72.9;-20;-19.9;28.8;21.1;
16/06/2019 03:18:59;100;0;308.67;17;-17.31;-5.89;200.5;9.50;69479;5122.842;-12841.823;354;-300;-305.0;73;72.7;-22;-22.1;28.8;19.1;
16/06/2019 03:19:19;118;0;313.82;17;-18.12;-7.33;202.6;9.50;69471;5122.842;-12841.823;354;150;-293.1;57;56.8;0;0.9;28.8;16.8;
16/06/2019 03:19:29;118;0;9.25;17;1.85;4.09;203.6;9.50;69394;5122.842;-12841.823;354;150;-134.7;57;57.1;0;0.9;28.2;16.8;
16/06/2019 03:19:39;118;0;5.59;17;20.12;3.80;203.4;9.50;69179;5122.842;-12841.823;354;150;17.8;57;57.1;0;0.9;28.2;-1.0;
16/06/2019 03:19:49;118;0;3.15;17;23.60;3.43;202.6;9.50;68922;5122.842;-12841.823;354;150;154.5;57;57.1;0;0.9;28.2;-1.0;
16/06/2019 03:19:59;118;0;290.00;17;24.60;4.38;201.4;9.50;68718;5122.842;-12841.823;354;150;154.5;57;57.2;0;0.9;28.8;-1.0;
16/06/2019 03:20:09;118;0;291.05;17;26.68;3.91;199.8;9.50;68730;5122.842;-12841.823;354;150;156.4;57;57.1;0;0.9;28.7;-1.0;
16/06/2019 03:20:19;117;0;291.01;17;27.85;3.65;198.0;9.40;68713;5122.842;-12841.823;354;150;156.4;57;57.1;0;0.9;28.8;-1.0;
16/06/2019 03:20:39;117;0;291.20;17;27.73;3.25;193.7;9.40;68725;5122.842;-12841.823;354;150;156.4;57;57.1;31;31.1;28.8;-1.0;
16/06/2019 03:20:59;117;0;302.68;17;26.92;19.05;188.9;9.40;68710;5122.842;-12841.823;354;150;156.4;57;57.1;21;21.2;28.8;-1.0;
16/06/2019 03:21:19;117;0;311.83;17;27.34;13.03;184.7;9.40;68710;5122.842;-12841.823;354;150;156.4;57;57.1;16;15.8;28.8;-1.0;
16/06/2019 03:21:39;117;0;316.87;17;27.62;10.28;180.4;9.40;68707;5122.842;-12841.823;354;150;156.4;57;57.1;15;14.9;28.8;-1.0;
16/06/2019 03:21:59;117;0;318.46;17;27.52;9.54;176.1;9.30;68717;5122.842;-12841.823;354;150;156.4;57;57.1;16;15.8;28.8;-1.0;
16/06/2019 03:22:19;117;0;326.85;17;27.64;10.92;171.9;9.30;68705;5122.842;-12841.823;354;150;154.5;57;57.2;12;12.2;28.8;-1.0;
16/06/2019 03:22:39;117;0;328.58;17;27.92;8.81;167.4;9.30;68720;5122.842;-12841.823;354;150;156.4;57;57.1;13;13.1;28.8;-1.0;
16/06/2019 03:22:59;117;0;331.97;17;27.64;9.76;163.1;9.30;68719;5122.842;-12841.823;354;150;156.4;57;57.1;13;14.0;28.8;-1.0;
16/06/2019 03:23:19;117;0;333.45;17;27.81;9.94;158.7;9.20;68725;5122.842;-12841.823;354;150;156.4;57;57.2;13;14.0;28.8;-1.0;
16/06/2019 03:23:39;117;0;342.33;17;27.21;9.86;154.3;9.20;68738;5122.842;-12841.823;354;150;156.4;57;57.1;13;14.0;28.8;-1.0;
16/06/2019 03:23:59;117;0;345.66;17;27.39;9.80;149.9;9.20;68736;5122.842;-12841.823;354;150;156.4;57;57.1;9;9.0;28.8;-1.0;
16/06/2019 03:24:19;117;0;350.84;17;27.13;7.20;145.5;9.20;68744;5122.842;-12841.823;354;150;156.4;57;57.1;7;7.2;28.8;-1.0;
16/06/2019 03:24:39;117;0;349.37;17;27.08;6.48;141.4;9.20;68755;5122.842;-12841.823;354;150;156.4;57;57.1;9;9.0;28.8;-1.0;
16/06/2019 03:24:59;117;0;351.27;17;26.73;7.63;137.2;9.20;68759;5122.842;-12841.823;354;150;156.4;57;57.1;8;7.7;28.8;-1.0;
16/06/2019 03:25:19;117;0;354.83;17;26.69;6.46;133.1;9.20;68770;5122.842;-12841.823;354;150;156.4;57;57.1;7;7.2;28.8;-1.0;
16/06/2019 03:25:39;117;0;355.74;17;26.73;6.48;129.0;9.20;68765;5122.842;-12841.823;354;150;156.4;57;57.1;6;5.4;28.8;-1.0;
16/06/2019 03:25:59;117;0;349.59;17;26.78;5.45;125.0;9.20;68760;5122.842;-12841.823;354;150;160.4;57;57.1;10;10.4;28.8;-1.0;
16/06/2019 03:26:19;117;0;351.79;17;26.51;8.25;121.0;9.20;68768;5122.842;-12841.823;354;150;156.4;57;57.1;7;7.2;28.8;-1.0;
16/06/2019 03:26:39;117;0;353.12;17;26.46;6.34;116.8;9.10;68770;5122.842;-12841.823;354;150;156.4;57;57.1;6;5.4;28.8;-1.0;
16/06/2019 03:26:59;117;0;351.15;17;26.03;5.75;112.6;9.20;68783;5122.842;-12841.823;354;150;156.4;57;57.1;7;7.2;28.8;-1.0;
16/06/2019 03:27:20;117;0;352.09;17;25.22;6.88;108.8;9.10;68786;5122.842;-12841.823;354;150;156.4;57;57.1;5;5.0;28.8;-1.0;
16/06/2019 03:27:40;117;0;357.01;17;24.74;5.00;105.0;9.10;68790;5122.842;-12841.823;354;150;158.4;57;57.1;2;1.8;28.8;-1.0;
16/06/2019 03:28:00;117;0;351.34;17;24.58;3.51;101.5;9.10;68800;5122.842;-12841.823;354;150;156.4;57;57.2;6;6.3;28.8;-1.0;
16/06/2019 03:28:20;117;0;347.23;17;23.87;6.29;97.9;9.10;68803;5122.842;-12841.823;354;150;160.4;57;57.1;7;7.2;28.8;-1.0;
16/06/2019 03:28:40;117;0;349.88;17;23.11;6.89;94.7;9.20;68823;5122.842;-12841.823;354;150;156.4;57;57.1;4;4.1;28.8;-1.0;
16/06/2019 03:29:00;117;0;345.92;17;23.63;4.68;91.5;9.10;68835;5122.842;-12841.823;354;150;156.4;57;57.2;6;6.3;28.8;-1.0;
16/06/2019 03:29:20;117;0;338.67;17;23.73;6.47;88.3;9.10;68833;5122.842;-12841.823;354;150;156.4;57;57.1;9;9.0;28.8;-1.0;
16/06/2019 03:29:40;117;0;328.30;17;22.67;7.62;85.0;9.20;68848;5122.842;-12841.823;354;150;158.4;57;57.1;9;9.5;28.8;-1.0;
16/06/2019 03:30:00;117;0;325.91;17;21.40;7.74;82.1;9.20;68872;5122.842;-12841.823;354;150;156.4;57;57.1;13;13.5;28.8;-1.0;
16/06/2019 03:30:20;117;0;323.60;17;20.80;9.97;79.2;9.20;68872;5122.842;-12841.823;354;150;156.4;57;57.1;13;14.0;28.8;-1.0;
16/06/2019 03:30:40;117;0;325.15;17;20.53;9.96;76.7;9.20;68877;5122.842;-12841.823;354;150;158.4;57;57.1;11;10.8;28.8;-1.0;
16/06/2019 03:31:00;117;0;331.70;17;19.74;8.07;74.3;9.20;68889;5122.842;-12841.823;354;150;156.4;57;57.1;7;6.8;28.8;-1.0;
16/06/2019 03:31:20;117;0;336.43;17;19.73;6.32;71.9;9.20;68896;5122.842;-12841.823;354;150;158.4;57;57.1;7;6.8;28.7;-1.0;
16/06/2019 03:31:40;117;0;342.95;17;19.20;6.14;69.6;9.20;68898;5122.842;-12841.823;354;150;158.4;57;57.1;3;2.7;28.8;-1.0;
16/06/2019 03:32:00;117;0;345.73;17;19.42;4.18;67.2;9.20;68928;5122.842;-12841.823;354;150;156.4;57;57.1;3;2.3;28.8;-1.0;
16/06/2019 03:32:20;117;0;348.06;17;19.41;4.06;64.8;9.20;68935;5122.842;-12841.823;354;150;158.4;57;57.1;2;1.8;28.8;-1.0;
16/06/2019 03:32:40;117;0;349.11;17;19.38;3.52;62.3;9.30;68946;5122.842;-12841.823;354;150;156.4;57;57.1;2;1.4;28.8;-1.0;
16/06/2019 03:33:00;117;0;354.25;17;19.12;3.51;60.0;9.30;68946;5122.842;-12841.823;354;150;156.4;57;57.1;0;0.0;28.8;-1.0;
16/06/2019 03:33:20;117;0;354.74;17;19.01;2.78;57.6;9.30;68972;5122.842;-12841.823;354;150;156.4;57;57.1;1;0.9;28.8;-1.0;
16/06/2019 03:33:40;117;0;350.97;17;19.11;4.02;55.4;9.30;68978;5122.842;-12841.823;354;150;156.4;57;57.1;3;3.6;28.8;-1.0;
16/06/2019 03:34:00;117;0;344.61;17;18.89;5.15;53.2;9.30;68996;5122.842;-12841.823;354;150;156.4;57;57.1;6;5.9;28.8;-1.0;
16/06/2019 03:34:20;117;0;342.92;17;18.68;6.42;51.1;9.40;69015;5122.842;-12841.823;354;150;156.4;57;57.1;5;5.0;28.8;-1.0;
16/06/2019 03:34:40;117;0;348.32;17;18.00;5.45;48.9;9.40;69019;5122.842;-12841.823;354;150;156.4;57;57.2;0;0.0;28.8;-1.0;
16/06/2019 03:35:00;117;0;351.18;17;18.21;2.87;46.9;9.40;69039;5122.842;-12841.823;354;150;156.4;57;57.1;0;-0.5;28.7;-1.0;
16/06/2019 03:35:20;117;0;354.95;17;18.38;2.77;44.8;9.40;69043;5122.842;-12841.823;354;150;156.4;57;57.1;-2;-2.3;28.8;-1.0;
16/06/2019 03:35:40;117;0;353.14;17;18.03;1.85;42.7;9.40;69059;5122.842;-12841.823;354;150;156.4;57;57.1;-1;-0.9;28.8;-1.0;
16/06/2019 03:36:00;117;0;351.13;17;17.64;3.00;40.8;9.50;69078;5122.842;-12841.823;354;150;158.4;57;57.1;0;0.0;28.7;-1.0;
16/06/2019 03:36:20;117;0;348.18;17;17.43;3.06;38.9;9.50;69103;5122.842;-12841.823;354;150;156.4;57;57.2;0;0.0;28.8;-1.0;
16/06/2019 03:36:40;117;0;342.27;17;17.75;2.98;37.0;9.50;69122;5122.842;-12841.823;354;150;158.4;57;57.2;3;3.2;28.8;-1.0;
16/06/2019 03:37:00;117;0;338.71;17;17.84;5.07;35.0;9.60;69137;5122.842;-12841.823;354;150;156.4;57;57.1;4;4.1;28.8;-1.0;
16/06/2019 03:37:20;117;0;336.78;17;17.32;5.09;33.0;9.60;69156;5122.842;-12841.823;354;150;156.4;57;57.1;4;4.1;28.7;-1.0;
16/06/2019 03:37:40;117;0;336.13;17;17.34;5.14;31.1;9.60;69171;5122.842;-12841.823;354;150;156.4;57;57.1;4;4.1;28.8;-1.0;
16/06/2019 03:38:00;117;0;337.36;17;17.09;5.11;29.2;9.70;69183;5122.842;-12841.823;354;150;156.4;57;57.1;4;4.1;28.8;-1.0;
16/06/2019 03:38:20;117;0;337.27;17;16.68;5.11;27.4;9.70;69203;5122.842;-12841.823;354;150;156.4;57;57.2;4;4.1;28.8;-1.0;
16/06/2019 03:38:40;117;0;348.17;17;16.10;5.20;25.5;9.70;69218;5122.842;-12841.823;354;150;156.4;57;57.1;-5;-5.0;28.8;-1.0;
16/06/2019 03:39:00;117;0;351.23;17;16.34;0.79;23.9;9.80;69235;5122.842;-12841.823;354;150;158.4;57;57.1;-5;-5.4;28.8;-1.0;
16/06/2019 03:39:20;117;0;344.63;17;16.11;0.60;22.2;9.80;69262;5122.842;-12841.823;354;150;156.4;57;57.1;0;0.0;28.8;-1.0;
16/06/2019 03:39:40;117;0;347.47;17;15.68;3.75;20.7;9.90;69280;5122.842;-12841.823;354;150;156.4;57;57.1;-2;-1.8;28.8;-1.0;
16/06/2019 03:40:00;117;0;346.11;17;15.80;2.41;19.1;9.90;69322;5122.842;-12841.823;354;150;156.4;57;57.2;-2;-2.3;28.8;-1.0;
16/06/2019 03:40:20;117;0;346.04;17;15.86;2.36;17.5;9.90;69342;5122.842;-12841.823;354;150;156.4;57;57.2;-2;-2.3;28.8;-1.0;
16/06/2019 03:40:40;117;0;343.05;17;15.78;2.35;16.0;10.00;69366;5122.842;-12841.823;354;150;160.4;57;57.1;-1;-0.5;28.8;-1.0;
16/06/2019 03:41:00;117;0;342.43;17;15.79;3.53;14.4;10.10;69380;5122.842;-12841.823;354;150;156.4;57;57.1;-1;0.5;28.8;-1.0;
16/06/2019 03:41:20;117;0;344.66;17;15.80;3.44;12.8;10.10;69396;5122.842;-12841.823;354;150;158.4;57;57.1;-3;-3.6;28.8;-1.0;
16/06/2019 03:41:40;117;0;341.32;17;15.80;1.60;11.1;10.10;69411;5122.842;-12841.823;354;150;156.4;57;57.2;-1;-0.5;28.8;-1.0;
