Timestamp;NavState;SecurityLevel;Heading;Declination;Pitch;Roll;Depth;Temperature;Pa;Lat;Lon;DesiredH;BallastCmd;BallastPos;LinCmd;LinPos;AngCmd;AngPos;Voltage;Altitude;
17/06/2019 00:09:34;117;0;28.46;17;15.93;2.45;9.8;10.20;69403;5127.011;-12834.371;55;150;158.4;57;57.1;-2;-2.3;28.6;-1.0;
17/06/2019 00:09:44;115;0;28.38;17;16.22;2.45;9.0;10.20;69407;5127.011;-12834.371;55;500;168.3;100;100.1;0;0.9;28.6;-1.0;
17/06/2019 00:09:54;115;0;47.99;17;-25.17;4.49;8.4;10.30;69334;5127.011;-12834.371;55;500;318.8;100;100.0;0;0.9;28.3;-1.0;
17/06/2019 00:10:04;115;0;33.20;17;-66.72;4.14;9.1;10.30;69127;5127.011;-12834.371;55;500;471.3;100;100.0;0;0.9;28.3;-1.0;
17/06/2019 00:10:14;115;0;25.58;17;-56.56;4.62;7.7;10.30;68892;5127.011;-12834.371;55;500;506.9;100;100.0;0;0.9;28.2;-1.0;
17/06/2019 00:10:24;115;0;4.29;17;-29.62;3.87;5.1;10.30;68860;5127.011;-12834.371;55;500;506.9;100;99.9;0;0.9;28.6;-1.0;
17/06/2019 00:10:34;116;0;270.26;17;-79.03;78.03;1.7;10.40;68870;5127.011;-12834.371;55;500;506.9;100;99.9;0;0.9;28.6;-1.0;
17/06/2019 00:10:54;116;0;214.61;17;-27.76;4.92;1.6;10.50;68913;5127.053;-12834.324;55;500;506.9;100;99.9;0;0.5;28.6;-1.0;
17/06/2019 00:11:14;116;0;208.99;17;-14.46;3.21;1.6;10.60;68936;5127.052;-12834.331;55;500;508.9;100;99.7;0;0.9;28.6;-1.0;
17/06/2019 00:11:34;116;0;196.90;17;-7.13;5.72;1.5;10.70;68962;5127.053;-12834.335;55;500;508.9;100;99.9;0;0.9;28.6;-1.0;
17/06/2019 00:11:54;116;0;208.67;17;-6.58;3.72;1.4;10.80;68997;5127.047;-12834.329;53;500;508.9;100;99.9;0;0.9;28.6;-1.0;
17/06/2019 00:12:14;116;0;203.78;17;-7.01;5.34;1.5;10.90;68995;5127.045;-12834.330;53;500;508.9;100;99.7;0;0.9;28.4;-1.0;
17/06/2019 00:12:34;116;0;211.76;17;-5.71;3.78;1.5;11.00;69023;5127.045;-12834.340;53;500;508.9;100;99.7;0;0.9;28.6;-1.0;
17/06/2019 00:12:54;116;0;201.94;17;-6.84;4.44;1.5;11.10;69025;5127.042;-12834.344;53;500;508.9;100;99.9;0;0.9;28.6;-1.0;
17/06/2019 00:13:14;116;0;204.11;17;-13.22;3.39;1.5;11.20;69034;5127.042;-12834.368;53;500;508.9;100;99.9;0;0.9;28.6;-1.0;
17/06/2019 00:13:38;116;0;193.56;17;-9.06;8.24;1.4;11.40;69056;5127.045;-12834.377;53;500;508.9;100;99.9;0;0.9;28.6;-1.0;
17/06/2019 00:13:58;116;0;205.02;17;-8.18;2.99;1.4;11.50;69070;5127.051;-12834.414;53;500;508.9;100;99.9;0;0.9;28.6;-1.0;
17/06/2019 00:14:18;116;0;197.00;17;-6.09;4.03;1.5;11.60;69075;5127.055;-12834.428;53;500;508.9;100;99.9;0;0.9;28.6;-1.0;
17/06/2019 00:14:38;116;0;196.61;17;-8.60;1.49;1.4;11.80;69074;5127.023;-12834.346;53;500;508.9;100;99.7;0;0.9;28.6;-1.0;
17/06/2019 00:14:58;116;0;199.81;17;-6.94;4.74;1.5;11.90;69091;5127.020;-12834.340;53;500;508.9;100;99.7;0;0.9;28.6;-1.0;
17/06/2019 00:15:18;116;0;212.54;17;-7.83;0.87;1.5;12.00;69103;5127.020;-12834.341;53;500;508.9;100;99.9;0;0.9;28.4;-1.0;
17/06/2019 00:15:38;116;0;216.70;17;-10.89;-0.20;1.5;12.10;69110;5127.020;-12834.341;53;500;510.9;100;99.7;0;0.9;28.6;-1.0;
17/06/2019 00:15:58;116;0;205.67;17;-7.99;4.77;1.5;12.20;69117;5127.000;-12834.363;53;500;508.9;100;99.7;0;0.9;28.6;-1.0;
17/06/2019 00:17:05;116;0;195.31;17;-13.91;4.22;1.5;12.80;69143;5127.000;-12834.362;53;500;508.9;100;99.7;0;0.9;28.6;-1.0;
17/06/2019 00:17:25;116;0;201.31;17;-11.48;-0.27;1.5;12.90;69143;5126.996;-12834.361;53;500;508.9;100;99.9;0;0.9;28.6;-1.0;
17/06/2019 00:17:46;116;0;208.18;17;-20.22;0.84;1.5;13.10;69165;5126.982;-12834.376;53;500;508.9;100;99.9;0;0.9;28.6;-1.0;
17/06/2019 00:19:00;116;0;203.84;17;-14.78;5.94;1.5;13.70;69179;5126.982;-12834.376;53;500;510.9;100;99.9;0;0.9;28.5;-1.0;
17/06/2019 00:19:20;116;0;199.43;17;-26.47;4.75;1.5;13.80;69196;5126.979;-12834.377;53;500;508.9;100;99.9;0;0.9;28.6;-1.0;
17/06/2019 00:19:40;116;0;202.41;17;-6.52;2.86;1.5;13.90;69184;5126.977;-12834.377;53;500;508.9;100;99.7;0;0.9;28.6;-1.0;
17/06/2019 00:20:00;116;0;196.69;17;-7.83;2.79;1.4;14.00;69189;5126.977;-12834.377;53;500;508.9;100;99.7;0;0.9;28.6;-1.0;
17/06/2019 00:25:37;116;0;216.87;17;-4.97;2.14;1.5;14.80;69249;5126.922;-12834.420;53;500;508.9;100;99.9;0;0.9;28.6;-1.0;
17/06/2019 00:25:57;116;0;194.48;17;-19.12;4.31;1.5;14.80;69251;5126.918;-12834.422;53;500;508.9;100;99.9;0;0.9;28.6;-1.0;
17/06/2019 00:26:17;116;0;198.02;17;-7.15;9.73;1.5;14.90;69257;5126.915;-12834.424;53;500;508.9;100;99.9;0;0.9;28.6;-1.0;
17/06/2019 00:26:37;116;0;208.31;17;-4.48;5.93;1.4;14.90;69261;5126.913;-12834.425;53;500;508.9;100;99.9;0;0.9;28.6;-1.0;
17/06/2019 00:26:57;116;0;191.68;17;-9.65;2.11;1.5;14.90;69256;5126.911;-12834.426;53;500;510.9;100;99.9;0;0.9;28.6;-1.0;
17/06/2019 00:27:17;116;0;201.34;17;-6.38;3.40;1.4;15.00;69268;5126.908;-12834.428;53;500;508.9;100;99.9;0;0.9;28.6;-1.0;
17/06/2019 00:27:37;116;0;202.48;17;-8.42;3.98;1.4;15.00;69263;5126.904;-12834.430;53;500;510.9;100;99.9;0;0.9;28.6;-1.0;
17/06/2019 00:27:57;116;0;190.42;17;-9.62;2.57;1.5;15.00;69264;5126.901;-12834.432;53;500;510.9;100;99.9;0;0.9;28.6;-1.0;
17/06/2019 00:28:17;116;0;187.57;17;-7.51;-0.19;1.5;15.00;69271;5126.898;-12834.434;53;500;508.9;100;99.7;0;0.9;28.6;-1.0;
17/06/2019 00:28:37;116;0;194.41;17;-4.95;3.71;1.5;15.10;69270;5126.889;-12834.438;53;500;508.9;100;99.9;0;0.9;28.6;-1.0;
17/06/2019 00:29:15;116;0;193.21;17;-6.62;1.72;1.5;15.10;69277;5126.887;-12834.437;53;500;508.9;100;99.9;0;0.9;28.6;-1.0;
17/06/2019 00:29:35;116;0;202.31;17;-5.70;4.13;1.4;15.10;69282;5126.885;-12834.437;53;500;508.9;100;99.9;0;0.9;28.6;-1.0;
17/06/2019 00:29:55;116;0;211.20;17;-9.80;2.42;1.5;15.10;69286;5126.882;-12834.438;53;500;508.9;100;99.9;0;0.9;28.6;-1.0;
