Timestamp;NavState;SecurityLevel;Heading;Declination;Pitch;Roll;Depth;Temperature;Pa;Lat;Lon;DesiredH;BallastCmd;BallastPos;LinCmd;LinPos;AngCmd;AngPos;Voltage;Altitude;
16/06/2019 12:08:08;117;0;23.43;17;15.61;3.14;9.0;10.50;69494;5125.053;-12837.848;50;150;158.4;57;57.2;-2;-1.8;28.7;-1.0;
16/06/2019 12:08:18;115;0;25.27;17;15.13;2.41;8.3;10.50;69504;5125.053;-12837.848;50;500;166.3;100;100.1;0;0.5;28.7;-1.0;
16/06/2019 12:08:28;115;0;44.87;17;-25.35;4.68;7.7;10.50;69415;5125.053;-12837.848;50;500;320.8;100;100.0;0;0.5;28.4;-1.0;
16/06/2019 12:08:38;115;0;26.29;17;-66.58;5.67;8.5;10.60;69224;5125.053;-12837.848;50;500;469.3;100;99.9;0;0.5;28.4;-1.0;
16/06/2019 12:08:48;115;0;10.86;17;-57.13;4.98;7.4;10.60;68983;5125.053;-12837.848;50;500;506.9;100;100.0;0;0.5;28.4;-1.0;
16/06/2019 12:08:58;115;0;328.74;17;-34.61;6.10;4.6;10.60;68940;5125.053;-12837.848;50;500;506.9;100;99.9;0;0.5;28.7;-1.0;
16/06/2019 12:09:08;116;0;278.52;17;-73.34;20.74;1.5;10.70;68949;5125.053;-12837.848;50;500;505.0;100;100.0;0;0.5;28.7;-1.0;
16/06/2019 12:09:28;116;0;240.90;17;-19.61;4.70;1.4;10.70;68973;5125.053;-12837.848;50;500;506.9;100;99.9;0;0.5;28.7;-1.0;
16/06/2019 12:09:49;116;0;218.71;17;-6.27;4.51;1.3;10.80;68978;5125.126;-12838.290;50;500;508.9;100;99.9;0;0.5;28.7;-1.0;
16/06/2019 12:10:09;116;0;208.70;17;-8.18;3.08;1.4;10.90;68984;5125.124;-12838.292;50;500;508.9;100;99.7;0;0.5;28.7;-1.0;
16/06/2019 12:10:29;116;0;204.15;17;-7.88;3.04;1.3;11.00;68995;5125.120;-12838.294;52;500;508.9;100;99.7;0;0.5;28.7;-1.0;
16/06/2019 12:10:49;116;0;198.69;17;-11.54;1.92;1.4;11.10;69002;5125.104;-12838.306;52;500;508.9;100;99.9;0;0.5;28.7;-1.0;
16/06/2019 12:11:51;116;0;189.80;17;-9.17;2.61;1.4;11.50;69038;5125.102;-12838.306;52;500;508.9;100;99.9;0;0.5;28.7;-1.0;
16/06/2019 12:12:11;116;0;194.94;17;-8.67;2.65;1.4;11.70;69043;5125.098;-12838.312;52;500;508.9;100;99.9;0;0.5;28.6;-1.0;
16/06/2019 12:12:31;116;0;189.41;17;-7.81;6.01;1.4;11.90;69047;5125.024;-12838.368;52;500;508.9;100;99.7;0;0.5;28.7;-1.0;
16/06/2019 12:18:07;116;0;204.46;17;-5.45;1.61;1.3;13.30;69120;5125.023;-12838.368;52;500;508.9;100;99.9;0;0.5;28.7;-1.0;
16/06/2019 12:18:27;116;0;202.59;17;-6.55;4.06;1.4;13.30;69131;5125.020;-12838.372;52;500;508.9;100;99.9;0;0.5;28.7;-1.0;
16/06/2019 12:18:47;116;0;205.03;17;-7.20;3.94;1.4;13.40;69136;5125.015;-12838.375;52;500;508.9;100;99.7;0;0.5;28.7;-1.0;
16/06/2019 12:19:07;116;0;211.30;17;-9.60;3.86;1.4;13.40;69141;5125.011;-12838.378;52;500;508.9;100;99.9;0;0.5;28.7;-1.0;
16/06/2019 12:19:27;116;0;210.46;17;-7.03;1.02;1.3;13.50;69140;5125.006;-12838.382;52;500;510.9;100;99.9;0;0.5;28.7;-1.0;
16/06/2019 12:19:47;116;0;212.15;17;-9.04;5.79;1.4;13.60;69153;5125.003;-12838.385;52;500;508.9;100;99.7;0;0.5;28.7;-1.0;
16/06/2019 12:20:07;116;0;210.27;17;-7.04;-0.67;1.3;13.60;69152;5125.000;-12838.389;52;500;508.9;100;99.9;0;0.5;28.7;-1.0;
16/06/2019 12:20:27;116;0;200.64;17;-18.78;3.93;1.4;13.70;69160;5124.996;-12838.393;52;500;508.9;100;99.9;0;0.5;28.7;-1.0;
16/06/2019 12:20:47;116;0;199.68;17;-12.31;4.17;1.4;13.70;69157;5124.990;-12838.398;52;500;508.9;100;99.9;0;0.5;28.7;-1.0;
16/06/2019 12:21:07;116;0;202.70;17;-7.38;1.26;1.4;13.80;69158;5124.979;-12838.408;52;500;508.9;100;99.7;0;0.5;28.7;-1.0;
16/06/2019 12:21:47;116;0;197.11;17;-12.88;2.85;1.5;13.80;69174;5124.978;-12838.408;52;500;508.9;100;99.9;0;0.5;28.7;-1.0;
16/06/2019 12:22:07;116;0;199.61;17;-7.66;2.97;1.4;13.90;69173;5124.975;-12838.412;52;500;510.9;100;99.9;0;0.5;28.7;-1.0;
16/06/2019 12:22:27;116;0;199.39;17;-8.53;2.11;1.4;13.90;69193;5124.971;-12838.415;52;500;508.9;100;99.7;0;0.5;28.7;-1.0;
16/06/2019 12:22:47;116;0;200.60;17;-27.14;4.21;1.4;14.00;69171;5124.971;-12838.415;52;500;508.9;100;99.9;0;0.5;28.7;-1.0;
16/06/2019 12:23:07;110;0;207.53;17;-17.18;4.79;1.4;14.00;69173;5124.971;-12838.415;52;-300;407.9;100;99.9;0;0.5;28.7;-1.0;
16/06/2019 12:23:17;110;0;192.90;17;-8.08;1.88;1.3;14.10;69424;5124.971;-12838.415;52;-300;265.3;100;99.9;0;0.5;28.6;-1.0;
16/06/2019 12:23:27;110;0;190.25;17;-19.85;2.95;1.5;14.10;69601;5124.971;-12838.415;52;-300;108.9;100;99.9;0;0.5;28.6;-1.0;
16/06/2019 12:23:37;110;0;193.65;17;-44.71;7.16;2.1;14.10;69857;5124.971;-12838.415;52;-300;-67.3;100;100.0;0;0.5;28.6;-1.0;
16/06/2019 12:23:47;110;0;202.47;17;-63.86;2.57;3.1;14.10;70146;5124.971;-12838.415;52;-300;-269.3;94;93.9;0;0.9;28.6;-1.0;
16/06/2019 12:23:57;110;0;203.07;17;-56.46;3.78;4.6;14.10;70503;5124.971;-12838.415;52;-300;-303.0;75;75.0;0;0.5;28.6;-1.0;
16/06/2019 12:24:07;110;0;224.09;17;-43.02;4.47;7.3;14.10;70519;5124.971;-12838.415;52;-300;-301.0;73;73.0;0;0.5;28.7;-1.0;
16/06/2019 12:24:17;100;0;222.41;17;-34.21;4.15;10.3;14.10;70516;5124.971;-12838.415;52;-300;-301.0;73;72.9;0;0.9;28.7;-1.0;
16/06/2019 12:24:37;100;0;207.64;17;-27.34;3.97;15.4;14.10;70501;5124.971;-12838.415;52;-300;-299.0;73;73.0;45;45.1;28.7;0.0;
16/06/2019 12:24:57;100;0;189.87;17;-22.82;25.44;20.2;14.10;70484;5124.971;-12838.415;52;-300;-299.0;73;73.0;45;45.6;28.7;0.0;
16/06/2019 12:25:17;100;0;172.93;17;-22.92;25.02;23.9;14.00;70461;5124.971;-12838.415;52;-300;-297.0;73;73.0;45;45.6;28.7;0.0;
16/06/2019 12:25:37;100;0;161.19;17;-24.17;25.04;27.7;14.00;70446;5124.971;-12838.415;52;-300;-297.0;73;73.0;39;38.8;28.7;0.0;
16/06/2019 12:25:57;100;0;149.93;17;-23.76;21.24;31.4;14.00;70418;5124.971;-12838.415;52;-300;-297.0;73;73.0;33;32.9;28.7;0.0;
16/06/2019 12:26:17;100;0;134.76;17;-23.22;18.57;34.9;13.90;70380;5124.971;-12838.415;52;-300;-297.0;73;73.0;26;25.7;28.7;0.0;
16/06/2019 12:26:37;100;0;117.08;17;-23.90;14.75;38.1;13.90;70318;5124.971;-12838.415;52;-300;-297.0;73;73.0;21;21.2;28.7;0.0;
16/06/2019 12:26:57;100;0;106.74;17;-23.90;12.67;41.4;13.80;70272;5124.971;-12838.415;52;-300;-297.0;73;72.9;19;18.5;28.7;0.0;
16/06/2019 12:27:17;100;0;96.66;17;-23.75;11.37;44.7;13.70;70248;5124.971;-12838.415;52;-300;-297.0;73;73.0;18;18.1;28.7;0.0;
16/06/2019 12:27:37;100;0;82.18;17;-23.78;11.71;48.1;13.60;70216;5124.971;-12838.415;52;-300;-297.0;73;72.9;14;14.0;28.7;0.0;
16/06/2019 12:27:57;100;0;67.61;17;-24.45;9.53;51.3;13.60;70195;5124.971;-12838.415;52;-300;-297.0;73;73.0;11;10.4;28.7;0.0;
16/06/2019 12:28:17;100;0;60.45;17;-25.00;7.71;54.6;13.50;70180;5124.971;-12838.415;52;-300;-297.0;73;73.0;12;12.2;28.7;0.0;
16/06/2019 12:28:37;100;0;51.95;17;-23.83;8.97;58.1;13.40;70164;5124.971;-12838.415;52;-300;-297.0;73;72.9;10;9.5;28.7;0.0;
16/06/2019 12:28:57;100;0;41.73;17;-23.79;7.38;61.5;13.40;70143;5124.971;-12838.415;52;-300;-295.0;73;72.9;8;8.1;28.7;0.0;
16/06/2019 12:29:17;100;0;33.17;17;-23.78;6.61;64.8;13.30;70139;5124.971;-12838.415;52;-300;-297.0;73;73.0;8;7.7;28.7;0.0;
16/06/2019 12:29:37;100;0;25.83;17;-23.55;6.54;68.1;13.30;70099;5124.971;-12838.415;52;-300;-297.0;73;72.9;6;5.9;28.7;0.0;
16/06/2019 12:29:57;100;0;18.83;17;-23.65;5.42;71.3;13.20;70078;5124.971;-12838.415;52;-300;-295.0;73;72.9;5;5.0;28.7;0.0;
16/06/2019 12:30:17;100;0;12.63;17;-23.74;5.35;74.4;13.20;70060;5124.971;-12838.415;52;-300;-297.0;73;72.9;3;2.7;28.7;0.0;
16/06/2019 12:30:37;100;0;8.30;17;-23.69;4.26;77.5;13.10;70039;5124.971;-12838.415;52;-300;-295.0;73;72.9;3;2.3;28.7;0.0;
16/06/2019 12:30:57;100;0;359.46;17;-22.89;4.33;80.8;13.00;70012;5124.971;-12838.415;52;-300;-297.0;73;72.9;0;0.0;28.7;0.0;
16/06/2019 12:31:17;100;0;351.47;17;-23.25;2.99;83.8;13.00;69998;5124.971;-12838.415;52;-300;-295.0;73;72.9;-2;-1.8;28.7;0.0;
16/06/2019 12:31:37;100;0;342.01;17;-23.57;2.15;86.8;12.90;69984;5124.971;-12838.415;52;-300;-295.0;73;72.9;-7;-7.2;28.7;0.0;
16/06/2019 12:31:57;100;0;339.92;17;-23.42;-0.11;89.8;12.80;69969;5124.971;-12838.415;52;-300;-297.0;73;72.9;-7;-7.7;28.7;0.0;
16/06/2019 12:32:17;100;0;335.26;17;-22.96;-0.24;92.9;12.80;69950;5124.971;-12838.415;52;-300;-297.0;73;73.0;-10;-9.9;28.7;0.0;
16/06/2019 12:32:37;100;0;328.82;17;-23.23;-1.63;96.0;12.70;69942;5124.971;-12838.415;52;-300;-297.0;73;72.9;-15;-14.9;28.7;0.0;
16/06/2019 12:32:57;100;0;325.99;17;-22.92;-3.63;98.9;12.70;69926;5124.971;-12838.415;52;-300;-295.0;73;72.9;-17;-17.6;28.7;0.0;
16/06/2019 12:33:17;100;0;326.64;17;-22.68;-4.69;101.9;12.60;69909;5124.971;-12838.415;52;-300;-297.0;73;72.9;-18;-18.5;28.7;0.0;
16/06/2019 12:33:37;100;0;327.07;17;-22.63;-5.25;104.8;12.60;69897;5124.971;-12838.415;52;-300;-297.0;73;72.9;-19;-19.0;28.7;0.0;
16/06/2019 12:33:57;100;0;335.04;17;-22.60;-5.24;107.6;12.50;69896;5124.971;-12838.415;52;-300;-295.0;73;72.9;-17;-17.1;28.7;0.0;
16/06/2019 12:34:17;100;0;330.60;17;-22.28;-4.17;110.5;12.50;69882;5124.971;-12838.415;52;-300;-295.0;73;72.9;-24;-23.9;28.7;0.0;
16/06/2019 12:34:37;100;0;330.80;17;-21.50;-7.97;113.5;12.40;69872;5124.971;-12838.415;52;-300;-295.0;73;72.7;-26;-26.2;28.7;0.0;
16/06/2019 12:34:57;100;0;337.11;17;-21.55;-9.13;116.0;12.40;69851;5124.971;-12838.415;52;-300;-295.0;73;72.9;-23;-23.0;28.7;0.0;
16/06/2019 12:35:17;100;0;346.23;17;-21.28;-7.38;118.6;12.30;69839;5124.971;-12838.415;52;-300;-295.0;73;72.9;-19;-19.0;28.7;0.0;
16/06/2019 12:35:37;100;0;353.17;17;-20.45;-4.98;120.9;12.20;69825;5124.971;-12838.415;52;-300;-295.0;73;72.9;-18;-18.1;28.7;0.0;
16/06/2019 12:35:57;100;0;353.52;17;-20.70;-4.94;123.3;12.20;69817;5124.971;-12838.415;52;-300;-295.0;73;72.7;-20;-20.3;28.7;0.0;
16/06/2019 12:36:17;100;0;357.04;17;-20.60;-6.40;125.8;12.10;69807;5124.971;-12838.415;52;-300;-295.0;73;72.9;-19;-19.0;28.7;0.0;
16/06/2019 12:36:37;100;0;0.75;17;-20.27;-4.82;128.1;12.10;69790;5124.971;-12838.415;52;-300;-295.0;73;72.9;-19;-18.1;28.7;0.0;
16/06/2019 12:36:57;100;0;359.62;17;-19.66;-4.99;130.6;12.00;69770;5124.971;-12838.415;52;-300;-295.0;73;72.9;-21;-21.2;28.7;0.0;
16/06/2019 12:37:17;100;0;358.26;17;-19.74;-6.53;133.1;12.00;69755;5124.971;-12838.415;52;-300;-295.0;73;72.9;-22;-22.6;28.7;0.0;
16/06/2019 12:37:37;100;0;359.40;17;-19.47;-7.15;135.2;11.90;69750;5124.971;-12838.415;52;-300;-295.0;73;72.9;-21;-21.2;28.7;0.0;
16/06/2019 12:37:57;100;0;359.41;17;-19.65;-6.24;137.5;11.80;69733;5124.971;-12838.415;52;-300;-295.0;73;72.9;-21;-20.8;28.7;0.0;
16/06/2019 12:38:17;100;0;356.13;17;-19.89;-6.24;139.6;11.80;69725;5124.971;-12838.415;52;-300;-295.0;73;72.9;-23;-23.5;28.7;0.0;
16/06/2019 12:38:37;100;0;353.41;17;-20.02;-7.73;141.8;11.70;69711;5124.971;-12838.415;52;-300;-293.1;73;72.9;-24;-23.9;28.7;0.0;
16/06/2019 12:38:57;100;0;353.28;17;-19.46;-7.65;144.0;11.70;69698;5124.971;-12838.415;52;-300;-293.1;73;72.7;-24;-23.9;28.7;0.0;
16/06/2019 12:39:17;100;0;351.43;17;-19.07;-7.62;146.2;11.60;69693;5124.971;-12838.415;52;-300;-295.0;73;72.9;-24;-23.9;28.7;0.0;
16/06/2019 12:39:37;100;0;349.89;17;-19.20;-7.72;148.3;11.50;69679;5124.971;-12838.415;52;-300;-293.1;73;72.9;-25;-24.8;28.7;0.0;
16/06/2019 12:39:57;100;0;351.84;17;-19.39;-8.53;150.4;11.50;69660;5124.971;-12838.415;52;-300;-293.1;73;72.7;-23;-23.0;28.7;0.0;
16/06/2019 12:40:17;100;0;352.01;17;-18.75;-7.01;152.4;11.40;69650;5124.971;-12838.415;52;-300;-295.0;73;72.9;-22;-22.1;28.7;0.0;
16/06/2019 12:40:37;100;0;352.86;17;-19.05;-7.10;154.4;11.40;69633;5124.971;-12838.415;52;-300;-293.1;73;72.9;-23;-23.0;28.7;0.0;
16/06/2019 12:40:57;100;0;354.39;17;-19.21;-7.67;156.3;11.30;69632;5124.971;-12838.415;52;-300;-293.1;73;72.9;-22;-22.1;28.7;0.0;
16/06/2019 12:41:17;100;0;354.58;17;-19.22;-6.73;158.3;11.30;69614;5124.971;-12838.415;52;-300;-293.1;73;72.9;-22;-21.7;28.7;0.0;
16/06/2019 12:41:37;100;0;355.71;17;-18.90;-6.75;160.3;11.20;69608;5124.971;-12838.415;52;-300;-293.1;73;72.7;-22;-21.7;28.7;0.0;
16/06/2019 12:41:57;100;0;356.54;17;-19.08;-6.72;162.2;11.20;69598;5124.971;-12838.415;52;-300;-293.1;73;72.7;-21;-21.2;28.7;0.0;
16/06/2019 12:42:17;100;0;357.76;17;-19.07;-6.17;164.2;11.10;69588;5124.971;-12838.415;52;-300;-293.1;73;72.9;-21;-20.3;28.6;0.0;
16/06/2019 12:42:37;100;0;358.41;17;-19.27;-6.17;166.0;11.10;69576;5124.971;-12838.415;52;-300;-293.1;73;72.9;-21;-20.3;28.7;0.0;
16/06/2019 12:42:58;100;0;358.53;17;-19.48;-6.19;168.0;11.00;69572;5124.971;-12838.415;52;-300;-293.1;73;72.9;-21;-20.3;28.7;0.0;
16/06/2019 12:43:18;100;0;1.31;17;-19.42;-6.26;169.8;11.00;69568;5124.971;-12838.415;52;-300;-291.1;73;72.7;-20;-19.4;28.7;0.0;
16/06/2019 12:43:38;100;0;2.07;17;-19.32;-5.42;171.8;10.90;69553;5124.971;-12838.415;52;-300;-293.1;73;72.7;-20;-18.5;28.7;44.1;
16/06/2019 12:43:58;100;0;2.61;17;-19.08;-5.28;173.6;10.90;69548;5124.971;-12838.415;52;-300;-293.1;73;72.7;-20;-18.5;28.7;42.3;
16/06/2019 12:44:18;100;0;4.52;17;-17.52;-5.43;175.4;10.80;69550;5124.971;-12838.415;52;-300;-293.1;73;72.9;-19;-19.0;28.7;40.5;
16/06/2019 12:44:38;100;0;6.06;17;-19.32;-5.58;177.1;10.80;69543;5124.971;-12838.415;52;-300;-293.1;73;72.7;-19;-19.4;28.7;38.6;
16/06/2019 12:44:58;100;0;4.34;17;-18.69;-5.70;179.1;10.70;69540;5124.971;-12838.415;52;-300;-293.1;73;72.9;-21;-21.2;28.7;36.6;
16/06/2019 12:45:18;100;0;5.06;17;-18.31;-6.89;181.2;10.70;69540;5124.971;-12838.415;52;-300;-293.1;73;72.9;-20;-19.9;28.7;34.5;
16/06/2019 12:45:38;100;0;8.38;17;-19.23;-5.36;183.1;10.60;69522;5124.971;-12838.415;52;-300;-293.1;73;72.7;-18;-17.6;28.7;32.5;
16/06/2019 12:45:58;100;0;7.76;17;-18.52;-4.86;185.1;10.60;69521;5124.971;-12838.415;52;-300;-293.1;73;72.9;-20;-19.9;28.7;30.5;
16/06/2019 12:46:18;100;0;9.80;17;-19.26;-6.40;186.8;10.60;69521;5124.971;-12838.415;52;-300;-291.1;73;72.9;-19;-19.0;28.7;28.7;
16/06/2019 12:46:38;100;0;4.92;17;-17.78;-5.11;188.9;10.50;69517;5124.971;-12838.415;52;-300;-293.1;73;72.9;-22;-22.6;28.7;26.6;
16/06/2019 12:46:58;100;0;10.47;17;-18.57;-7.34;190.6;10.50;69521;5124.971;-12838.415;52;-300;-293.1;73;72.9;-18;-18.1;28.7;24.8;
16/06/2019 12:47:18;100;0;15.05;17;-18.43;-4.89;192.6;10.40;69512;5124.971;-12838.415;52;-300;-293.1;73;72.9;-16;-15.3;28.7;22.7;
16/06/2019 12:47:38;100;0;14.60;17;-20.00;-3.78;194.4;10.40;69513;5124.971;-12838.415;52;-300;-291.1;73;72.9;-18;-18.1;28.7;20.8;
16/06/2019 12:47:58;100;0;10.59;17;-18.81;-5.28;196.1;10.30;69500;5124.971;-12838.415;52;-300;-293.1;73;72.9;-20;-20.3;28.7;18.9;
16/06/2019 12:48:18;118;0;12.20;17;-18.28;-6.02;197.9;10.30;69502;5124.971;-12838.415;52;150;-279.2;57;56.8;0;0.5;28.7;17.1;
16/06/2019 12:48:28;118;0;43.53;17;1.80;3.98;198.6;10.30;69409;5124.971;-12838.415;52;150;-120.8;57;57.1;0;0.9;28.1;17.1;
16/06/2019 12:48:38;118;0;40.85;17;19.06;3.53;198.3;10.30;69207;5124.971;-12838.415;52;150;33.7;57;57.1;0;0.9;28.1;-1.0;
16/06/2019 12:48:48;118;0;39.58;17;24.66;3.87;197.4;10.30;68963;5124.971;-12838.415;52;150;156.4;57;57.1;0;0.9;28.1;-1.0;
16/06/2019 12:48:58;118;0;4.82;17;25.40;3.77;196.1;10.30;68774;5124.971;-12838.415;52;150;156.4;57;57.1;0;0.9;28.7;-1.0;
16/06/2019 12:49:08;118;0;5.30;17;27.47;3.84;194.3;10.20;68787;5124.971;-12838.415;52;150;158.4;57;57.2;0;0.5;28.7;-1.0;
16/06/2019 12:49:18;117;0;2.81;17;27.47;4.12;192.4;10.20;68777;5124.971;-12838.415;52;150;158.4;57;57.1;0;0.5;28.7;-1.0;
16/06/2019 12:49:38;117;0;359.88;17;28.46;3.85;188.3;10.20;68770;5124.971;-12838.415;52;150;158.4;57;57.1;26;26.2;28.7;-1.0;
16/06/2019 12:49:58;117;0;8.46;17;27.72;16.67;183.2;10.20;68762;5124.971;-12838.415;52;150;158.4;57;57.1;19;19.0;28.7;-1.0;
16/06/2019 12:50:18;117;0;14.55;17;27.59;12.17;178.7;10.10;68762;5124.971;-12838.415;52;150;156.4;57;57.1;16;15.8;28.7;-1.0;
16/06/2019 12:50:38;117;0;18.77;17;27.67;10.26;174.0;10.10;68757;5124.971;-12838.415;52;150;158.4;57;57.1;15;14.9;28.7;-1.0;
16/06/2019 12:50:58;117;0;21.14;17;28.21;10.68;169.4;10.10;68764;5124.971;-12838.415;52;150;156.4;57;57.1;15;15.3;28.7;-1.0;
16/06/2019 12:51:18;117;0;24.13;17;28.76;10.73;164.8;10.00;68752;5124.971;-12838.415;52;150;156.4;57;57.1;14;14.0;28.7;-1.0;
16/06/2019 12:51:38;117;0;29.25;17;28.40;9.72;160.1;10.00;68742;5124.971;-12838.415;52;150;156.4;57;57.1;12;12.2;28.7;-1.0;
16/06/2019 12:51:58;117;0;35.75;17;28.33;8.80;155.3;9.90;68731;5124.971;-12838.415;52;150;158.4;57;57.1;12;11.7;28.7;-1.0;
16/06/2019 12:52:18;117;0;42.02;17;27.88;8.78;150.7;9.90;68744;5124.971;-12838.415;52;150;156.4;57;57.1;8;8.1;28.7;-1.0;
16/06/2019 12:52:38;117;0;46.47;17;27.93;7.03;146.1;9.90;68750;5124.971;-12838.415;52;150;156.4;57;57.1;8;7.7;28.7;-1.0;
16/06/2019 12:52:58;117;0;47.10;17;26.99;6.53;141.7;9.80;68756;5124.971;-12838.415;52;150;158.4;57;57.1;9;9.0;28.7;-1.0;
16/06/2019 12:53:18;117;0;44.49;17;26.90;8.07;137.7;9.80;68762;5124.971;-12838.415;52;150;158.4;57;57.1;11;10.8;28.7;-1.0;
16/06/2019 12:53:38;117;0;50.28;17;26.25;8.43;133.6;9.80;68787;5124.971;-12838.415;52;150;156.4;57;57.1;7;7.2;28.7;-1.0;
16/06/2019 12:53:58;117;0;46.32;17;26.33;6.52;129.7;9.80;68787;5124.971;-12838.415;52;150;160.4;57;57.1;10;9.9;28.7;-1.0;
16/06/2019 12:54:18;117;0;42.36;17;26.44;8.41;125.8;9.80;68801;5124.971;-12838.415;52;150;156.4;57;57.1;12;12.6;28.7;-1.0;
16/06/2019 12:54:38;117;0;39.46;17;26.66;9.68;121.9;9.70;68800;5124.971;-12838.415;52;150;156.4;57;57.1;13;13.1;28.7;-1.0;
16/06/2019 12:54:58;117;0;44.02;17;26.89;10.22;117.4;9.70;68827;5124.971;-12838.415;52;150;158.4;57;56.9;8;7.7;28.7;-1.0;
16/06/2019 12:55:18;117;0;48.10;17;26.14;7.06;112.9;9.70;68835;5124.971;-12838.415;52;150;158.4;57;57.1;6;5.9;28.7;-1.0;
16/06/2019 12:55:38;117;0;51.75;17;23.56;5.64;108.7;9.70;68856;5124.971;-12838.415;52;150;158.4;57;57.1;5;5.0;28.7;-1.0;
16/06/2019 12:55:58;117;0;48.48;17;23.34;5.25;105.4;9.70;68856;5124.971;-12838.415;52;150;156.4;57;56.9;7;7.2;28.7;-1.0;
16/06/2019 12:56:18;117;0;57.87;17;23.12;7.14;101.9;9.70;68872;5124.971;-12838.415;52;150;158.4;57;57.1;1;0.9;28.7;-1.0;
16/06/2019 12:56:38;117;0;58.11;17;22.07;3.34;98.6;9.70;68875;5124.971;-12838.415;52;150;158.4;57;57.1;2;1.8;28.7;-1.0;
16/06/2019 12:56:58;117;0;60.92;17;21.78;4.44;95.8;9.70;68891;5124.971;-12838.415;52;150;156.4;57;57.1;1;0.9;28.7;-1.0;
16/06/2019 12:57:18;117;0;56.65;17;22.02;3.37;92.9;9.70;68897;5124.971;-12838.415;52;150;158.4;57;57.1;3;3.2;28.7;-1.0;
16/06/2019 12:57:38;117;0;58.63;17;21.65;5.01;90.1;9.70;68902;5124.971;-12838.415;52;150;158.4;57;57.1;1;0.9;28.7;-1.0;
16/06/2019 12:57:58;117;0;56.39;17;21.68;3.46;87.3;9.70;68902;5124.971;-12838.415;52;150;158.4;57;57.1;2;1.8;28.7;-1.0;
16/06/2019 12:58:18;117;0;60.97;17;20.76;4.57;84.5;9.70;68916;5124.971;-12838.415;52;150;158.4;57;57.1;0;0.0;28.7;-1.0;
16/06/2019 12:58:38;117;0;68.79;17;20.57;2.90;82.0;9.70;68916;5124.971;-12838.415;52;150;156.4;57;57.1;-5;-5.0;28.7;-1.0;
16/06/2019 12:58:58;117;0;70.95;17;20.55;0.55;79.5;9.70;68939;5124.971;-12838.415;52;150;158.4;57;57.1;-5;-5.4;28.7;-1.0;
16/06/2019 12:59:18;117;0;67.56;17;20.66;0.48;77.0;9.70;68943;5124.971;-12838.415;52;150;158.4;57;56.9;-2;-1.8;28.7;-1.0;
16/06/2019 12:59:38;117;0;65.23;17;20.94;2.54;74.4;9.70;68947;5124.971;-12838.415;52;150;158.4;57;57.1;-1;-0.9;28.7;-1.0;
16/06/2019 12:59:58;117;0;68.06;17;20.05;2.96;71.7;9.70;68961;5124.971;-12838.415;52;150;158.4;57;57.1;-4;-4.1;28.7;-1.0;
16/06/2019 13:00:18;117;0;64.35;17;19.88;1.15;69.2;9.80;68980;5124.971;-12838.415;52;150;158.4;57;57.1;-2;-1.8;28.7;-1.0;
16/06/2019 13:00:38;117;0;63.95;17;19.45;2.79;66.8;9.80;68986;5124.971;-12838.415;52;150;156.4;57;57.1;-3;-3.6;28.7;-1.0;
16/06/2019 13:00:58;117;0;65.94;17;19.26;1.39;64.4;9.80;69002;5124.971;-12838.415;52;150;156.4;57;57.1;-5;-5.0;28.7;-1.0;
16/06/2019 13:01:18;117;0;65.36;17;19.10;0.80;62.1;9.80;69020;5124.971;-12838.415;52;150;156.4;57;57.1;-5;-5.0;28.7;-1.0;
16/06/2019 13:01:38;117;0;63.44;17;19.04;0.86;59.9;9.80;69028;5124.971;-12838.415;52;150;156.4;57;57.1;-5;-5.0;28.7;-1.0;
16/06/2019 13:01:58;117;0;60.96;17;19.10;0.68;57.7;9.80;69035;5124.971;-12838.415;52;150;156.4;57;57.1;-4;-4.1;28.7;-1.0;
16/06/2019 13:02:18;117;0;60.40;17;18.73;1.65;55.6;9.80;69058;5124.971;-12838.415;52;150;158.4;57;57.1;-5;-5.0;28.7;-1.0;
16/06/2019 13:02:38;117;0;58.74;17;19.17;0.76;53.5;9.90;69071;5124.971;-12838.415;52;150;158.4;57;57.1;-5;-5.4;28.7;-1.0;
16/06/2019 13:02:58;117;0;55.80;17;18.89;0.83;51.5;9.90;69064;5124.971;-12838.415;52;150;158.4;57;57.1;-4;-4.1;28.7;-1.0;
16/06/2019 13:03:18;117;0;53.55;17;19.21;1.70;49.5;9.90;69079;5124.971;-12838.415;52;150;158.4;57;57.1;-5;-5.4;28.7;-1.0;
16/06/2019 13:03:38;117;0;51.98;17;18.82;0.58;47.3;9.90;69098;5124.971;-12838.415;52;150;158.4;57;57.1;-5;-5.9;28.7;-1.0;
16/06/2019 13:03:58;117;0;49.50;17;19.08;0.60;45.2;9.90;69089;5124.971;-12838.415;52;150;158.4;57;57.1;-5;-5.9;28.7;-1.0;
16/06/2019 13:04:18;117;0;44.28;17;18.50;0.57;43.1;9.90;69110;5124.971;-12838.415;52;150;158.4;57;57.1;-3;-2.7;28.7;-1.0;
16/06/2019 13:04:38;117;0;45.25;17;18.27;2.35;41.0;10.00;69120;5124.971;-12838.415;52;150;158.4;57;57.1;-6;-5.9;28.7;-1.0;
16/06/2019 13:04:58;117;0;45.48;17;18.34;0.35;39.0;10.00;69133;5124.971;-12838.415;52;150;158.4;57;57.1;-7;-7.2;28.7;-1.0;
16/06/2019 13:05:18;117;0;42.51;17;18.15;-0.57;37.0;10.00;69139;5124.971;-12838.415;52;150;158.4;57;57.1;-5;-5.0;28.7;-1.0;
16/06/2019 13:05:38;117;0;41.05;17;18.01;1.34;35.1;10.00;69155;5124.971;-12838.415;52;150;158.4;57;57.1;-6;-6.3;28.7;-1.0;
16/06/2019 13:05:58;117;0;33.76;17;17.38;0.25;33.2;10.00;69175;5124.971;-12838.415;52;150;158.4;57;57.1;-6;-6.8;28.7;-1.0;
16/06/2019 13:06:18;117;0;26.43;17;16.88;0.05;31.3;10.10;69189;5124.971;-12838.415;52;150;158.4;57;57.1;0;0.0;28.7;-1.0;
16/06/2019 13:06:38;117;0;23.48;17;16.44;3.72;29.8;10.10;69212;5124.971;-12838.415;52;150;158.4;57;57.1;0;0.9;28.7;-1.0;
16/06/2019 13:06:58;117;0;30.53;17;15.93;3.78;28.2;10.10;69251;5124.971;-12838.415;52;150;158.4;57;57.1;-5;-5.0;28.7;-1.0;
16/06/2019 13:07:18;117;0;32.88;17;16.15;0.94;26.8;10.20;69287;5124.971;-12838.415;52;150;158.4;57;57.1;-5;-5.0;28.7;-1.0;
16/06/2019 13:07:38;117;0;33.85;17;16.05;0.94;25.1;10.20;69312;5124.971;-12838.415;52;150;158.4;57;57.1;-5;-5.4;28.7;-1.0;
16/06/2019 13:07:58;117;0;34.94;17;16.06;0.94;23.4;10.30;69340;5124.971;-12838.415;52;150;158.4;57;57.1;-5;-5.4;28.7;-1.0;
16/06/2019 13:08:18;117;0;35.53;17;16.20;0.93;21.7;10.30;69341;5124.971;-12838.415;52;150;158.4;57;57.1;-5;-5.4;28.7;-1.0;
16/06/2019 13:08:38;117;0;36.36;17;16.14;0.98;20.1;10.30;69350;5124.971;-12838.415;52;150;158.4;57;57.1;-5;-5.4;28.7;-1.0;
16/06/2019 13:08:58;117;0;33.46;17;16.20;0.84;18.4;10.40;69388;5124.971;-12838.415;52;150;160.4;57;57.1;-5;-5.4;28.7;-1.0;
16/06/2019 13:09:18;117;0;29.45;17;16.03;0.88;16.7;10.40;69405;5124.971;-12838.415;52;150;158.4;57;57.1;-2;-1.8;28.7;-1.0;
16/06/2019 13:09:38;117;0;21.07;17;16.08;2.88;15.1;10.50;69425;5124.971;-12838.415;52;150;158.4;57;57.1;2;1.8;28.7;-1.0;
16/06/2019 13:09:58;117;0;18.19;17;15.83;4.67;13.3;10.50;69433;5124.971;-12838.415;52;150;158.4;57;57.1;2;2.7;28.7;-1.0;
16/06/2019 13:10:18;117;0;17.61;17;15.79;4.85;11.6;10.60;69460;5124.971;-12838.415;52;150;158.4;57;57.1;2;2.7;28.7;-1.0;
