Timestamp;NavState;SecurityLevel;Heading;Declination;Pitch;Roll;Depth;Temperature;Pa;Lat;Lon;DesiredH;BallastCmd;BallastPos;LinCmd;LinPos;AngCmd;AngPos;Voltage;Altitude;
14/06/2019 03:50:41;117;2048;226.34;17;64.09;1.27;7.6;11.50;69198;5138.149;-12820.536;207;400;405.9;20;19.8;0;0.5;29.2;-1.0;
14/06/2019 03:50:51;115;2048;223.95;17;67.67;4.28;2.3;11.60;69216;5138.149;-12820.536;207;500;419.8;100;61.7;0;0.9;29.2;-1.0;
14/06/2019 03:51:01;115;2048;193.19;17;16.74;1.94;1.6;11.60;69140;5138.149;-12820.536;207;500;505.0;100;100.3;0;0.9;28.9;-1.0;
14/06/2019 03:51:11;115;2048;233.47;17;-5.16;-2.93;1.1;11.60;69037;5138.149;-12820.536;207;500;505.0;100;100.3;0;0.9;29.3;-1.0;
14/06/2019 03:51:21;116;2048;260.67;17;-10.33;-6.45;1.1;11.60;69047;5138.149;-12820.536;207;500;505.0;100;100.0;0;0.9;29.2;-1.0;
14/06/2019 03:51:41;116;2048;260.47;17;-5.49;-4.37;1.1;11.70;69073;5138.149;-12820.536;207;500;505.0;100;99.9;0;0.9;29.2;-1.0;
14/06/2019 03:52:01;116;2048;289.39;17;-21.07;1.92;1.2;11.70;69078;5138.135;-12820.489;207;500;505.0;100;99.9;0;0.9;29.3;-1.0;
14/06/2019 03:52:21;116;2048;286.89;17;-8.00;5.15;1.1;11.80;69088;5138.135;-12820.488;207;500;505.0;100;99.7;0;0.9;29.2;-1.0;
14/06/2019 03:52:41;116;2048;293.12;17;-5.90;-0.24;1.1;11.80;69092;5138.135;-12820.489;207;500;505.0;100;99.9;0;0.9;29.2;-1.0;
14/06/2019 03:53:01;116;2048;282.30;17;-7.28;-1.04;1.1;11.90;69114;5138.084;-12820.495;207;500;505.0;100;99.7;0;0.9;29.2;-1.0;
14/06/2019 03:54:37;116;2048;284.21;17;-5.51;-0.06;1.1;12.60;69138;5138.078;-12820.498;207;500;505.0;100;99.9;0;0.9;29.2;-1.0;
14/06/2019 03:54:57;116;2048;298.39;17;-42.60;4.94;1.6;12.80;69145;5138.130;-12820.497;207;500;505.0;100;99.9;0;0.9;29.2;-1.0;
14/06/2019 03:55:17;116;2048;320.64;17;-4.32;4.58;1.1;12.90;69153;5138.130;-12820.497;207;500;505.0;100;99.9;0;0.9;29.2;-1.0;
14/06/2019 03:55:58;116;2048;284.67;17;-7.26;0.71;1.1;13.10;69164;5138.117;-12820.499;207;500;505.0;100;99.9;0;0.9;29.2;-1.0;
14/06/2019 03:56:18;116;2048;291.66;17;-24.75;3.97;1.3;13.30;69159;5138.061;-12820.521;207;500;506.9;100;99.9;0;0.9;29.2;-1.0;
14/06/2019 03:56:38;116;2048;283.48;17;-7.86;1.83;1.1;13.40;69167;5138.129;-12820.499;207;500;503.0;100;99.9;0;0.9;29.2;-1.0;
14/06/2019 03:57:23;116;2048;299.10;17;-11.04;1.18;1.1;13.70;69175;5138.129;-12820.499;207;500;505.0;100;99.9;0;0.9;29.3;-1.0;
14/06/2019 03:57:43;116;2048;291.51;17;-8.56;1.71;1.1;13.80;69181;5138.128;-12820.500;207;500;505.0;100;99.9;0;0.9;29.2;-1.0;
14/06/2019 03:58:03;116;2048;316.63;17;-11.05;4.74;1.1;13.80;69185;5138.127;-12820.499;207;500;505.0;100;99.7;0;0.9;29.3;-1.0;
14/06/2019 03:58:23;116;2048;291.81;17;-9.09;3.35;1.1;13.90;69190;5138.125;-12820.494;207;500;505.0;100;99.9;0;0.9;29.2;-1.0;
14/06/2019 03:58:43;116;2048;305.07;17;-14.19;7.95;1.1;14.00;69185;5138.131;-12820.495;207;500;505.0;100;99.9;0;0.9;29.2;-1.0;
14/06/2019 03:59:03;116;2048;307.52;17;-13.79;0.77;1.1;14.00;69197;5138.133;-12820.495;207;500;505.0;100;99.9;0;0.9;29.2;-1.0;
14/06/2019 03:59:23;116;2048;307.03;17;-9.08;11.81;1.1;14.10;69201;5138.136;-12820.496;207;500;505.0;100;99.9;0;0.9;29.2;-1.0;
14/06/2019 03:59:44;116;2048;254.24;17;-34.42;10.52;1.4;14.10;69201;5138.139;-12820.497;207;500;505.0;100;99.9;0;0.9;29.2;-1.0;
14/06/2019 04:00:04;116;2048;297.49;17;-9.73;0.28;1.1;14.20;69206;5138.141;-12820.494;207;500;505.0;100;99.9;0;0.9;29.2;-1.0;
14/06/2019 04:00:24;116;2048;275.86;17;-7.67;1.95;1.1;14.20;69209;5138.154;-12820.502;207;500;505.0;100;99.9;0;0.9;29.2;-1.0;
14/06/2019 04:00:44;116;2048;304.18;17;-13.54;2.47;1.1;14.30;69197;5138.154;-12820.502;207;500;505.0;100;99.9;0;0.9;29.2;-1.0;
14/06/2019 04:01:04;116;2048;303.49;17;-22.45;0.04;1.1;14.30;69196;5138.164;-12820.506;207;500;505.0;100;99.9;0;0.9;29.2;-1.0;
14/06/2019 04:01:24;116;2048;300.60;17;-5.06;5.94;1.1;14.40;69211;5138.166;-12820.504;207;500;505.0;100;99.9;0;0.9;29.2;-1.0;
14/06/2019 04:01:44;116;2048;296.31;17;-8.53;4.34;1.1;14.40;69213;5138.174;-12820.510;207;500;506.9;100;99.9;0;0.9;29.2;-1.0;
14/06/2019 04:02:42;116;2048;325.30;17;-11.94;5.14;1.1;14.60;69216;5138.174;-12820.510;207;500;505.0;100;99.9;0;0.9;29.2;-1.0;
14/06/2019 04:03:02;116;2048;288.39;17;-21.70;7.40;1.1;14.60;69220;5138.176;-12820.511;207;500;505.0;100;99.9;0;0.9;29.2;-1.0;
14/06/2019 04:03:22;116;2048;291.41;17;-4.37;1.45;1.1;14.60;69233;5138.176;-12820.511;207;500;505.0;100;99.9;0;0.9;29.2;-1.0;
14/06/2019 04:03:42;116;2048;296.74;17;-26.36;6.67;1.2;14.70;69227;5138.178;-12820.512;207;500;505.0;100;99.9;0;0.9;29.1;-1.0;
14/06/2019 04:04:02;116;2048;273.32;17;-6.59;2.22;1.1;14.70;69225;5138.179;-12820.510;207;500;505.0;100;99.9;0;0.9;29.3;-1.0;
14/06/2019 04:04:22;116;2048;272.00;17;-10.81;9.82;1.1;14.70;69220;5138.181;-12820.512;207;500;505.0;100;99.9;0;0.9;29.2;-1.0;
14/06/2019 04:04:42;116;2048;296.34;17;-21.94;-0.48;1.1;14.70;69233;5138.181;-12820.514;207;500;506.9;100;99.9;0;0.9;29.2;-1.0;
14/06/2019 04:05:02;116;2048;281.60;17;-8.05;3.42;1.0;14.80;69225;5138.186;-12820.514;207;500;503.0;100;99.9;0;0.9;29.2;-1.0;
14/06/2019 04:05:22;116;2048;290.35;17;-6.49;1.04;1.1;14.80;69222;5138.187;-12820.515;207;500;505.0;100;99.7;0;0.9;29.2;-1.0;
14/06/2019 04:05:42;116;2048;280.11;17;-5.42;7.84;1.1;14.80;69234;5138.193;-12820.516;207;500;505.0;100;99.9;0;0.9;29.2;-1.0;
14/06/2019 04:06:20;116;2048;272.54;17;-25.83;4.70;1.2;14.80;69245;5138.196;-12820.517;207;500;505.0;100;99.9;0;0.9;29.2;-1.0;
14/06/2019 04:06:41;116;2048;288.02;17;-26.81;2.93;1.2;14.90;69240;5138.195;-12820.515;207;500;505.0;100;99.9;0;0.9;29.2;-1.0;
14/06/2019 04:07:07;116;2048;276.62;17;-4.68;5.78;1.1;14.90;69241;5138.195;-12820.514;207;500;505.0;100;99.9;0;0.9;29.2;-1.0;
14/06/2019 04:07:27;116;2048;293.84;17;-10.79;-6.61;1.1;14.90;69242;5138.196;-12820.516;207;500;505.0;100;99.9;0;0.9;29.1;-1.0;
14/06/2019 04:07:47;116;2048;299.29;17;-6.53;3.93;1.0;15.00;69248;5138.202;-12820.521;207;500;505.0;100;99.9;0;0.9;29.2;-1.0;
14/06/2019 04:08:18;116;2048;289.03;17;-23.12;-0.35;1.2;15.00;69246;5138.202;-12820.521;207;500;505.0;100;99.9;0;0.9;29.2;-1.0;
14/06/2019 04:08:38;116;2048;297.23;17;-5.61;-0.24;1.1;15.00;69249;5138.201;-12820.523;207;500;505.0;100;99.9;0;0.9;29.2;-1.0;
14/06/2019 04:08:58;116;2048;281.78;17;-9.55;-2.00;1.1;15.10;69245;5138.202;-12820.523;207;500;505.0;100;99.7;0;0.9;29.2;-1.0;
14/06/2019 04:09:18;116;2048;279.15;17;-16.26;9.27;1.1;15.10;69248;5138.205;-12820.525;207;500;506.9;100;99.9;0;0.9;29.2;-1.0;
14/06/2019 04:09:50;116;2048;306.65;17;-13.94;8.98;1.1;15.10;69261;5138.205;-12820.525;207;500;503.0;100;99.9;0;0.9;29.2;-1.0;
14/06/2019 04:10:10;116;0;311.92;17;-12.42;2.88;1.1;15.20;69261;5138.209;-12820.527;207;500;503.0;100;99.9;0;0.9;29.2;-1.0;
14/06/2019 04:10:30;116;0;291.20;17;-7.30;0.93;1.1;15.20;69257;5138.212;-12820.526;207;500;505.0;100;99.9;0;0.9;29.2;-1.0;
14/06/2019 04:10:50;116;0;281.16;17;-7.47;2.91;1.1;15.20;69260;5138.212;-12820.526;207;500;503.0;100;99.9;0;0.9;29.2;-1.0;
14/06/2019 04:11:10;116;0;278.61;17;-14.44;5.08;1.2;15.30;69263;5138.214;-12820.528;207;500;505.0;100;99.9;0;0.9;29.2;-1.0;
14/06/2019 04:11:30;116;0;287.71;17;-9.23;4.16;1.1;15.30;69262;5138.214;-12820.530;207;500;505.0;100;99.9;0;0.9;29.2;-1.0;
14/06/2019 04:11:50;116;0;260.23;17;-26.58;-2.99;1.2;15.30;69258;5138.216;-12820.533;207;500;505.0;100;99.9;0;0.9;29.2;-1.0;
14/06/2019 04:12:10;110;0;283.79;17;-3.74;-6.64;1.1;15.40;69262;5138.216;-12820.533;207;-250;402.0;100;99.9;0;0.9;29.2;-1.0;
14/06/2019 04:12:20;110;0;301.56;17;-6.64;3.19;1.1;15.40;69502;5138.216;-12820.533;207;-250;263.4;100;99.9;0;0.9;29.2;-1.0;
14/06/2019 04:12:30;110;0;311.01;17;-14.07;4.96;1.1;15.40;69685;5138.216;-12820.533;207;-250;122.8;100;99.7;0;0.9;29.1;-1.0;
14/06/2019 04:12:40;110;0;324.57;17;-16.24;3.77;1.2;15.40;69915;5138.216;-12820.533;207;-250;-33.7;100;99.9;0;0.9;29.2;-1.0;
14/06/2019 04:12:50;110;0;322.86;17;-46.49;2.79;2.0;15.40;70177;5138.216;-12820.533;207;-250;-223.8;96;95.8;0;0.9;29.1;-1.0;
14/06/2019 04:13:00;110;0;326.60;17;-55.99;4.35;3.8;15.40;70487;5138.216;-12820.533;207;-250;-251.5;74;74.1;0;0.9;29.2;-1.0;
14/06/2019 04:13:10;110;0;312.32;17;-43.32;6.54;6.7;15.40;70506;5138.216;-12820.533;207;-250;-249.5;71;70.9;0;0.9;29.2;-1.0;
14/06/2019 04:13:20;100;0;302.10;17;-33.04;4.51;9.5;15.40;70507;5138.216;-12820.533;207;-250;-247.5;71;70.8;0;0.9;29.2;-1.0;
14/06/2019 04:13:40;100;0;295.12;17;-25.18;4.30;14.0;15.30;70500;5138.216;-12820.533;207;-250;-247.5;71;70.8;45;45.1;29.2;0.0;
14/06/2019 04:14:00;100;0;280.44;17;-18.63;25.40;18.4;15.30;70499;5138.216;-12820.533;207;-250;-245.5;71;70.9;32;32.0;29.2;0.0;
14/06/2019 04:14:20;100;0;265.23;17;-18.67;18.41;21.3;15.20;70468;5138.216;-12820.533;207;-250;-243.6;71;70.8;23;23.0;29.2;0.0;
14/06/2019 04:14:40;100;0;255.45;17;-19.94;13.87;24.1;15.20;70432;5138.216;-12820.533;207;-250;-243.6;71;70.8;21;21.2;29.2;0.0;
14/06/2019 04:15:00;100;0;248.36;17;-20.13;12.86;26.8;15.10;70393;5138.216;-12820.533;207;-250;-243.6;71;70.8;21;20.8;29.2;0.0;
14/06/2019 04:15:20;100;0;236.78;17;-20.12;12.94;29.5;15.00;70342;5138.216;-12820.533;207;-250;-243.6;71;70.8;17;17.1;29.3;0.0;
14/06/2019 04:15:40;100;0;231.05;17;-20.13;10.74;32.1;14.90;70319;5138.216;-12820.533;207;-250;-243.6;71;70.8;17;16.2;29.2;0.0;
14/06/2019 04:16:00;100;0;221.22;17;-19.18;10.79;34.8;14.80;70263;5138.216;-12820.533;207;-250;-241.6;71;70.8;14;14.0;29.2;0.0;
14/06/2019 04:16:20;100;0;214.35;17;-19.51;9.34;37.3;14.70;70237;5138.216;-12820.533;207;-250;-243.6;71;70.8;13;13.1;29.2;0.0;
14/06/2019 04:16:40;100;0;205.27;17;-19.65;8.79;39.7;14.70;70209;5138.216;-12820.533;207;-250;-243.6;71;70.8;11;10.8;29.2;0.0;
14/06/2019 04:17:00;100;0;192.72;17;-19.27;8.14;42.5;14.50;70177;5138.216;-12820.533;207;-250;-245.5;71;70.8;7;7.2;29.2;0.0;
14/06/2019 04:17:20;100;0;187.29;17;-19.68;6.32;44.9;14.50;70151;5138.216;-12820.533;207;-250;-243.6;71;70.8;7;6.8;29.2;0.0;
14/06/2019 04:17:40;100;0;177.62;17;-19.62;6.37;47.4;14.40;70129;5138.216;-12820.533;207;-250;-243.6;71;70.8;5;5.0;29.2;0.0;
14/06/2019 04:18:00;100;0;169.33;17;-19.39;5.30;49.8;14.30;70112;5138.216;-12820.533;207;-250;-243.6;71;70.8;3;3.2;29.2;0.0;
14/06/2019 04:18:20;118;0;163.02;17;-19.29;4.55;52.3;14.20;70099;5138.216;-12820.533;207;100;-227.7;54;53.7;0;-0.9;29.2;0.0;
14/06/2019 04:18:30;118;0;138.57;17;1.74;3.21;53.3;14.20;69997;5138.216;-12820.533;207;100;-69.3;54;54.1;0;-0.9;28.9;0.0;
14/06/2019 04:18:40;118;0;139.58;17;20.05;2.95;53.1;14.10;69796;5138.216;-12820.533;207;100;83.2;54;54.1;0;-0.9;28.9;-1.0;
14/06/2019 04:18:50;118;0;138.60;17;25.20;2.85;52.3;14.10;69531;5138.216;-12820.533;207;100;105.0;54;54.1;0;-0.9;28.9;-1.0;
14/06/2019 04:19:00;118;0;161.13;17;25.62;3.05;51.3;14.10;69510;5138.216;-12820.533;207;100;105.0;54;54.2;0;-0.9;29.2;-1.0;
14/06/2019 04:19:10;117;0;161.76;17;26.52;2.98;50.0;14.00;69505;5138.216;-12820.533;207;100;105.0;54;54.2;0;-0.9;29.2;-1.0;
14/06/2019 04:19:30;117;0;163.02;17;27.03;3.05;47.3;14.00;69497;5138.216;-12820.533;207;100;106.9;54;54.1;-2;-1.8;29.2;-1.0;
14/06/2019 04:19:50;117;0;160.27;17;26.75;2.34;44.1;13.90;69487;5138.216;-12820.533;207;100;105.0;54;54.1;-3;-3.2;29.2;-1.0;
14/06/2019 04:20:10;117;0;155.68;17;26.44;1.58;41.2;13.80;69488;5138.216;-12820.533;207;100;106.9;54;54.1;-1;-0.9;29.2;-1.0;
14/06/2019 04:20:30;117;0;151.08;17;25.80;3.41;38.5;13.70;69501;5138.216;-12820.533;207;100;106.9;54;54.1;0;0.0;29.2;-1.0;
14/06/2019 04:20:50;117;0;148.27;17;25.52;3.39;35.9;13.70;69498;5138.216;-12820.533;207;100;106.9;54;54.1;0;-0.5;29.2;-1.0;
14/06/2019 04:21:10;117;0;144.95;17;24.99;3.38;33.4;13.60;69507;5138.216;-12820.533;207;100;106.9;54;54.1;2;2.3;29.2;-1.0;
14/06/2019 04:21:30;117;0;148.82;17;24.80;4.72;31.0;13.60;69514;5138.216;-12820.533;207;100;106.9;54;54.1;0;-0.5;29.2;-1.0;
