Timestamp;NavState;SecurityLevel;Heading;Declination;Pitch;Roll;Depth;Temperature;Pa;Lat;Lon;DesiredH;BallastCmd;BallastPos;LinCmd;LinPos;AngCmd;AngPos;Voltage;Altitude;
13/06/2019 23:28:28;117;0;196.92;17;19.85;-2.89;9.9;11.00;69718;5138.446;-12819.459;209;50;57.4;55;55.1;-10;-9.5;29.3;-1.0;
13/06/2019 23:28:38;115;0;192.78;17;19.08;-0.65;9.5;11.00;69723;5138.446;-12819.459;209;500;69.3;100;100.0;0;0.9;29.3;-1.0;
13/06/2019 23:28:48;115;0;161.49;17;-28.05;4.05;9.1;11.10;69625;5138.446;-12819.459;209;500;219.8;100;100.0;0;1.4;29.0;-1.0;
13/06/2019 23:28:58;115;0;167.30;17;-68.17;-1.39;9.7;11.10;69412;5138.446;-12819.459;209;500;378.2;100;100.0;0;0.9;29.0;-1.0;
13/06/2019 23:29:08;115;0;185.20;17;-59.73;3.68;9.1;11.10;69160;5138.446;-12819.459;209;500;505.0;100;100.0;0;1.4;29.0;-1.0;
13/06/2019 23:29:18;115;0;315.21;17;-40.08;1.36;6.4;11.10;68947;5138.446;-12819.459;209;500;505.0;100;100.0;0;0.9;29.3;-1.0;
13/06/2019 23:29:28;115;0;357.21;17;-50.00;-2.41;3.9;11.10;68988;5138.446;-12819.459;209;500;505.0;100;100.0;0;1.4;29.3;-1.0;
13/06/2019 23:29:38;116;0;301.31;17;-28.81;10.95;1.3;11.10;69021;5138.446;-12819.459;209;500;506.9;100;99.9;0;0.9;29.3;-1.0;
13/06/2019 23:29:58;116;0;311.37;17;-10.07;3.64;1.1;11.20;69047;5138.446;-12819.459;209;500;506.9;100;99.9;0;0.9;29.3;-1.0;
13/06/2019 23:30:18;116;0;324.39;17;-9.00;9.01;1.1;11.30;69091;5138.446;-12819.459;209;500;508.9;100;99.9;0;0.9;29.3;-1.0;
13/06/2019 23:30:38;116;0;306.73;17;-7.50;-0.66;1.1;11.40;69107;5138.182;-12819.699;209;500;508.9;100;99.9;0;0.9;29.3;-1.0;
13/06/2019 23:30:58;116;0;294.78;17;-6.43;9.44;1.1;11.50;69116;5138.156;-12819.749;209;500;508.9;100;99.9;0;0.9;29.3;-1.0;
13/06/2019 23:35:42;116;0;319.02;17;-2.63;1.04;1.1;12.80;69243;5138.155;-12819.749;209;500;506.9;100;99.9;0;0.9;29.3;-1.0;
13/06/2019 23:36:02;116;0;308.76;17;-33.37;3.10;1.3;12.90;69248;5138.154;-12819.754;209;500;508.9;100;99.9;0;1.4;29.3;-1.0;
13/06/2019 23:36:22;116;0;274.69;17;-3.68;6.81;1.1;13.00;69251;5138.151;-12819.757;209;500;506.9;100;99.7;0;0.9;29.2;-1.0;
13/06/2019 23:36:42;116;0;308.86;17;-36.80;1.17;1.5;13.10;69238;5138.150;-12819.760;209;500;506.9;100;99.9;0;0.9;29.3;-1.0;
13/06/2019 23:37:02;116;0;313.28;17;-19.97;3.34;1.1;13.10;69252;5138.122;-12819.815;209;500;508.9;100;99.9;0;0.9;29.3;-1.0;
13/06/2019 23:42:38;116;0;312.99;17;-7.42;1.33;1.1;14.10;69304;5138.122;-12819.815;209;500;508.9;100;99.9;0;0.9;29.3;-1.0;
13/06/2019 23:42:58;116;0;291.41;17;-8.04;5.03;1.1;14.10;69311;5138.120;-12819.818;209;500;508.9;100;99.9;0;1.4;29.3;-1.0;
13/06/2019 23:43:18;116;0;298.29;17;-6.33;-3.52;1.1;14.10;69321;5138.116;-12819.823;209;500;506.9;100;99.9;0;1.4;29.3;-1.0;
13/06/2019 23:43:38;116;0;326.19;17;-9.04;2.47;1.1;14.20;69312;5138.115;-12819.825;209;500;508.9;100;99.9;0;0.9;29.3;-1.0;
13/06/2019 23:43:58;116;0;324.32;17;-4.14;4.16;1.1;14.20;69318;5138.115;-12819.827;209;500;508.9;100;99.7;0;0.9;29.3;-1.0;
13/06/2019 23:44:18;116;0;318.52;17;-17.16;4.03;1.1;14.30;69320;5138.114;-12819.832;209;500;506.9;100;99.9;0;1.4;29.3;-1.0;
13/06/2019 23:44:38;116;0;284.92;17;-11.22;7.18;1.1;14.30;69329;5138.112;-12819.838;209;500;506.9;100;99.9;0;1.4;29.3;-1.0;
13/06/2019 23:44:58;116;0;291.88;17;-32.69;6.74;1.3;14.30;69319;5138.110;-12819.841;209;500;508.9;100;99.9;0;0.9;29.3;-1.0;
13/06/2019 23:45:18;116;0;305.50;17;-13.09;6.88;1.1;14.40;69320;5138.107;-12819.842;209;500;508.9;100;99.9;0;0.9;29.3;-1.0;
13/06/2019 23:45:38;116;0;257.30;17;-17.34;-0.05;1.1;14.40;69330;5138.104;-12819.857;209;500;508.9;100;99.9;0;1.4;29.3;-1.0;
13/06/2019 23:46:16;116;0;286.01;17;-15.02;1.94;1.1;14.50;69330;5138.103;-12819.861;209;500;506.9;100;99.9;0;1.4;29.2;-1.0;
13/06/2019 23:46:36;116;0;303.15;17;-6.03;3.31;1.1;14.50;69323;5138.102;-12819.863;209;500;506.9;100;99.9;0;0.9;29.3;-1.0;
13/06/2019 23:46:56;116;0;260.79;17;-8.81;0.83;1.1;14.50;69326;5138.099;-12819.865;209;500;506.9;100;99.9;0;0.9;29.2;-1.0;
13/06/2019 23:47:16;116;0;305.48;17;-6.99;3.15;1.1;14.60;69336;5138.100;-12819.873;209;500;508.9;100;99.9;0;1.4;29.3;-1.0;
13/06/2019 23:47:45;116;0;316.19;17;-9.78;10.36;1.0;14.60;69332;5138.100;-12819.874;209;500;506.9;100;99.9;0;0.9;29.3;-1.0;
13/06/2019 23:48:05;116;0;321.86;17;-5.36;2.74;1.1;14.70;69324;5138.093;-12819.892;209;500;508.9;100;99.9;0;0.9;29.3;-1.0;
13/06/2019 23:49:10;116;0;324.31;17;-13.91;6.20;1.1;14.90;69340;5138.090;-12819.902;209;500;508.9;100;99.9;0;1.4;29.3;-1.0;
13/06/2019 23:50:16;116;0;311.05;17;-11.84;-3.04;1.1;15.10;69356;5138.089;-12819.903;209;500;506.9;100;99.9;0;1.4;29.3;-1.0;
13/06/2019 23:50:36;116;0;323.45;17;-12.55;5.03;1.2;15.20;69350;5138.088;-12819.908;209;500;508.9;100;99.9;0;1.4;29.3;-1.0;
13/06/2019 23:50:56;116;0;306.35;17;-22.85;4.86;1.2;15.30;69353;5138.073;-12819.986;209;500;508.9;100;99.9;0;1.4;29.3;-1.0;
13/06/2019 23:56:32;116;0;318.24;17;-28.87;6.21;1.2;15.30;69354;5138.073;-12819.986;209;500;506.9;100;99.9;0;0.9;29.3;-1.0;
13/06/2019 23:56:52;116;0;283.06;17;-27.80;6.76;1.3;15.30;69359;5138.072;-12819.990;209;500;506.9;100;99.9;0;0.9;29.3;-1.0;
13/06/2019 23:57:12;116;0;298.84;17;-12.10;4.55;1.1;15.30;69361;5138.071;-12819.993;209;500;506.9;100;99.9;0;1.4;29.3;-1.0;
13/06/2019 23:57:32;116;0;314.11;17;-8.70;7.60;1.2;15.30;69363;5138.069;-12819.998;209;500;508.9;100;99.9;0;0.9;29.3;-1.0;
13/06/2019 23:57:52;116;0;305.52;17;-20.16;0.63;1.1;15.30;69366;5138.068;-12820.002;209;500;508.9;100;99.9;0;0.9;29.3;-1.0;
13/06/2019 23:58:12;116;0;326.71;17;-12.65;1.37;1.1;15.30;69365;5138.068;-12820.003;209;500;508.9;100;99.9;0;0.9;29.3;-1.0;
13/06/2019 23:58:32;116;0;311.06;17;-9.95;1.04;1.2;15.30;69361;5138.067;-12820.007;209;500;506.9;100;99.7;0;0.9;29.3;-1.0;
13/06/2019 23:58:52;116;0;312.96;17;-5.52;3.18;1.1;15.30;69369;5138.068;-12820.012;209;500;506.9;100;99.9;0;0.9;29.3;-1.0;
13/06/2019 23:59:12;116;0;329.11;17;-35.11;6.99;1.6;15.30;69371;5138.067;-12820.016;209;500;506.9;100;99.9;0;1.4;29.3;-1.0;
13/06/2019 23:59:32;116;0;294.80;17;-18.58;0.96;1.2;15.30;69363;5138.064;-12820.023;209;500;506.9;100;99.9;0;0.9;29.3;-1.0;
14/06/2019 00:00:10;116;0;336.37;17;-7.59;5.72;1.1;15.30;69368;5138.064;-12820.025;209;500;506.9;100;99.7;0;0.9;29.3;-1.0;
14/06/2019 00:00:30;116;0;336.57;17;-17.28;2.82;1.2;15.30;69364;5138.064;-12820.027;209;500;506.9;100;99.9;0;0.9;29.3;-1.0;
14/06/2019 00:00:50;116;0;331.39;17;-11.21;10.17;1.0;15.40;69377;5138.063;-12820.033;209;500;508.9;100;99.9;0;0.9;29.3;-1.0;
14/06/2019 00:01:10;116;0;312.74;17;-6.45;2.42;1.0;15.40;69370;5138.063;-12820.034;209;500;508.9;100;99.9;0;0.9;29.3;-1.0;
14/06/2019 00:01:30;110;0;310.64;17;-34.56;4.51;1.3;15.40;69368;5138.063;-12820.034;209;-250;396.0;100;99.9;0;1.4;29.2;-1.0;
14/06/2019 00:01:40;110;0;319.75;17;-29.67;6.69;1.3;15.40;69626;5138.063;-12820.034;209;-250;245.5;100;99.9;0;0.9;29.2;-1.0;
14/06/2019 00:01:50;110;0;339.39;17;-22.06;5.69;1.4;15.40;69826;5138.063;-12820.034;209;-250;91.1;100;99.9;0;0.9;29.2;-1.0;
14/06/2019 00:02:00;110;0;324.19;17;-42.03;3.86;1.8;15.40;70081;5138.063;-12820.034;209;-250;-83.2;100;100.0;0;1.4;29.2;-1.0;
14/06/2019 00:02:10;110;0;324.03;17;-63.02;-1.62;2.7;15.40;70369;5138.063;-12820.034;209;-250;-249.5;90;89.9;0;1.4;29.2;-1.0;
14/06/2019 00:02:20;110;0;321.80;17;-55.31;2.16;4.3;15.40;70637;5138.063;-12820.034;209;-250;-249.5;72;72.0;0;0.9;29.2;-1.0;
14/06/2019 00:02:30;100;0;329.17;17;-37.69;3.06;6.7;15.40;70595;5138.063;-12820.034;209;-250;-249.5;71;70.9;0;0.9;29.2;-1.0;
14/06/2019 00:02:50;100;0;324.32;17;-25.40;5.01;10.7;15.40;70565;5138.063;-12820.034;209;-250;-245.5;71;70.8;45;45.1;29.2;0.0;
14/06/2019 00:03:10;100;0;302.75;17;-19.78;25.61;14.0;15.30;70549;5138.063;-12820.034;209;-250;-245.5;71;70.9;45;45.6;29.3;0.0;
14/06/2019 00:03:30;100;0;285.86;17;-19.17;25.41;16.7;15.20;70531;5138.063;-12820.034;209;-250;-245.5;71;70.8;33;32.9;29.2;0.0;
14/06/2019 00:03:50;100;0;272.43;17;-20.92;18.81;19.5;15.10;70491;5138.063;-12820.034;209;-250;-245.5;71;70.8;26;25.7;29.2;0.0;
14/06/2019 00:04:10;100;0;253.34;17;-20.47;15.31;22.4;15.10;70473;5138.063;-12820.034;209;-250;-245.5;71;70.8;17;17.1;29.3;0.0;
14/06/2019 00:04:30;100;0;235.44;17;-20.03;10.96;25.3;15.00;70435;5138.063;-12820.034;209;-250;-245.5;71;70.8;12;12.2;29.2;0.0;
14/06/2019 00:04:50;100;0;213.86;17;-19.81;8.77;27.9;14.90;70407;5138.063;-12820.034;209;-250;-245.5;71;70.8;5;5.0;29.2;0.0;
14/06/2019 00:05:10;100;0;202.67;17;-20.56;5.26;30.3;14.80;70356;5138.063;-12820.034;209;-250;-245.5;71;70.8;5;4.5;29.3;0.0;
14/06/2019 00:05:30;100;0;187.95;17;-20.19;5.26;32.8;14.70;70322;5138.063;-12820.034;209;-250;-243.6;71;70.8;5;4.5;29.3;0.0;
14/06/2019 00:05:50;100;0;184.51;17;-20.27;5.19;35.3;14.60;70298;5138.063;-12820.034;209;-250;-243.6;71;70.8;6;5.9;29.3;0.0;
14/06/2019 00:06:10;100;0;179.86;17;-20.05;6.27;37.6;14.60;70275;5138.063;-12820.034;209;-250;-243.6;71;70.8;6;6.3;29.2;0.0;
14/06/2019 00:06:30;100;0;169.97;17;-20.23;6.42;40.1;14.50;70252;5138.063;-12820.034;209;-250;-243.6;71;70.8;2;1.8;29.2;0.0;
14/06/2019 00:06:50;100;0;159.83;17;-20.06;3.85;42.5;14.40;70217;5138.063;-12820.034;209;-250;-243.6;71;70.8;0;0.0;29.3;0.0;
14/06/2019 00:07:10;100;0;148.95;17;-20.01;3.16;45.0;14.30;70201;5138.063;-12820.034;209;-250;-243.6;71;70.8;-3;-3.2;29.3;0.0;
14/06/2019 00:07:30;100;0;137.16;17;-20.09;1.88;47.5;14.20;70178;5138.063;-12820.034;209;-250;-243.6;71;70.6;-8;-8.1;29.2;0.0;
14/06/2019 00:07:50;100;0;127.46;17;-19.84;-0.39;49.9;14.10;70156;5138.063;-12820.034;209;-250;-243.6;71;70.6;-12;-12.2;29.2;0.0;
14/06/2019 00:08:10;100;0;125.45;17;-19.89;-2.52;52.3;14.10;70133;5138.063;-12820.034;209;-250;-243.6;71;70.8;-12;-12.6;29.3;0.0;
14/06/2019 00:08:30;100;0;124.58;17;-19.85;-2.54;54.7;14.00;70116;5138.063;-12820.034;209;-250;-243.6;71;70.8;-13;-13.5;29.3;0.0;
14/06/2019 00:08:50;100;0;124.97;17;-19.36;-3.11;57.0;13.90;70099;5138.063;-12820.034;209;-250;-243.6;71;70.8;-15;-15.3;29.3;0.0;
14/06/2019 00:09:10;100;0;123.87;17;-19.50;-4.00;59.3;13.80;70084;5138.063;-12820.034;209;-250;-243.6;71;70.6;-17;-17.1;29.3;0.0;
14/06/2019 00:09:30;100;0;121.56;17;-19.40;-4.65;61.8;13.70;70071;5138.063;-12820.034;209;-250;-243.6;71;70.6;-21;-21.2;29.2;0.0;
14/06/2019 00:09:50;100;0;117.00;17;-19.50;-6.59;64.0;13.70;70063;5138.063;-12820.034;209;-250;-241.6;71;70.6;-25;-24.8;29.2;0.0;
14/06/2019 00:10:10;100;0;117.17;17;-19.66;-8.36;66.5;13.60;70055;5138.063;-12820.034;209;-250;-241.6;71;70.6;-27;-27.1;29.2;0.0;
14/06/2019 00:10:30;100;0;121.53;17;-19.02;-9.43;68.8;13.60;70042;5138.063;-12820.034;209;-250;-243.6;71;70.6;-27;-27.5;29.3;0.0;
14/06/2019 00:10:50;100;0;122.48;17;-19.47;-9.44;71.2;13.50;70025;5138.063;-12820.034;209;-250;-243.6;71;70.8;-27;-27.5;29.3;0.0;
14/06/2019 00:11:10;100;0;124.16;17;-19.27;-9.53;73.5;13.40;70036;5138.063;-12820.034;209;-250;-243.6;71;70.6;-27;-27.5;29.3;0.0;
14/06/2019 00:11:30;100;0;125.07;17;-18.83;-9.44;75.7;13.30;70017;5138.063;-12820.034;209;-250;-243.6;71;70.8;-27;-27.5;29.3;0.0;
14/06/2019 00:11:50;100;0;129.43;17;-18.81;-9.56;78.1;13.30;70007;5138.063;-12820.034;209;-250;-241.6;71;70.6;-25;-24.8;29.2;0.0;
14/06/2019 00:12:10;100;0;128.81;17;-18.19;-7.89;80.5;13.20;69994;5138.063;-12820.034;209;-250;-241.6;71;70.8;-26;-26.2;29.3;0.0;
14/06/2019 00:12:30;100;0;133.87;17;-17.79;-9.20;82.7;13.20;69994;5138.063;-12820.034;209;-250;-241.6;71;70.8;-24;-23.9;29.3;0.0;
14/06/2019 00:12:50;100;0;129.77;17;-17.95;-7.47;84.9;13.10;69972;5138.063;-12820.034;209;-250;-241.6;71;70.6;-27;-27.1;29.2;0.0;
14/06/2019 00:13:10;100;0;119.91;17;-17.73;-9.36;87.1;13.00;69964;5138.063;-12820.034;209;-250;-241.6;71;70.6;-33;-32.9;29.3;0.0;
14/06/2019 00:13:30;100;0;124.21;17;-16.83;-12.26;89.2;13.00;69951;5138.063;-12820.034;209;-250;-241.6;71;70.6;-28;-27.5;29.3;0.0;
14/06/2019 00:13:50;100;0;128.60;17;-16.59;-9.25;91.2;12.90;69939;5138.063;-12820.034;209;-250;-237.6;71;70.6;-26;-25.7;29.2;0.0;
14/06/2019 00:14:10;100;0;127.49;17;-16.52;-8.29;93.1;12.80;69932;5138.063;-12820.034;209;-250;-241.6;71;70.6;-27;-27.1;29.3;0.0;
14/06/2019 00:14:30;100;0;126.37;17;-16.61;-9.49;95.0;12.80;69924;5138.063;-12820.034;209;-250;-241.6;71;70.6;-28;-28.0;29.2;0.0;
14/06/2019 00:14:50;100;0;129.16;17;-16.80;-10.09;96.8;12.70;69912;5138.063;-12820.034;209;-250;-241.6;71;70.6;-26;-26.2;29.2;0.0;
14/06/2019 00:15:10;100;0;130.72;17;-16.51;-8.84;98.5;12.70;69905;5138.063;-12820.034;209;-250;-241.6;71;70.6;-26;-25.7;29.2;0.0;
14/06/2019 00:15:30;100;0;135.72;17;-16.14;-8.88;100.3;12.60;69890;5138.063;-12820.034;209;-250;-243.6;71;70.6;-23;-23.0;29.2;0.0;
14/06/2019 00:15:50;100;0;139.55;17;-15.68;-7.02;102.0;12.50;69889;5138.063;-12820.034;209;-250;-241.6;71;70.6;-22;-22.1;29.3;0.0;
14/06/2019 00:16:10;100;0;137.81;17;-15.78;-6.95;103.7;12.50;69879;5138.063;-12820.034;209;-250;-241.6;71;70.6;-25;-24.8;29.3;0.0;
14/06/2019 00:16:30;100;0;136.90;17;-15.58;-8.39;105.3;12.40;69873;5138.063;-12820.034;209;-250;-241.6;71;70.6;-26;-26.2;29.2;0.0;
14/06/2019 00:16:50;100;0;137.13;17;-15.60;-9.19;107.0;12.40;69859;5138.063;-12820.034;209;-250;-241.6;71;70.6;-25;-24.8;29.3;44.2;
14/06/2019 00:17:10;100;0;139.55;17;-15.44;-8.09;108.5;12.30;69856;5138.063;-12820.034;209;-250;-239.6;71;70.6;-24;-23.9;29.3;42.5;
14/06/2019 00:17:30;100;0;140.01;17;-15.45;-7.74;110.1;12.20;69841;5138.063;-12820.034;209;-250;-241.6;71;70.6;-24;-23.9;29.2;40.9;
14/06/2019 00:17:50;100;0;139.22;17;-15.55;-7.76;111.6;12.20;69827;5138.063;-12820.034;209;-250;-239.6;71;70.6;-25;-24.8;29.2;39.3;
14/06/2019 00:18:10;100;0;140.65;17;-15.43;-8.60;113.1;12.10;69827;5138.063;-12820.034;209;-250;-241.6;71;70.6;-24;-23.9;29.2;37.8;
14/06/2019 00:18:30;100;0;140.41;17;-15.47;-7.70;114.5;12.10;69817;5138.063;-12820.034;209;-250;-241.6;71;70.6;-25;-24.8;29.3;36.4;
14/06/2019 00:18:50;100;0;142.43;17;-15.40;-8.58;116.0;12.10;69818;5138.063;-12820.034;209;-250;-241.6;71;70.6;-23;-23.0;29.3;34.9;
14/06/2019 00:19:10;100;0;141.23;17;-15.48;-7.30;117.4;12.00;69809;5138.063;-12820.034;209;-250;-241.6;71;70.6;-24;-23.9;29.2;33.4;
14/06/2019 00:19:30;100;0;141.76;17;-15.30;-8.19;118.8;11.90;69802;5138.063;-12820.034;209;-250;-241.6;71;70.6;-24;-24.4;29.2;31.9;
14/06/2019 00:19:50;100;0;143.19;17;-15.27;-8.26;120.2;11.90;69798;5138.063;-12820.034;209;-250;-241.6;71;70.6;-23;-22.6;29.3;30.5;
14/06/2019 00:20:10;100;0;145.76;17;-15.18;-7.01;121.7;11.80;69783;5138.063;-12820.034;209;-250;-241.6;71;70.8;-23;-21.7;29.3;28.9;
14/06/2019 00:20:30;118;0;143.34;17;-15.27;-6.80;123.1;11.80;69784;5138.063;-12820.034;209;50;-223.8;54;53.5;0;0.5;29.2;27.6;
14/06/2019 00:20:40;118;0;125.84;17;11.06;3.87;123.6;11.80;69699;5138.063;-12820.034;209;50;-67.3;54;54.1;0;0.5;28.8;27.6;
14/06/2019 00:20:50;118;0;127.01;17;29.61;3.57;123.1;11.80;69484;5138.063;-12820.034;209;50;55.4;54;54.1;0;0.5;28.8;-1.0;
14/06/2019 00:21:00;118;0;161.34;17;30.76;3.51;122.1;11.70;69295;5138.063;-12820.034;209;50;55.4;54;54.1;0;0.5;29.3;-1.0;
14/06/2019 00:21:10;118;0;160.87;17;30.83;3.50;120.6;11.70;69299;5138.063;-12820.034;209;50;53.5;54;54.1;0;0.5;29.3;-1.0;
14/06/2019 00:21:21;117;0;160.34;17;31.57;3.70;119.0;11.70;69313;5138.063;-12820.034;209;50;55.4;54;54.2;0;0.5;29.3;-1.0;
14/06/2019 00:21:41;117;0;164.07;17;31.74;3.64;115.3;11.60;69306;5138.063;-12820.034;209;50;55.4;54;54.1;12;12.2;29.2;-1.0;
14/06/2019 00:22:01;117;0;171.01;17;31.20;9.80;111.2;11.60;69296;5138.063;-12820.034;209;50;55.4;54;54.1;12;12.6;29.3;-1.0;
14/06/2019 00:22:21;117;0;173.95;17;31.22;9.88;107.3;11.50;69288;5138.063;-12820.034;209;50;55.4;54;54.1;14;14.0;29.2;-1.0;
14/06/2019 00:22:41;117;0;182.13;17;30.41;10.41;103.7;11.50;69297;5138.063;-12820.034;209;50;55.4;54;54.1;11;10.8;29.2;-1.0;
14/06/2019 00:23:01;117;0;174.49;17;30.88;8.57;100.2;11.40;69300;5138.063;-12820.034;209;50;55.4;54;54.1;18;18.1;29.3;-1.0;
14/06/2019 00:23:21;117;0;177.46;17;30.03;12.56;96.7;11.40;69295;5138.063;-12820.034;209;50;55.4;54;54.1;16;15.8;29.2;-1.0;
14/06/2019 00:23:41;117;0;181.89;17;29.56;10.96;93.4;11.40;69297;5138.063;-12820.034;209;50;55.4;54;54.1;15;14.4;29.3;-1.0;
14/06/2019 00:24:01;117;0;185.28;17;30.04;9.95;90.3;11.30;69312;5138.063;-12820.034;209;50;57.4;54;54.1;13;13.1;29.3;-1.0;
14/06/2019 00:24:21;117;0;183.50;17;28.54;9.64;87.1;11.30;69305;5138.063;-12820.034;209;50;55.4;54;54.1;16;15.8;29.2;-1.0;
14/06/2019 00:24:41;117;0;192.35;17;28.29;11.48;84.5;11.30;69316;5138.063;-12820.034;209;50;55.4;54;54.1;16;16.2;29.3;-1.0;
14/06/2019 00:25:01;117;0;198.95;17;28.54;11.24;82.0;11.20;69311;5138.063;-12820.034;209;50;55.4;54;54.1;9;9.0;29.3;-1.0;
14/06/2019 00:25:21;117;0;196.59;17;28.46;7.33;79.6;11.20;69311;5138.063;-12820.034;209;50;57.4;54;54.1;12;12.2;29.2;-1.0;
14/06/2019 00:25:41;117;0;192.79;17;27.77;9.58;77.0;11.20;69314;5138.063;-12820.034;209;50;55.4;54;54.1;12;12.6;29.3;-1.0;
14/06/2019 00:26:01;117;0;196.21;17;27.61;9.60;74.6;11.10;69317;5138.063;-12820.034;209;50;55.4;54;54.1;12;12.6;29.3;-1.0;
14/06/2019 00:26:21;117;0;198.59;17;26.95;9.69;72.2;11.10;69321;5138.063;-12820.034;209;50;55.4;54;54.1;11;10.8;29.3;-1.0;
14/06/2019 00:26:41;117;0;203.64;17;26.72;8.23;70.0;11.10;69326;5138.063;-12820.034;209;50;57.4;54;54.1;8;7.7;29.3;-1.0;
14/06/2019 00:27:01;117;0;202.37;17;26.74;7.00;67.7;11.10;69343;5138.063;-12820.034;209;50;55.4;54;54.1;10;9.9;29.3;-1.0;
14/06/2019 00:27:21;117;0;203.92;17;26.49;8.76;65.5;11.00;69331;5138.063;-12820.034;209;50;55.4;54;54.1;9;9.0;29.2;-1.0;
14/06/2019 00:27:41;117;0;202.23;17;26.25;7.41;63.3;11.00;69343;5138.063;-12820.034;209;50;55.4;54;54.1;10;9.9;29.2;-1.0;
14/06/2019 00:28:01;117;0;205.75;17;26.92;8.77;61.3;11.00;69336;5138.063;-12820.034;209;50;55.4;54;54.1;8;7.7;29.2;-1.0;
14/06/2019 00:28:21;117;0;207.98;17;26.43;6.86;59.2;11.00;69351;5138.063;-12820.034;209;50;55.4;54;54.1;7;7.2;29.2;-1.0;
14/06/2019 00:28:41;117;0;206.77;17;26.21;6.88;57.1;11.00;69342;5138.063;-12820.034;209;50;55.4;54;54.1;7;7.2;29.3;-1.0;
14/06/2019 00:29:01;117;0;204.32;17;26.42;6.80;55.0;11.00;69341;5138.063;-12820.034;209;50;55.4;54;54.1;8;8.1;29.2;-1.0;
14/06/2019 00:29:21;117;0;199.65;17;25.82;7.74;52.9;11.00;69352;5138.063;-12820.034;209;50;55.4;54;54.1;11;10.8;29.3;-1.0;
14/06/2019 00:29:41;117;0;201.22;17;25.75;9.13;50.9;10.90;69354;5138.063;-12820.034;209;50;57.4;54;54.1;8;7.7;29.3;-1.0;
14/06/2019 00:30:01;117;0;205.32;17;25.46;6.82;49.0;10.90;69346;5138.063;-12820.034;209;50;55.4;54;54.1;5;5.0;29.3;-1.0;
14/06/2019 00:30:21;117;0;206.41;17;25.47;5.31;47.2;10.90;69356;5138.063;-12820.034;209;50;55.4;54;54.1;4;4.1;29.3;-1.0;
14/06/2019 00:30:41;117;0;212.72;17;25.61;5.50;45.5;10.90;69351;5138.063;-12820.034;209;50;55.4;54;54.1;1;0.5;29.3;-1.0;
14/06/2019 00:31:01;117;0;218.09;17;24.71;3.37;43.9;10.90;69357;5138.063;-12820.034;209;50;55.4;54;54.1;-1;-0.9;29.3;-1.0;
14/06/2019 00:31:21;117;0;217.85;17;24.79;2.38;42.3;10.90;69381;5138.063;-12820.034;209;50;55.4;54;54.1;0;0.0;29.3;-1.0;
14/06/2019 00:31:41;117;0;222.56;17;25.06;3.73;40.7;10.90;69372;5138.063;-12820.034;209;50;57.4;54;54.1;-2;-1.8;29.3;-1.0;
14/06/2019 00:32:01;117;0;226.22;17;25.22;2.10;39.2;10.90;69376;5138.063;-12820.034;209;50;55.4;54;54.1;-3;-3.2;29.3;-1.0;
14/06/2019 00:32:21;117;0;225.08;17;25.02;1.51;37.5;10.80;69385;5138.063;-12820.034;209;50;55.4;54;54.1;-2;-1.8;29.3;-1.0;
14/06/2019 00:32:41;117;0;218.00;17;25.11;2.92;35.7;10.80;69399;5138.063;-12820.034;209;50;55.4;54;54.1;1;0.9;29.2;-1.0;
14/06/2019 00:33:01;117;0;225.01;17;24.62;4.09;34.1;10.80;69408;5138.063;-12820.034;209;50;57.4;54;54.1;-4;-4.1;29.2;-1.0;
14/06/2019 00:33:21;117;0;227.59;17;24.74;1.17;32.4;10.80;69419;5138.063;-12820.034;209;50;57.4;54;54.1;-5;-5.0;29.2;-1.0;
14/06/2019 00:33:41;117;0;232.51;17;24.92;1.16;30.8;10.80;69436;5138.063;-12820.034;209;50;57.4;54;54.1;-8;-8.1;29.3;-1.0;
14/06/2019 00:34:01;117;0;229.93;17;25.06;-1.15;29.1;10.80;69441;5138.063;-12820.034;209;50;57.4;54;54.1;-5;-5.0;29.3;-1.0;
14/06/2019 00:34:21;117;0;230.12;17;24.50;1.52;27.4;10.90;69459;5138.063;-12820.034;209;50;57.4;54;54.1;-6;-5.9;29.3;-1.0;
14/06/2019 00:34:41;117;0;242.30;17;24.30;0.41;25.8;10.90;69466;5138.063;-12820.034;209;50;57.4;54;54.1;-15;-14.9;29.2;-1.0;
14/06/2019 00:35:01;117;0;256.18;17;23.88;-4.18;24.2;10.90;69492;5138.063;-12820.034;209;50;55.4;54;54.1;-23;-23.0;29.3;-1.0;
14/06/2019 00:35:21;117;0;265.64;17;23.36;-8.21;23.0;10.90;69492;5138.063;-12820.034;209;50;57.4;54;54.1;-27;-27.1;29.2;-1.0;
14/06/2019 00:35:41;117;0;265.24;17;23.61;-10.12;22.0;10.90;69505;5138.063;-12820.034;209;50;57.4;54;54.1;-27;-27.1;29.3;-1.0;
14/06/2019 00:36:01;117;0;266.09;17;23.23;-10.05;21.0;10.90;69524;5138.063;-12820.034;209;50;57.4;54;54.1;-28;-28.0;29.3;-1.0;
14/06/2019 00:36:21;117;0;266.06;17;23.29;-10.73;19.8;10.90;69527;5138.063;-12820.034;209;50;57.4;54;54.1;-30;-29.8;29.3;-1.0;
14/06/2019 00:36:41;117;0;254.88;17;23.01;-11.57;18.8;10.90;69549;5138.063;-12820.034;209;50;57.4;54;54.1;-23;-23.0;29.2;-1.0;
14/06/2019 00:37:01;117;0;251.25;17;23.12;-7.51;17.8;10.90;69569;5138.063;-12820.034;209;50;57.4;54;54.1;-23;-22.6;29.3;-1.0;
14/06/2019 00:37:21;117;0;251.52;17;22.47;-7.73;16.9;11.00;69592;5138.063;-12820.034;209;50;57.4;54;54.1;-25;-24.8;29.2;-1.0;
14/06/2019 00:37:41;117;0;242.87;17;22.76;-9.25;16.1;11.00;69625;5138.063;-12820.034;209;50;57.4;54;54.1;-20;-19.9;29.2;-1.0;
14/06/2019 00:38:01;117;0;237.39;17;23.09;-6.01;15.2;11.00;69643;5138.063;-12820.034;209;50;55.4;54;54.1;-20;-19.4;29.2;-1.0;
14/06/2019 00:38:21;117;0;230.87;17;23.05;-5.96;14.5;11.00;69652;5138.063;-12820.034;209;50;57.4;54;54.1;-18;-18.1;29.3;-1.0;
14/06/2019 00:38:41;117;0;229.05;17;23.51;-4.93;13.6;11.10;69670;5138.063;-12820.034;209;50;57.4;54;54.1;-19;-19.4;29.2;-1.0;
14/06/2019 00:39:01;117;0;224.63;17;24.23;-6.09;12.8;11.10;69680;5138.063;-12820.034;209;50;57.4;54;54.1;-18;-17.6;29.3;-1.0;
14/06/2019 00:39:21;117;0;216.51;17;23.05;-5.00;11.8;11.10;69706;5138.063;-12820.034;209;50;57.4;54;54.1;-15;-14.4;29.3;-1.0;
14/06/2019 00:39:41;117;0;211.58;17;22.11;-3.33;10.8;11.10;69713;5138.063;-12820.034;209;50;57.4;54;54.1;-14;-14.0;29.3;-1.0;
