Timestamp;NavState;SecurityLevel;Heading;Declination;Pitch;Roll;Depth;Temperature;Pa;Lat;Lon;DesiredH;BallastCmd;BallastPos;LinCmd;LinPos;AngCmd;AngPos;Voltage;Altitude;
14/06/2019 07:16:53;117;0;229.17;17;22.96;3.15;8.0;11.20;69441;5137.520;-12820.258;209;200;207.9;54;54.2;-2;-1.8;29.2;-1.0;
14/06/2019 07:17:03;115;0;232.31;17;23.14;2.24;6.5;11.20;69454;5137.520;-12820.258;209;500;221.8;100;99.3;0;0.9;29.2;-1.0;
14/06/2019 07:17:13;115;0;201.45;17;-12.48;4.52;5.5;11.20;69372;5137.520;-12820.258;209;500;370.3;100;100.0;0;0.9;28.9;-1.0;
14/06/2019 07:17:23;115;0;216.80;17;-58.84;0.78;6.5;11.30;69168;5137.520;-12820.258;209;500;505.0;100;100.1;0;0.9;28.9;-1.0;
14/06/2019 07:17:33;115;0;256.04;17;-62.49;0.03;6.3;11.30;68956;5137.520;-12820.258;209;500;505.0;100;100.0;0;0.9;29.2;-1.0;
14/06/2019 07:17:43;115;0;239.51;17;-34.92;3.32;3.4;11.30;68982;5137.520;-12820.258;209;500;505.0;100;100.0;0;0.9;29.2;-1.0;
14/06/2019 07:17:53;116;0;251.20;17;-21.15;1.80;1.2;11.30;68986;5137.520;-12820.258;209;500;508.9;100;99.9;0;0.9;29.2;-1.0;
14/06/2019 07:18:13;116;0;273.03;17;-7.79;2.27;1.2;11.40;69001;5137.175;-12820.364;209;500;508.9;100;99.9;0;0.9;29.3;-1.0;
14/06/2019 07:18:33;116;0;298.86;17;-11.40;-0.01;1.2;11.40;69023;5137.172;-12820.364;209;500;508.9;100;99.9;0;0.9;29.2;-1.0;
14/06/2019 07:18:53;116;0;275.66;17;-5.87;7.40;1.1;11.50;69028;5137.170;-12820.363;209;500;508.9;100;99.9;0;0.9;29.2;-1.0;
14/06/2019 07:19:13;116;0;290.40;17;-13.63;1.76;1.2;11.60;69037;5137.167;-12820.364;209;500;508.9;100;99.9;0;0.9;29.2;-1.0;
14/06/2019 07:19:33;116;0;312.03;17;-5.19;6.36;1.1;11.70;69045;5137.165;-12820.361;209;500;508.9;100;99.9;0;0.9;29.0;-1.0;
14/06/2019 07:20:00;116;0;309.41;17;-12.38;1.96;1.1;11.80;69049;5137.161;-12820.363;209;500;508.9;100;99.9;0;0.9;29.2;-1.0;
14/06/2019 07:20:28;116;0;295.85;17;-14.39;10.10;1.2;11.90;69067;5137.161;-12820.362;209;500;508.9;100;99.7;0;0.9;29.1;-1.0;
14/06/2019 07:20:48;116;0;306.80;17;-14.31;3.95;1.1;12.00;69078;5137.158;-12820.365;210;500;510.9;100;99.9;0;0.9;29.2;-1.0;
14/06/2019 07:21:08;116;0;304.41;17;-22.53;3.18;1.2;12.10;69086;5137.153;-12820.366;210;500;510.9;100;99.9;0;0.9;29.2;-1.0;
14/06/2019 07:22:10;116;0;279.16;17;-6.69;3.22;1.1;12.50;69106;5137.153;-12820.366;210;500;508.9;100;99.9;0;0.9;29.2;-1.0;
14/06/2019 07:22:30;116;0;304.60;17;-6.00;5.66;1.0;12.60;69112;5137.149;-12820.362;210;500;508.9;100;99.9;0;0.9;29.2;-1.0;
14/06/2019 07:22:50;116;0;300.60;17;-12.56;3.88;1.1;12.80;69114;5137.143;-12820.357;210;500;508.9;100;99.9;0;0.9;29.3;-1.0;
14/06/2019 07:23:22;116;0;305.37;17;-5.60;3.21;1.0;12.90;69130;5137.144;-12820.353;210;500;510.9;100;99.9;0;0.9;29.2;-1.0;
14/06/2019 07:23:42;116;0;266.57;17;-5.41;1.11;1.1;13.10;69133;5137.158;-12820.325;210;500;508.9;100;99.9;0;0.9;29.2;-1.0;
14/06/2019 07:24:02;116;0;279.71;17;-8.43;2.26;1.1;13.20;69140;5137.185;-12820.331;210;500;508.9;100;99.9;0;0.9;29.2;-1.0;
14/06/2019 07:24:36;116;0;261.21;17;-10.12;0.09;1.1;13.50;69139;5137.184;-12820.330;210;500;508.9;100;99.9;0;0.9;29.2;-1.0;
14/06/2019 07:24:56;116;0;256.17;17;-7.46;-0.07;1.2;13.60;69159;5137.134;-12820.374;210;500;508.9;100;99.9;0;0.9;29.2;-1.0;
14/06/2019 07:25:16;116;0;305.64;17;-26.02;4.84;1.3;13.80;69151;5137.106;-12820.391;210;500;508.9;100;99.9;0;0.9;29.2;-1.0;
14/06/2019 07:29:59;116;0;297.45;17;-8.56;0.31;1.1;14.20;69195;5137.105;-12820.391;210;500;508.9;100;99.9;0;0.9;29.2;-1.0;
14/06/2019 07:30:19;116;0;274.59;17;-9.91;4.70;1.1;14.20;69194;5137.104;-12820.391;210;500;508.9;100;99.9;0;0.9;29.2;-1.0;
14/06/2019 07:30:39;116;0;290.82;17;-12.41;1.39;1.1;14.30;69200;5137.101;-12820.394;210;500;508.9;100;99.9;0;0.9;29.2;-1.0;
14/06/2019 07:30:59;116;0;271.07;17;-4.55;0.82;1.1;14.30;69197;5137.099;-12820.397;210;500;510.9;100;99.9;0;0.9;29.2;-1.0;
14/06/2019 07:31:19;116;0;295.11;17;-12.12;4.65;1.1;14.40;69207;5137.097;-12820.398;210;500;510.9;100;99.9;0;0.9;29.2;-1.0;
14/06/2019 07:31:39;116;0;282.99;17;-6.47;0.08;1.1;14.40;69207;5137.095;-12820.401;210;500;508.9;100;99.9;0;0.9;29.2;-1.0;
14/06/2019 07:31:59;110;0;286.57;17;-16.64;4.66;1.1;14.40;69212;5137.095;-12820.401;210;-250;409.9;100;99.9;0;0.9;29.2;-1.0;
14/06/2019 07:32:09;110;0;300.78;17;-6.69;7.65;1.1;14.40;69455;5137.095;-12820.401;210;-250;267.3;100;99.9;0;0.9;29.1;-1.0;
14/06/2019 07:32:19;110;0;294.27;17;-5.16;5.27;1.1;14.40;69636;5137.095;-12820.401;210;-250;130.7;100;99.9;0;0.9;29.1;-1.0;
14/06/2019 07:32:29;110;0;300.23;17;-14.94;2.75;1.1;14.40;69856;5137.095;-12820.401;210;-250;-7.9;100;99.9;0;0.9;29.1;-1.0;
14/06/2019 07:32:39;110;0;319.35;17;-17.19;1.16;1.3;14.40;70089;5137.095;-12820.401;210;-250;-166.3;99;98.7;0;0.9;29.1;-1.0;
14/06/2019 07:32:49;110;0;320.76;17;-44.57;6.47;2.5;14.40;70349;5137.095;-12820.401;210;-250;-249.5;81;81.1;0;0.9;29.1;-1.0;
14/06/2019 07:32:59;110;0;313.14;17;-48.88;2.25;5.2;14.40;70466;5137.095;-12820.401;210;-250;-251.5;72;72.0;0;0.9;29.2;-1.0;
14/06/2019 07:33:09;100;0;299.83;17;-36.44;4.30;8.3;14.40;70452;5137.095;-12820.401;210;-250;-251.5;71;70.9;0;0.9;29.2;-1.0;
14/06/2019 07:33:29;100;0;263.63;17;-24.74;4.06;13.5;14.40;70457;5137.095;-12820.401;210;-250;-247.5;71;70.8;32;32.0;29.2;0.0;
14/06/2019 07:33:49;100;0;246.28;17;-19.60;19.12;17.4;14.40;70433;5137.095;-12820.401;210;-250;-247.5;71;70.8;17;17.1;29.2;0.0;
14/06/2019 07:34:09;100;0;233.17;17;-21.20;11.02;20.3;14.40;70422;5137.095;-12820.401;210;-250;-245.5;71;70.9;9;8.6;29.2;0.0;
14/06/2019 07:34:29;100;0;223.81;17;-20.89;6.87;23.2;14.30;70383;5137.095;-12820.401;210;-250;-245.5;71;70.8;6;5.9;29.2;0.0;
14/06/2019 07:34:49;100;0;214.23;17;-20.75;5.57;26.4;14.30;70340;5137.095;-12820.401;210;-250;-245.5;71;70.8;4;4.1;29.2;0.0;
14/06/2019 07:35:09;100;0;205.78;17;-19.62;4.71;29.1;14.20;70291;5137.095;-12820.401;210;-250;-243.6;71;70.8;3;2.7;29.2;0.0;
14/06/2019 07:35:29;100;0;204.91;17;-20.38;4.37;32.0;14.10;70254;5137.095;-12820.401;210;-250;-245.5;71;70.8;6;5.9;29.2;0.0;
14/06/2019 07:35:49;100;0;199.72;17;-19.76;6.35;34.8;14.10;70217;5137.095;-12820.401;210;-250;-245.5;71;70.8;5;5.0;29.2;0.0;
14/06/2019 07:36:09;100;0;195.87;17;-20.17;5.11;37.3;14.00;70179;5137.095;-12820.401;210;-250;-245.5;71;70.8;5;4.1;29.2;0.0;
14/06/2019 07:36:29;100;0;193.02;17;-20.43;5.17;39.7;13.90;70158;5137.095;-12820.401;210;-250;-245.5;71;70.8;5;4.1;29.1;0.0;
14/06/2019 07:36:49;100;0;186.90;17;-20.18;5.14;42.3;13.90;70136;5137.095;-12820.401;210;-250;-245.5;71;70.8;3;3.2;29.2;0.0;
14/06/2019 07:37:09;100;0;182.67;17;-19.75;4.45;44.9;13.80;70117;5137.095;-12820.401;210;-250;-245.5;71;70.8;2;1.8;29.2;0.0;
14/06/2019 07:37:29;100;0;177.82;17;-19.91;3.87;47.6;13.70;70098;5137.095;-12820.401;210;-250;-245.5;71;70.8;0;0.0;29.2;0.0;
14/06/2019 07:37:49;100;0;173.92;17;-19.47;3.19;50.3;13.60;70074;5137.095;-12820.401;210;-250;-243.6;71;70.8;0;-0.5;29.2;0.0;
14/06/2019 07:38:09;100;0;170.57;17;-19.96;3.13;52.9;13.60;70055;5137.095;-12820.401;210;-250;-245.5;71;70.8;-1;-0.9;29.2;0.0;
14/06/2019 07:38:29;100;0;169.58;17;-20.07;2.49;55.5;13.50;70048;5137.095;-12820.401;210;-250;-245.5;71;70.8;-1;-1.8;29.2;0.0;
14/06/2019 07:38:49;100;0;170.85;17;-19.85;2.54;58.2;13.40;70032;5137.095;-12820.401;210;-250;-243.6;71;70.8;0;0.0;29.2;0.0;
14/06/2019 07:39:09;100;0;167.61;17;-19.66;3.77;60.7;13.40;70023;5137.095;-12820.401;210;-250;-245.5;71;70.8;-2;-1.8;29.2;0.0;
14/06/2019 07:39:29;100;0;160.29;17;-19.61;2.31;63.2;13.30;69999;5137.095;-12820.401;210;-250;-245.5;71;70.8;-6;-5.9;29.2;0.0;
14/06/2019 07:39:49;100;0;152.53;17;-19.22;0.36;65.8;13.20;69986;5137.095;-12820.401;210;-250;-243.6;71;70.8;-9;-9.5;29.2;0.0;
14/06/2019 07:40:09;100;0;149.64;17;-19.08;-1.26;68.3;13.20;69981;5137.095;-12820.401;210;-250;-247.5;71;70.8;-9;-9.9;29.2;0.0;
14/06/2019 07:40:29;100;0;152.76;17;-19.03;-1.38;70.8;13.10;69966;5137.095;-12820.401;210;-250;-243.6;71;70.8;-7;-7.2;29.2;0.0;
14/06/2019 07:40:49;100;0;145.55;17;-18.62;0.37;73.1;13.00;69938;5137.095;-12820.401;210;-250;-243.6;71;70.8;-12;-12.2;29.2;0.0;
14/06/2019 07:41:09;100;0;142.49;17;-18.52;-2.74;75.4;13.00;69937;5137.095;-12820.401;210;-250;-243.6;71;70.8;-14;-14.0;29.2;0.0;
14/06/2019 07:41:29;100;0;137.93;17;-18.47;-3.53;77.7;12.90;69928;5137.095;-12820.401;210;-250;-243.6;71;70.6;-18;-18.5;29.2;0.0;
14/06/2019 07:41:49;100;0;140.34;17;-18.34;-5.24;79.6;12.90;69913;5137.095;-12820.401;210;-250;-241.6;71;70.8;-17;-17.1;29.2;0.0;
14/06/2019 07:42:09;100;0;140.35;17;-17.74;-4.05;81.7;12.80;69901;5137.095;-12820.401;210;-250;-243.6;71;70.8;-19;-19.0;29.2;0.0;
14/06/2019 07:42:29;100;0;141.63;17;-17.26;-5.54;83.8;12.80;69893;5137.095;-12820.401;210;-250;-241.6;71;70.6;-20;-19.9;29.2;0.0;
14/06/2019 07:42:49;100;0;143.96;17;-17.13;-6.05;85.7;12.70;69872;5137.095;-12820.401;210;-250;-243.6;71;70.8;-21;-21.2;29.1;0.0;
14/06/2019 07:43:09;100;0;145.29;17;-16.82;-6.64;87.6;12.60;69873;5137.095;-12820.401;210;-250;-243.6;71;70.8;-22;-22.1;29.1;0.0;
14/06/2019 07:43:29;100;0;138.17;17;-17.03;-7.18;89.3;12.60;69863;5137.095;-12820.401;210;-250;-243.6;71;70.8;-27;-27.5;29.2;0.0;
14/06/2019 07:43:49;100;0;138.63;17;-16.58;-9.75;91.1;12.50;69854;5137.095;-12820.401;210;-250;-243.6;71;70.8;-26;-26.2;29.2;0.0;
14/06/2019 07:44:09;100;0;140.82;17;-16.30;-8.51;92.9;12.50;69838;5137.095;-12820.401;210;-250;-243.6;71;70.6;-25;-24.8;29.2;0.0;
14/06/2019 07:44:29;100;0;142.89;17;-16.20;-8.06;94.6;12.40;69829;5137.095;-12820.401;210;-250;-243.6;71;70.8;-24;-23.9;29.2;0.0;
14/06/2019 07:44:49;100;0;145.79;17;-16.35;-8.08;96.3;12.40;69819;5137.095;-12820.401;210;-250;-241.6;71;70.8;-22;-21.7;29.2;0.0;
14/06/2019 07:45:09;100;0;143.18;17;-16.23;-6.45;98.0;12.30;69817;5137.095;-12820.401;210;-250;-243.6;71;70.8;-24;-23.9;29.2;0.0;
14/06/2019 07:45:29;100;0;145.41;17;-16.08;-8.03;99.6;12.30;69803;5137.095;-12820.401;210;-250;-243.6;71;70.8;-23;-22.6;29.2;0.0;
14/06/2019 07:45:49;100;0;147.92;17;-15.98;-6.98;101.3;12.20;69793;5137.095;-12820.401;210;-250;-243.6;71;70.8;-22;-22.1;29.2;0.0;
14/06/2019 07:46:09;100;0;147.99;17;-15.84;-6.99;102.9;12.20;69793;5137.095;-12820.401;210;-250;-243.6;71;70.6;-23;-23.0;29.2;0.0;
14/06/2019 07:46:29;100;0;150.12;17;-15.61;-7.65;104.5;12.10;69784;5137.095;-12820.401;210;-250;-243.6;71;70.8;-21;-20.8;29.2;0.0;
14/06/2019 07:46:49;100;0;151.32;17;-15.56;-6.07;106.1;12.10;69768;5137.095;-12820.401;210;-250;-241.6;71;70.8;-22;-22.1;29.2;0.0;
14/06/2019 07:47:09;100;0;151.85;17;-15.87;-7.18;107.7;12.00;69769;5137.095;-12820.401;210;-250;-243.6;71;70.8;-22;-22.6;29.2;0.0;
14/06/2019 07:47:29;100;0;156.37;17;-15.72;-7.32;109.3;12.00;69763;5137.095;-12820.401;210;-250;-243.6;71;70.6;-20;-19.4;29.2;0.0;
14/06/2019 07:47:49;100;0;156.98;17;-15.58;-5.40;110.8;11.90;69755;5137.095;-12820.401;210;-250;-241.6;71;70.8;-21;-21.2;29.2;0.0;
14/06/2019 07:48:09;100;0;158.03;17;-15.62;-6.85;112.4;11.80;69746;5137.095;-12820.401;210;-250;-243.6;71;70.8;-20;-19.9;29.1;0.0;
14/06/2019 07:48:30;100;0;158.52;17;-15.29;-5.51;113.9;11.80;69741;5137.095;-12820.401;210;-250;-241.6;71;70.8;-21;-21.2;29.1;0.0;
14/06/2019 07:48:50;100;0;158.85;17;-15.22;-6.64;115.4;11.70;69732;5137.095;-12820.401;210;-250;-241.6;71;70.8;-21;-21.2;29.1;44.2;
14/06/2019 07:49:10;100;0;159.01;17;-14.99;-6.62;116.9;11.70;69721;5137.095;-12820.401;210;-250;-241.6;71;70.8;-21;-21.2;29.2;42.7;
14/06/2019 07:49:30;100;0;159.51;17;-15.15;-6.72;118.5;11.70;69729;5137.095;-12820.401;210;-250;-241.6;71;70.8;-21;-21.2;29.2;41.1;
14/06/2019 07:49:50;100;0;158.57;17;-15.08;-6.65;119.9;11.60;69713;5137.095;-12820.401;210;-250;-241.6;71;70.8;-22;-22.1;29.2;39.8;
14/06/2019 07:50:10;100;0;159.00;17;-15.17;-7.25;121.3;11.60;69703;5137.095;-12820.401;210;-250;-243.6;71;70.8;-21;-21.2;29.1;38.3;
14/06/2019 07:50:30;100;0;163.16;17;-14.39;-6.32;122.8;11.50;69688;5137.095;-12820.401;210;-250;-243.6;71;70.8;-19;-19.0;29.2;36.8;
14/06/2019 07:50:50;100;0;165.75;17;-14.22;-5.16;124.1;11.50;69685;5137.095;-12820.401;210;-250;-243.6;71;70.6;-18;-18.1;29.2;35.3;
14/06/2019 07:51:10;100;0;166.50;17;-14.16;-5.12;125.5;11.40;69665;5137.095;-12820.401;210;-250;-243.6;71;70.8;-19;-19.0;29.2;34.1;
14/06/2019 07:51:30;100;0;167.07;17;-14.18;-5.72;126.8;11.40;69658;5137.095;-12820.401;210;-250;-241.6;71;70.8;-19;-19.4;29.2;32.5;
14/06/2019 07:51:50;100;0;168.34;17;-14.22;-5.76;128.2;11.30;69655;5137.095;-12820.401;210;-250;-241.6;71;70.8;-18;-18.1;29.2;31.3;
14/06/2019 07:52:10;100;0;168.84;17;-14.15;-4.82;129.6;11.30;69650;5137.095;-12820.401;210;-250;-241.6;71;70.8;-19;-19.0;29.2;29.8;
14/06/2019 07:52:30;100;0;170.09;17;-14.24;-5.79;130.8;11.20;69639;5137.095;-12820.401;210;-250;-241.6;71;70.8;-18;-18.1;29.2;28.5;
14/06/2019 07:52:50;100;0;170.22;17;-14.26;-4.82;132.1;11.20;69633;5137.095;-12820.401;210;-250;-241.6;71;70.8;-18;-17.6;29.2;27.0;
14/06/2019 07:53:10;100;0;170.62;17;-14.15;-4.83;133.4;11.10;69630;5137.095;-12820.401;210;-250;-241.6;71;70.8;-19;-19.4;29.2;25.8;
14/06/2019 07:53:30;100;0;170.99;17;-14.32;-5.90;134.7;11.10;69619;5137.095;-12820.401;210;-250;-239.6;71;70.6;-19;-19.9;29.2;24.6;
14/06/2019 07:53:50;100;0;171.35;17;-14.38;-5.92;135.9;11.10;69619;5137.095;-12820.401;210;-250;-241.6;71;70.8;-18;-18.1;29.2;23.2;
14/06/2019 07:54:10;100;0;171.79;17;-14.13;-4.72;137.2;11.00;69607;5137.095;-12820.401;210;-250;-241.6;71;70.8;-18;-17.1;29.2;21.8;
14/06/2019 07:54:30;100;0;172.09;17;-14.21;-4.70;138.4;11.00;69617;5137.095;-12820.401;210;-250;-243.6;71;70.8;-18;-17.1;29.1;20.6;
14/06/2019 07:54:50;100;0;171.85;17;-14.20;-4.61;139.8;10.90;69609;5137.095;-12820.401;210;-250;-241.6;71;70.8;-19;-19.0;29.2;19.3;
14/06/2019 07:55:10;118;0;171.90;17;-14.41;-5.84;141.0;10.90;69606;5137.095;-12820.401;210;200;-229.7;54;53.8;0;0.9;29.2;18.0;
14/06/2019 07:55:20;118;0;138.22;17;10.91;4.13;141.5;10.90;69520;5137.095;-12820.401;210;200;-69.3;54;54.1;0;0.9;28.7;18.0;
14/06/2019 07:55:30;118;0;139.80;17;29.63;3.68;141.1;10.90;69312;5137.095;-12820.401;210;200;81.2;54;53.9;0;0.9;28.7;-1.0;
14/06/2019 07:55:40;118;0;142.32;17;30.58;3.78;140.0;10.80;69059;5137.095;-12820.401;210;200;205.9;54;54.1;0;0.9;28.7;-1.0;
14/06/2019 07:55:50;118;0;179.05;17;31.70;3.94;138.4;10.80;68881;5137.095;-12820.401;210;200;205.9;54;54.1;0;0.9;29.2;-1.0;
14/06/2019 07:56:00;118;0;179.16;17;33.77;3.65;136.2;10.80;68879;5137.095;-12820.401;210;200;205.9;54;54.1;0;0.9;29.2;-1.0;
14/06/2019 07:56:10;117;0;178.64;17;34.21;3.79;133.5;10.80;68881;5137.095;-12820.401;210;200;205.9;54;54.1;0;0.9;29.2;-1.0;
14/06/2019 07:56:30;117;0;175.38;17;34.52;3.97;127.6;10.80;68882;5137.095;-12820.401;210;200;205.9;54;54.1;16;16.2;29.2;-1.0;
14/06/2019 07:56:50;117;0;174.79;17;34.26;11.27;121.1;10.70;68876;5137.095;-12820.401;210;200;207.9;54;53.9;18;18.1;29.2;-1.0;
14/06/2019 07:57:10;117;0;182.87;17;33.54;12.94;115.2;10.70;68884;5137.095;-12820.401;210;200;205.9;54;53.9;13;13.1;29.2;-1.0;
14/06/2019 07:57:30;117;0;183.52;17;33.71;9.58;109.6;10.70;68891;5137.095;-12820.401;210;200;207.9;54;53.9;14;14.4;29.2;-1.0;
14/06/2019 07:57:50;117;0;183.67;17;33.83;10.58;103.8;10.60;68900;5137.095;-12820.401;210;200;207.9;54;53.9;15;14.9;29.2;-1.0;
14/06/2019 07:58:10;117;0;186.70;17;32.64;10.93;98.1;10.60;68892;5137.095;-12820.401;210;200;205.9;54;53.9;14;14.0;29.2;-1.0;
14/06/2019 07:58:30;117;0;185.98;17;32.57;10.06;92.8;10.60;68910;5137.095;-12820.401;210;200;205.9;54;53.9;15;15.3;29.2;-1.0;
14/06/2019 07:58:50;117;0;194.87;17;31.48;10.82;87.9;10.60;68927;5137.095;-12820.401;210;200;205.9;54;53.9;15;15.8;29.2;-1.0;
14/06/2019 07:59:10;117;0;189.56;17;31.18;11.21;83.2;10.50;68937;5137.095;-12820.401;210;200;205.9;54;53.9;15;16.2;29.2;-1.0;
14/06/2019 07:59:30;117;0;190.80;17;30.41;11.45;78.6;10.50;68942;5137.095;-12820.401;210;200;205.9;54;54.1;14;13.5;29.2;-1.0;
14/06/2019 07:59:50;117;0;192.50;17;29.79;9.92;74.2;10.50;68954;5137.095;-12820.401;210;200;205.9;54;54.1;14;13.1;29.2;-1.0;
14/06/2019 08:00:10;117;0;196.96;17;29.25;9.43;69.9;10.50;68955;5137.095;-12820.401;210;200;205.9;54;53.9;12;11.7;29.2;-1.0;
14/06/2019 08:00:30;117;0;195.11;17;28.64;8.72;65.6;10.50;68972;5137.095;-12820.401;210;200;205.9;54;53.9;13;13.5;29.2;-1.0;
14/06/2019 08:00:50;117;0;199.89;17;27.80;10.01;61.7;10.50;68978;5137.095;-12820.401;210;200;205.9;54;53.9;11;10.8;29.2;-1.0;
14/06/2019 08:01:10;117;0;204.59;17;27.83;7.93;57.9;10.50;68982;5137.095;-12820.401;210;200;205.9;54;54.1;9;8.6;29.2;-1.0;
14/06/2019 08:01:30;117;0;200.26;17;28.04;7.26;54.0;10.50;69005;5137.095;-12820.401;210;200;207.9;54;53.9;12;12.2;29.2;-1.0;
14/06/2019 08:01:50;117;0;197.19;17;28.26;9.56;50.0;10.50;69008;5137.095;-12820.401;210;200;205.9;54;54.1;14;14.4;29.2;-1.0;
14/06/2019 08:02:10;117;0;199.59;17;27.15;10.09;46.1;10.40;69025;5137.095;-12820.401;210;200;205.9;54;53.9;12;12.2;29.1;-1.0;
14/06/2019 08:02:30;117;0;198.87;17;27.14;8.89;42.7;10.50;69026;5137.095;-12820.401;210;200;205.9;54;53.9;12;11.7;29.2;-1.0;
14/06/2019 08:02:50;117;0;198.20;17;26.99;9.01;39.2;10.40;69055;5137.095;-12820.401;210;200;207.9;54;53.9;12;11.7;29.1;-1.0;
14/06/2019 08:03:10;117;0;197.83;17;26.90;9.04;35.7;10.50;69052;5137.095;-12820.401;210;200;205.9;54;54.1;12;11.7;29.2;-1.0;
14/06/2019 08:03:30;117;0;198.89;17;26.48;8.88;32.1;10.50;69086;5137.095;-12820.401;210;200;205.9;54;53.9;11;10.8;29.2;-1.0;
14/06/2019 08:03:50;117;0;198.10;17;25.76;8.12;28.8;10.50;69105;5137.095;-12820.401;210;200;205.9;54;53.9;11;9.9;29.2;-1.0;
14/06/2019 08:04:10;117;0;206.63;17;24.55;7.97;25.7;10.50;69132;5137.095;-12820.401;210;200;207.9;54;53.9;6;5.9;29.1;-1.0;
14/06/2019 08:04:30;117;0;206.34;17;25.10;5.63;22.8;10.50;69174;5137.095;-12820.401;210;200;207.9;54;54.1;7;7.2;29.2;-1.0;
14/06/2019 08:04:50;117;0;208.70;17;24.53;7.20;20.1;10.50;69227;5137.095;-12820.401;210;200;205.9;54;54.1;6;5.9;29.2;-1.0;
14/06/2019 08:05:10;117;0;210.09;17;24.31;5.81;17.4;10.60;69280;5137.095;-12820.401;210;200;205.9;54;54.1;5;5.0;29.2;-1.0;
14/06/2019 08:05:30;117;0;207.69;17;24.03;5.46;14.3;10.60;69309;5137.095;-12820.401;210;200;205.9;54;54.1;7;7.7;29.2;-1.0;
14/06/2019 08:05:50;117;0;217.38;17;23.90;7.78;11.3;10.60;69349;5137.095;-12820.401;210;200;205.9;54;53.9;0;0.0;29.2;-1.0;
