Timestamp;NavState;SecurityLevel;Heading;Declination;Pitch;Roll;Depth;Temperature;Pa;Lat;Lon;DesiredH;BallastCmd;BallastPos;LinCmd;LinPos;AngCmd;AngPos;Voltage;Altitude;
14/06/2019 20:59:27;117;0;219.64;17;12.54;2.63;9.6;10.50;69467;5131.527;-12824.183;219;150;156.4;57;57.1;-7;-7.2;29.1;-1.0;
14/06/2019 20:59:37;115;0;218.12;17;12.35;-0.30;9.1;10.50;69472;5131.527;-12824.183;219;500;168.3;100;100.3;0;0.9;29.0;-1.0;
14/06/2019 20:59:47;115;0;180.29;17;-31.38;5.28;8.7;10.60;69401;5131.527;-12824.183;219;500;320.8;100;99.9;0;0.9;28.7;-1.0;
14/06/2019 20:59:57;115;0;166.70;17;-68.29;2.70;9.4;10.60;69207;5131.527;-12824.183;219;500;471.3;100;99.9;0;0.9;28.7;-1.0;
14/06/2019 21:00:07;115;0;142.62;17;-57.59;8.26;8.4;10.60;68965;5131.527;-12824.183;219;500;503.0;100;99.9;0;0.9;28.7;-1.0;
14/06/2019 21:00:17;115;0;117.16;17;-41.85;7.56;5.5;10.70;68934;5131.527;-12824.183;219;500;503.0;100;99.9;0;0.9;29.1;-1.0;
14/06/2019 21:00:27;116;0;5.49;17;-73.16;32.37;1.5;10.70;68948;5131.527;-12824.183;219;500;506.9;100;99.7;0;0.9;29.1;-1.0;
14/06/2019 21:00:47;116;0;324.46;17;-31.89;2.75;1.3;10.80;68964;5130.593;-12824.644;219;500;506.9;100;99.6;0;0.9;29.0;-1.0;
14/06/2019 21:01:14;116;0;306.48;17;-7.16;2.29;1.2;10.90;68997;5130.590;-12824.644;219;500;506.9;100;99.7;0;0.9;29.0;-1.0;
14/06/2019 21:01:34;116;0;280.03;17;-8.60;2.09;1.2;11.00;69017;5130.586;-12824.648;219;500;506.9;100;99.7;0;0.9;29.0;-1.0;
14/06/2019 21:01:54;116;0;276.45;17;-23.75;2.37;1.3;11.10;69025;5130.583;-12824.650;219;500;506.9;100;99.7;0;0.9;29.1;-1.0;
14/06/2019 21:02:14;116;0;299.90;17;-22.24;4.29;1.3;11.20;69042;5130.581;-12824.651;219;500;508.9;100;99.9;0;0.9;29.1;-1.0;
14/06/2019 21:02:34;116;0;299.37;17;-10.61;3.68;1.3;11.40;69056;5130.577;-12824.651;227;500;505.0;100;99.7;0;0.9;29.1;-1.0;
14/06/2019 21:02:54;116;0;295.51;17;-7.44;6.24;1.1;11.50;69066;5130.568;-12824.652;227;500;508.9;100;99.7;0;0.9;29.0;-1.0;
14/06/2019 21:03:33;116;0;262.12;17;-7.02;-0.34;1.2;11.70;69076;5130.567;-12824.653;227;500;506.9;100;99.7;0;0.9;29.0;-1.0;
14/06/2019 21:03:53;116;0;285.02;17;-9.16;5.79;1.2;11.80;69093;5130.562;-12824.657;227;500;506.9;100;99.7;0;0.9;29.1;-1.0;
14/06/2019 21:04:13;116;0;301.30;17;-6.88;-1.17;1.2;12.00;69106;5130.509;-12824.676;227;500;508.9;100;99.7;0;0.9;29.1;-1.0;
14/06/2019 21:08:56;116;0;260.94;17;-13.74;2.47;1.2;13.00;69178;5130.508;-12824.675;227;500;508.9;100;99.7;0;0.9;29.1;-1.0;
14/06/2019 21:09:16;116;0;272.61;17;-7.97;0.48;1.2;13.10;69187;5130.504;-12824.681;227;500;506.9;100;99.6;0;0.9;29.0;-1.0;
14/06/2019 21:09:36;116;0;288.17;17;-6.35;3.12;1.2;13.10;69178;5130.499;-12824.683;227;500;508.9;100;99.7;0;0.9;29.1;-1.0;
14/06/2019 21:09:56;116;0;292.16;17;-26.03;1.14;1.3;13.20;69184;5130.496;-12824.686;227;500;508.9;100;99.7;0;0.9;29.0;-1.0;
14/06/2019 21:10:16;116;0;319.55;17;-31.31;3.63;1.5;13.30;69190;5130.492;-12824.687;227;500;506.9;100;99.9;0;0.9;29.1;-1.0;
14/06/2019 21:10:36;116;0;302.13;17;-8.36;3.55;1.2;13.40;69195;5130.488;-12824.687;227;500;506.9;100;99.7;0;0.9;29.1;-1.0;
14/06/2019 21:10:56;116;0;289.28;17;-4.43;5.58;1.2;13.50;69198;5130.484;-12824.689;227;500;506.9;100;99.7;0;0.9;29.1;-1.0;
14/06/2019 21:11:16;116;0;284.57;17;-9.04;6.43;1.2;13.60;69207;5130.480;-12824.689;227;500;508.9;100;99.7;0;0.9;29.1;-1.0;
14/06/2019 21:11:36;116;0;288.12;17;-22.11;7.14;1.3;13.60;69204;5130.474;-12824.693;227;500;506.9;100;99.7;0;0.9;29.1;-1.0;
14/06/2019 21:11:56;116;0;298.45;17;-14.83;-2.66;1.2;13.70;69216;5130.474;-12824.693;227;500;506.9;100;99.7;0;0.9;29.0;-1.0;
14/06/2019 21:12:16;116;0;286.76;17;-7.14;1.92;1.2;13.80;69206;5130.464;-12824.698;227;500;506.9;100;99.7;0;0.9;29.1;-1.0;
14/06/2019 21:12:45;116;0;289.49;17;-23.91;5.60;1.3;13.90;69221;5130.463;-12824.699;227;500;508.9;100;99.7;0;0.9;29.1;-1.0;
14/06/2019 21:13:05;116;0;281.09;17;-21.05;1.43;1.2;13.90;69235;5130.461;-12824.700;227;500;506.9;100;99.7;0;0.9;29.1;-1.0;
14/06/2019 21:13:25;116;0;294.51;17;-7.19;2.57;1.2;14.00;69225;5130.456;-12824.702;227;500;506.9;100;99.7;0;0.9;29.0;-1.0;
14/06/2019 21:13:45;116;0;292.76;17;-15.81;3.48;1.2;14.10;69225;5130.448;-12824.708;227;500;508.9;100;99.7;0;0.9;29.1;-1.0;
14/06/2019 21:14:17;116;0;298.31;17;-33.05;6.56;1.5;14.20;69228;5130.448;-12824.708;227;500;506.9;100;99.7;0;0.9;29.0;-1.0;
14/06/2019 21:14:37;116;0;286.45;17;-24.01;-0.64;1.2;14.30;69253;5130.445;-12824.710;227;500;506.9;100;99.7;0;0.9;29.1;-1.0;
14/06/2019 21:14:57;116;0;296.24;17;-18.97;4.51;1.2;14.40;69234;5130.430;-12824.720;227;500;506.9;100;99.7;0;0.9;29.0;-1.0;
14/06/2019 21:16:08;116;0;290.35;17;-29.99;4.51;1.4;14.70;69241;5130.429;-12824.720;227;500;506.9;100;99.7;0;0.9;29.0;-1.0;
14/06/2019 21:16:28;116;0;301.95;17;-12.22;5.24;1.2;14.90;69249;5130.425;-12824.722;227;500;506.9;100;99.7;0;0.9;29.1;-1.0;
14/06/2019 21:16:48;116;0;274.00;17;-6.12;3.87;1.2;14.90;69242;5130.360;-12824.760;227;500;506.9;100;99.7;0;0.9;29.0;-1.0;
14/06/2019 21:22:24;116;0;318.14;17;-8.44;7.30;1.2;15.40;69288;5130.359;-12824.760;227;500;506.9;100;99.7;0;0.9;29.1;-1.0;
14/06/2019 21:22:44;116;0;303.18;17;-24.06;3.54;1.4;15.40;69294;5130.356;-12824.765;227;500;506.9;100;99.7;0;0.9;29.0;-1.0;
14/06/2019 21:23:04;116;0;294.07;17;-29.46;2.90;1.3;15.40;69301;5130.353;-12824.765;227;500;506.9;100;99.7;0;0.9;29.1;-1.0;
14/06/2019 21:23:24;116;0;293.73;17;-8.02;4.45;1.1;15.40;69298;5130.349;-12824.766;227;500;506.9;100;99.7;0;0.9;29.1;-1.0;
14/06/2019 21:23:44;116;0;271.54;17;-23.31;-3.42;1.3;15.40;69305;5130.345;-12824.768;227;500;506.9;100;99.7;0;0.9;29.1;-1.0;
14/06/2019 21:24:04;116;0;289.78;17;-5.88;0.75;1.1;15.40;69292;5130.342;-12824.769;227;500;506.9;100;99.7;0;0.9;29.1;-1.0;
14/06/2019 21:24:24;116;0;309.68;17;-5.58;2.90;1.2;15.40;69303;5130.337;-12824.770;227;500;508.9;100;99.7;0;0.9;29.1;-1.0;
14/06/2019 21:24:44;116;0;292.35;17;-6.83;2.37;1.2;15.50;69302;5130.332;-12824.774;227;500;508.9;100;99.7;0;0.9;29.0;-1.0;
14/06/2019 21:25:04;116;0;302.19;17;-4.74;1.49;1.2;15.50;69301;5130.330;-12824.777;227;500;506.9;100;99.7;0;0.9;29.0;-1.0;
14/06/2019 21:25:24;116;0;298.69;17;-15.15;1.20;1.2;15.50;69310;5130.322;-12824.784;227;500;508.9;100;99.7;0;0.9;29.0;-1.0;
14/06/2019 21:26:02;116;0;292.97;17;-16.47;2.95;1.2;15.50;69317;5130.317;-12824.786;227;500;508.9;100;99.7;0;0.9;29.0;-1.0;
14/06/2019 21:26:22;116;0;301.67;17;-9.10;0.21;1.1;15.50;69308;5130.310;-12824.790;227;500;506.9;100;99.7;0;0.9;29.1;-1.0;
14/06/2019 21:26:55;110;0;315.69;17;-7.96;4.27;1.2;15.50;69322;5130.310;-12824.790;227;-300;404.0;100;99.7;0;0.9;29.1;-1.0;
14/06/2019 21:27:05;110;0;316.55;17;-4.53;3.49;1.1;15.50;69550;5130.310;-12824.790;227;-300;261.4;100;99.7;0;0.9;29.0;-1.0;
14/06/2019 21:27:15;110;0;316.53;17;-10.82;3.26;1.2;15.50;69737;5130.310;-12824.790;227;-300;118.8;100;99.7;0;0.9;29.0;-1.0;
14/06/2019 21:27:25;110;0;316.66;17;-15.75;-0.55;1.2;15.50;69980;5130.310;-12824.790;227;-300;-35.6;100;99.7;0;0.9;28.9;-1.0;
14/06/2019 21:27:35;110;0;325.05;17;-39.87;-0.49;2.0;15.50;70224;5130.310;-12824.790;227;-300;-225.7;97;96.9;0;0.9;29.0;-1.0;
14/06/2019 21:27:45;110;0;328.84;17;-58.78;1.74;4.0;15.50;70551;5130.310;-12824.790;227;-300;-301.0;80;79.9;0;0.9;29.0;-1.0;
14/06/2019 21:27:55;110;0;320.01;17;-49.81;3.70;7.5;15.50;70633;5130.310;-12824.790;227;-300;-301.0;73;73.0;0;0.9;29.0;-1.0;
14/06/2019 21:28:05;100;0;312.37;17;-40.21;5.37;11.5;15.50;70624;5130.310;-12824.790;227;-300;-301.0;73;73.0;0;0.9;29.0;-1.0;
14/06/2019 21:28:25;100;0;305.72;17;-28.65;4.47;17.0;15.50;70575;5130.310;-12824.790;227;-300;-299.0;73;73.0;45;45.1;29.0;0.0;
14/06/2019 21:28:45;100;0;281.21;17;-23.10;26.13;21.6;15.40;70533;5130.310;-12824.790;227;-300;-297.0;73;73.0;27;26.6;29.0;0.0;
14/06/2019 21:29:05;100;0;262.08;17;-23.49;15.53;25.3;15.30;70490;5130.310;-12824.790;227;-300;-297.0;73;72.9;15;14.4;29.0;0.0;
14/06/2019 21:29:25;100;0;255.46;17;-24.91;9.63;28.9;15.20;70438;5130.310;-12824.790;227;-300;-297.0;73;72.9;15;14.0;29.0;0.0;
14/06/2019 21:29:45;100;0;245.37;17;-24.42;9.65;32.8;15.20;70387;5130.310;-12824.790;227;-300;-297.0;73;73.0;12;12.2;29.0;0.0;
14/06/2019 21:30:05;100;0;232.74;17;-24.11;8.34;36.4;15.10;70332;5130.310;-12824.790;227;-300;-297.0;73;72.9;8;8.1;29.0;0.0;
14/06/2019 21:30:25;100;0;215.05;17;-23.89;6.48;40.2;15.00;70289;5130.310;-12824.790;227;-300;-295.0;73;72.9;2;1.8;29.1;0.0;
14/06/2019 21:30:45;100;0;201.54;17;-24.37;3.77;43.8;14.90;70251;5130.310;-12824.790;227;-300;-295.0;73;72.9;2;1.4;29.0;0.0;
14/06/2019 21:31:05;100;0;193.12;17;-24.42;3.77;47.6;14.70;70217;5130.310;-12824.790;227;-300;-295.0;73;72.9;0;-0.5;29.0;0.0;
14/06/2019 21:31:25;100;0;183.83;17;-24.03;2.84;51.4;14.60;70189;5130.310;-12824.790;227;-300;-297.0;73;72.9;-2;-1.8;29.0;0.0;
14/06/2019 21:31:45;100;0;173.97;17;-24.63;2.23;55.0;14.60;70156;5130.310;-12824.790;227;-300;-295.0;73;72.9;-4;-4.1;29.0;0.0;
14/06/2019 21:32:05;100;0;172.41;17;-24.68;1.28;58.7;14.50;70153;5130.310;-12824.790;227;-300;-295.0;73;72.9;-2;-1.8;29.1;0.0;
14/06/2019 21:32:25;100;0;166.24;17;-23.82;2.69;62.5;14.40;70124;5130.310;-12824.790;227;-300;-295.0;73;72.9;-4;-4.1;29.1;0.0;
14/06/2019 21:32:45;100;0;153.19;17;-23.96;1.15;66.2;14.30;70108;5130.310;-12824.790;227;-300;-295.0;73;72.9;-11;-10.8;29.1;0.0;
14/06/2019 21:33:05;100;0;147.70;17;-24.22;-1.99;69.7;14.20;70085;5130.310;-12824.790;227;-300;-295.0;73;72.9;-13;-13.5;29.1;0.0;
14/06/2019 21:33:25;100;0;148.00;17;-24.01;-3.18;73.2;14.10;70074;5130.310;-12824.790;227;-300;-295.0;73;72.9;-12;-12.2;29.0;0.0;
14/06/2019 21:33:45;100;0;145.43;17;-23.42;-1.95;76.6;14.00;70056;5130.310;-12824.790;227;-300;-297.0;73;72.9;-16;-15.8;29.1;0.0;
14/06/2019 21:34:05;100;0;142.11;17;-23.26;-4.14;79.9;14.00;70040;5130.310;-12824.790;227;-300;-295.0;73;72.9;-19;-19.0;29.1;0.0;
14/06/2019 21:34:25;100;0;151.69;17;-23.22;-5.47;83.1;13.90;70025;5130.310;-12824.790;227;-300;-295.0;73;72.9;-15;-14.9;29.1;0.0;
14/06/2019 21:34:45;100;0;147.53;17;-22.65;-3.05;86.2;13.80;70007;5130.310;-12824.790;227;-300;-295.0;73;72.9;-21;-21.2;29.0;0.0;
14/06/2019 21:35:05;100;0;144.19;17;-22.61;-6.48;89.2;13.70;69988;5130.310;-12824.790;227;-300;-295.0;73;72.9;-25;-24.8;29.1;0.0;
14/06/2019 21:35:25;100;0;139.25;17;-21.37;-8.29;92.1;13.60;69982;5130.310;-12824.790;227;-300;-295.0;73;72.7;-30;-29.8;29.1;0.0;
14/06/2019 21:35:45;100;0;140.94;17;-21.74;-10.75;94.8;13.50;69955;5130.310;-12824.790;227;-300;-293.1;73;72.9;-29;-28.9;29.1;0.0;
14/06/2019 21:36:05;100;0;150.22;17;-21.30;-9.73;97.4;13.50;69945;5130.310;-12824.790;227;-300;-293.1;73;72.9;-23;-23.0;29.1;0.0;
14/06/2019 21:36:25;100;0;153.77;17;-20.64;-6.83;100.0;13.40;69931;5130.310;-12824.790;227;-300;-295.0;73;72.9;-23;-22.6;29.1;0.0;
14/06/2019 21:36:45;100;0;151.45;17;-21.22;-7.08;102.5;13.30;69920;5130.310;-12824.790;227;-300;-295.0;73;72.9;-25;-24.8;29.1;0.0;
14/06/2019 21:37:05;100;0;158.47;17;-20.65;-8.42;105.1;13.20;69895;5130.310;-12824.790;227;-300;-295.0;73;72.7;-22;-22.1;29.1;0.0;
14/06/2019 21:37:25;100;0;165.07;17;-20.71;-6.56;107.7;13.20;69879;5130.310;-12824.790;227;-300;-295.0;73;72.9;-19;-19.0;29.0;0.0;
14/06/2019 21:37:45;100;0;168.69;17;-20.32;-4.80;110.2;13.10;69875;5130.310;-12824.790;227;-300;-295.0;73;73.0;-20;-19.9;29.1;0.0;
14/06/2019 21:38:05;100;0;168.43;17;-20.29;-5.86;112.8;13.00;69860;5130.310;-12824.790;227;-300;-295.0;73;72.9;-21;-21.2;29.0;0.0;
14/06/2019 21:38:25;100;0;169.44;17;-20.32;-6.39;115.2;12.90;69856;5130.310;-12824.790;227;-300;-295.0;73;72.9;-21;-21.7;29.1;0.0;
14/06/2019 21:38:45;100;0;170.82;17;-20.35;-6.46;117.6;12.80;69840;5130.310;-12824.790;227;-300;-293.1;73;72.9;-21;-21.7;29.0;0.0;
14/06/2019 21:39:05;100;0;169.20;17;-20.39;-6.81;120.2;12.80;69832;5130.310;-12824.790;227;-300;-295.0;73;72.7;-22;-22.1;29.0;0.0;
14/06/2019 21:39:25;100;0;161.81;17;-20.27;-7.15;122.7;12.70;69818;5130.310;-12824.790;227;-300;-295.0;73;72.9;-27;-27.1;29.1;0.0;
14/06/2019 21:39:45;100;0;158.43;17;-20.47;-9.55;125.2;12.70;69816;5130.310;-12824.790;227;-300;-293.1;73;72.7;-27;-28.0;29.0;0.0;
14/06/2019 21:40:05;100;0;158.69;17;-20.16;-9.61;127.6;12.60;69816;5130.310;-12824.790;227;-300;-293.1;73;72.9;-26;-25.7;29.1;0.0;
14/06/2019 21:40:25;100;0;149.94;17;-20.28;-8.35;130.0;12.50;69794;5130.310;-12824.790;227;-300;-295.0;73;72.9;-31;-31.6;29.1;0.0;
14/06/2019 21:40:45;100;0;152.41;17;-19.63;-11.49;132.4;12.50;69790;5130.310;-12824.790;227;-300;-293.1;73;72.7;-27;-26.6;29.1;0.0;
14/06/2019 21:41:05;100;0;151.58;17;-19.76;-8.74;134.8;12.40;69772;5130.310;-12824.790;227;-300;-293.1;73;72.9;-27;-26.2;29.0;0.0;
14/06/2019 21:41:25;100;0;153.34;17;-19.76;-8.85;136.9;12.30;69760;5130.310;-12824.790;227;-300;-293.1;73;72.9;-25;-24.8;29.1;0.0;
14/06/2019 21:41:45;100;0;157.45;17;-19.83;-7.95;139.1;12.30;69750;5130.310;-12824.790;227;-300;-293.1;73;72.9;-23;-23.0;29.0;0.0;
14/06/2019 21:42:05;100;0;159.18;17;-19.61;-7.12;141.2;12.20;69740;5130.310;-12824.790;227;-300;-293.1;73;72.9;-23;-22.1;29.0;43.3;
14/06/2019 21:42:25;100;0;157.69;17;-19.61;-7.04;143.4;12.10;69731;5130.310;-12824.790;227;-300;-293.1;73;72.9;-25;-24.8;29.0;41.0;
14/06/2019 21:42:45;100;0;158.68;17;-19.53;-8.44;145.6;12.10;69724;5130.310;-12824.790;227;-300;-293.1;73;72.9;-24;-23.9;29.0;39.0;
14/06/2019 21:43:05;100;0;158.74;17;-19.57;-7.55;147.8;12.00;69708;5130.310;-12824.790;227;-300;-293.1;73;72.9;-25;-24.8;29.0;36.5;
14/06/2019 21:43:25;100;0;159.72;17;-19.41;-8.39;150.0;11.90;69699;5130.310;-12824.790;227;-300;-295.0;73;72.9;-24;-23.9;29.1;34.4;
14/06/2019 21:43:45;100;0;160.55;17;-18.98;-7.50;152.2;11.90;69684;5130.310;-12824.790;227;-300;-293.1;73;72.9;-24;-23.0;29.1;32.1;
14/06/2019 21:44:05;100;0;159.92;17;-18.86;-7.37;154.4;11.80;69667;5130.310;-12824.790;227;-300;-293.1;73;72.7;-25;-24.8;29.1;29.9;
14/06/2019 21:44:25;100;0;160.99;17;-18.84;-8.50;156.5;11.80;69661;5130.310;-12824.790;227;-300;-293.1;73;72.7;-24;-23.5;29.0;27.6;
14/06/2019 21:44:45;100;0;163.13;17;-18.97;-7.37;158.6;11.70;69648;5130.310;-12824.790;227;-300;-293.1;73;72.9;-22;-22.1;29.1;25.4;
14/06/2019 21:45:06;100;0;164.44;17;-18.89;-6.44;160.6;11.60;69635;5130.310;-12824.790;227;-300;-293.1;73;72.9;-22;-21.2;29.1;23.2;
14/06/2019 21:45:26;100;0;165.16;17;-19.04;-6.48;162.6;11.60;69630;5130.310;-12824.790;227;-300;-295.0;73;72.7;-22;-21.2;29.1;21.2;
14/06/2019 21:45:46;100;0;166.48;17;-19.06;-6.45;164.7;11.50;69619;5130.310;-12824.790;227;-300;-293.1;73;72.9;-22;-21.2;29.0;19.2;
14/06/2019 21:46:06;118;0;167.27;17;-18.95;-6.45;166.7;11.40;69616;5130.310;-12824.790;227;150;-277.2;57;56.8;0;0.9;29.1;17.0;
14/06/2019 21:46:16;118;0;137.19;17;2.34;4.14;167.5;11.40;69529;5130.310;-12824.790;227;150;-120.8;57;57.1;0;0.9;28.5;17.0;
14/06/2019 21:46:26;118;0;137.03;17;19.78;3.76;167.2;11.40;69326;5130.310;-12824.790;227;150;33.7;57;57.1;0;0.9;28.5;-1.0;
14/06/2019 21:46:36;118;0;137.06;17;23.81;3.87;166.3;11.40;69061;5130.310;-12824.790;227;150;156.4;57;57.1;0;0.9;28.5;-1.0;
14/06/2019 21:46:46;118;0;175.61;17;24.85;3.84;165.0;11.40;68894;5130.310;-12824.790;227;150;154.5;57;57.1;0;0.9;29.0;-1.0;
14/06/2019 21:46:56;118;0;175.81;17;27.10;3.97;163.4;11.30;68886;5130.310;-12824.790;227;150;156.4;57;57.1;0;0.9;29.0;-1.0;
14/06/2019 21:47:06;117;0;176.05;17;27.92;3.88;161.4;11.30;68880;5130.310;-12824.790;227;150;156.4;57;57.1;0;0.9;29.1;-1.0;
14/06/2019 21:47:26;117;0;174.62;17;28.12;4.11;157.2;11.20;68880;5130.310;-12824.790;227;150;156.4;57;57.1;18;18.1;29.1;-1.0;
14/06/2019 21:47:46;117;0;181.10;17;27.29;12.51;152.3;11.20;68881;5130.310;-12824.790;227;150;156.4;57;56.9;16;15.8;29.1;-1.0;
14/06/2019 21:48:06;117;0;186.76;17;27.69;10.62;148.0;11.10;68873;5130.310;-12824.790;227;150;156.4;57;56.9;15;14.4;29.1;-1.0;
14/06/2019 21:48:26;117;0;191.91;17;27.53;10.02;143.5;11.10;68878;5130.310;-12824.790;227;150;156.4;57;57.1;14;14.0;29.1;-1.0;
14/06/2019 21:48:46;117;0;195.31;17;27.79;10.01;138.9;11.00;68874;5130.310;-12824.790;227;150;158.4;57;56.9;14;14.0;29.1;-1.0;
14/06/2019 21:49:06;117;0;198.66;17;27.49;10.19;134.5;11.00;68883;5130.310;-12824.790;227;150;158.4;57;56.9;14;14.0;29.0;-1.0;
14/06/2019 21:49:26;117;0;205.95;17;26.32;9.97;130.1;10.90;68888;5130.310;-12824.790;227;150;158.4;57;56.9;11;10.8;29.0;-1.0;
14/06/2019 21:49:46;117;0;209.18;17;26.17;8.02;126.2;10.90;68913;5130.310;-12824.790;227;150;156.4;57;57.1;11;10.4;29.1;-1.0;
14/06/2019 21:50:06;117;0;211.62;17;25.93;8.10;122.4;10.80;68905;5130.310;-12824.790;227;150;156.4;57;56.9;11;10.4;29.0;-1.0;
14/06/2019 21:50:26;117;0;215.34;17;25.52;7.97;118.8;10.80;68916;5130.310;-12824.790;227;150;158.4;57;56.9;11;10.4;29.0;-1.0;
14/06/2019 21:50:46;117;0;214.73;17;26.34;8.11;115.1;10.80;68919;5130.310;-12824.790;227;150;156.4;57;56.9;12;12.2;29.1;-1.0;
14/06/2019 21:51:06;117;0;214.23;17;25.75;9.30;111.3;10.70;68923;5130.310;-12824.790;227;150;156.4;57;57.1;13;13.1;29.1;-1.0;
14/06/2019 21:51:26;117;0;211.55;17;26.11;10.00;107.6;10.70;68923;5130.310;-12824.790;227;150;156.4;57;57.1;15;14.9;29.1;-1.0;
14/06/2019 21:51:46;117;0;213.57;17;25.07;10.64;103.8;10.70;68939;5130.310;-12824.790;227;150;156.4;57;57.1;13;12.6;29.0;-1.0;
14/06/2019 21:52:06;117;0;215.83;17;25.06;8.98;100.3;10.70;68945;5130.310;-12824.790;227;150;158.4;57;56.9;12;12.2;29.0;-1.0;
14/06/2019 21:52:26;117;0;212.74;17;25.13;9.13;96.7;10.60;68943;5130.310;-12824.790;227;150;158.4;57;56.9;14;14.4;29.1;-1.0;
14/06/2019 21:52:46;117;0;218.00;17;24.04;10.56;93.3;10.60;68958;5130.310;-12824.790;227;150;156.4;57;56.9;10;9.5;29.1;-1.0;
14/06/2019 21:53:06;117;0;218.09;17;23.32;7.50;90.3;10.60;68954;5130.310;-12824.790;227;150;156.4;57;57.1;10;9.0;29.1;-1.0;
14/06/2019 21:53:26;117;0;217.08;17;22.94;7.46;87.5;10.60;68961;5130.310;-12824.790;227;150;156.4;57;57.1;11;11.3;29.1;-1.0;
14/06/2019 21:53:46;117;0;218.53;17;22.12;8.93;84.7;10.50;68967;5130.310;-12824.790;227;150;156.4;57;56.9;10;9.5;29.1;-1.0;
14/06/2019 21:54:06;117;0;212.71;17;22.57;7.91;82.1;10.50;68977;5130.310;-12824.790;227;150;156.4;57;57.1;14;14.4;29.1;-1.0;
14/06/2019 21:54:26;117;0;211.92;17;21.59;10.76;79.3;10.50;68994;5130.310;-12824.790;227;150;156.4;57;57.1;13;13.1;29.0;-1.0;
14/06/2019 21:54:46;117;0;217.23;17;20.65;9.26;76.7;10.50;69004;5130.310;-12824.790;227;150;158.4;57;57.1;9;9.0;29.0;-1.0;
14/06/2019 21:55:06;117;0;217.52;17;20.79;7.22;74.2;10.50;69010;5130.310;-12824.790;227;150;158.4;57;56.9;9;8.6;29.0;-1.0;
14/06/2019 21:55:26;117;0;217.50;17;20.98;7.36;71.6;10.50;69021;5130.310;-12824.790;227;150;156.4;57;56.9;10;9.9;29.1;-1.0;
14/06/2019 21:55:46;117;0;216.98;17;20.53;8.55;68.8;10.50;69009;5130.310;-12824.790;227;150;158.4;57;57.1;10;10.8;29.0;-1.0;
14/06/2019 21:56:06;117;0;221.04;17;19.96;8.55;66.3;10.50;69023;5130.310;-12824.790;227;150;156.4;57;56.9;7;6.8;29.0;-1.0;
14/06/2019 21:56:26;117;0;222.53;17;19.81;6.52;63.7;10.50;69030;5130.310;-12824.790;227;150;156.4;57;56.9;6;5.9;29.0;-1.0;
14/06/2019 21:56:46;117;0;226.99;17;19.84;5.84;61.3;10.50;69036;5130.310;-12824.790;227;150;156.4;57;56.9;4;4.1;29.1;-1.0;
14/06/2019 21:57:06;117;0;226.40;17;19.97;4.84;58.9;10.50;69042;5130.310;-12824.790;227;150;156.4;57;56.9;5;5.0;29.1;-1.0;
14/06/2019 21:57:26;117;0;221.97;17;20.33;6.27;56.4;10.50;69042;5130.310;-12824.790;227;150;158.4;57;57.1;8;8.1;29.0;-1.0;
14/06/2019 21:57:46;117;0;222.99;17;19.39;7.60;53.7;10.50;69052;5130.310;-12824.790;227;150;156.4;57;56.9;6;5.9;29.1;-1.0;
14/06/2019 21:58:06;117;0;227.36;17;19.35;5.83;51.3;10.50;69057;5130.310;-12824.790;227;150;158.4;57;56.9;2;1.8;29.0;-1.0;
14/06/2019 21:58:26;117;0;228.13;17;19.44;3.80;48.9;10.40;69057;5130.310;-12824.790;227;150;158.4;57;57.1;2;1.4;29.1;-1.0;
14/06/2019 21:58:46;117;0;229.09;17;19.11;3.69;46.5;10.40;69063;5130.310;-12824.790;227;150;156.4;57;56.9;1;0.5;29.0;-1.0;
14/06/2019 21:59:06;117;0;227.94;17;19.14;3.21;44.2;10.40;69067;5130.310;-12824.790;227;150;156.4;57;56.9;2;1.8;29.0;-1.0;
14/06/2019 21:59:26;117;0;229.03;17;19.15;4.51;42.2;10.40;69085;5130.310;-12824.790;227;150;156.4;57;56.9;1;0.9;29.1;-1.0;
14/06/2019 21:59:46;117;0;227.73;17;18.96;3.30;40.0;10.40;69090;5130.310;-12824.790;227;150;156.4;57;56.9;1;0.5;29.0;-1.0;
14/06/2019 22:00:06;117;0;227.14;17;18.75;3.40;37.9;10.40;69093;5130.310;-12824.790;227;150;160.4;57;57.1;1;0.0;29.1;-1.0;
14/06/2019 22:00:26;117;0;229.71;17;18.63;3.39;35.9;10.50;69106;5130.310;-12824.790;227;150;158.4;57;56.9;0;0.0;29.0;-1.0;
14/06/2019 22:00:46;117;0;232.21;17;18.52;2.98;33.9;10.50;69109;5130.310;-12824.790;227;150;156.4;57;56.9;-2;-1.8;29.1;-1.0;
14/06/2019 22:01:06;117;0;228.38;17;18.55;2.10;31.9;10.50;69118;5130.310;-12824.790;227;150;156.4;57;56.9;0;0.0;29.1;-1.0;
14/06/2019 22:01:26;117;0;226.78;17;18.44;3.61;29.9;10.50;69127;5130.310;-12824.790;227;150;158.4;57;57.1;0;0.9;29.1;-1.0;
14/06/2019 22:01:46;117;0;231.42;17;18.17;3.70;28.0;10.50;69143;5130.310;-12824.790;227;150;158.4;57;56.9;-4;-4.1;29.0;-1.0;
14/06/2019 22:02:06;117;0;224.11;17;17.69;1.09;26.0;10.50;69170;5130.310;-12824.790;227;150;158.4;57;56.9;0;0.0;29.1;-1.0;
14/06/2019 22:02:26;117;0;221.60;17;17.10;3.56;24.2;10.50;69195;5130.310;-12824.790;227;150;158.4;57;56.9;0;0.5;29.0;-1.0;
14/06/2019 22:02:46;117;0;219.51;17;17.55;3.42;22.5;10.50;69215;5130.310;-12824.790;227;150;158.4;57;57.1;0;0.5;29.0;-1.0;
14/06/2019 22:03:06;117;0;216.32;17;16.52;3.42;20.7;10.50;69232;5130.310;-12824.790;227;150;158.4;57;57.1;0;0.5;29.0;-1.0;
14/06/2019 22:03:26;117;0;216.34;17;16.35;3.58;19.0;10.60;69263;5130.310;-12824.790;227;150;158.4;57;56.9;0;0.5;29.1;-1.0;
14/06/2019 22:03:46;117;0;216.47;17;16.23;3.52;17.2;10.60;69300;5130.310;-12824.790;227;150;158.4;57;56.9;-1;-1.4;29.0;-1.0;
14/06/2019 22:04:06;117;0;216.51;17;16.39;2.30;15.5;10.60;69313;5130.310;-12824.790;227;150;156.4;57;57.1;-1;-1.8;29.1;-1.0;
