Timestamp;NavState;SecurityLevel;Heading;Declination;Pitch;Roll;Depth;Temperature;Pa;Lat;Lon;DesiredH;BallastCmd;BallastPos;LinCmd;LinPos;AngCmd;AngPos;Voltage;Altitude;
15/06/2019 23:23:21;117;0;273.88;17;16.00;5.05;8.6;11.00;69519;5122.557;-12839.740;313;150;158.4;57;57.1;4;3.2;28.8;-1.0;
15/06/2019 23:23:31;110;0;276.38;17;16.04;4.83;7.9;10.90;69522;5122.557;-12839.740;313;-300;-49.5;73;73.3;0;-0.9;28.8;-1.0;
15/06/2019 23:23:41;110;0;285.23;17;-9.61;3.32;7.3;11.00;70012;5122.557;-12839.740;313;-300;-303.0;73;73.0;0;-0.9;28.7;-1.0;
15/06/2019 23:23:51;110;0;288.88;17;-22.62;3.59;8.2;11.00;70319;5122.557;-12839.740;313;-300;-301.0;73;73.0;0;-0.5;28.8;-1.0;
15/06/2019 23:24:02;100;0;286.99;17;-27.09;3.23;9.7;11.00;70309;5122.557;-12839.740;313;-300;-305.0;73;73.0;0;-0.9;28.8;-1.0;
15/06/2019 23:24:22;100;0;274.65;17;-26.85;3.42;14.0;11.10;70324;5122.557;-12839.740;313;-300;-305.0;73;73.0;-5;-5.0;28.8;0.0;
15/06/2019 23:24:42;100;0;275.35;17;-27.37;0.90;18.8;11.10;70307;5122.557;-12839.740;313;-300;-305.0;73;72.9;-6;-5.9;28.8;0.0;
15/06/2019 23:25:02;100;0;280.43;17;-25.78;0.86;23.6;11.20;70290;5122.557;-12839.740;313;-300;-306.9;73;73.0;-4;-3.6;28.8;0.0;
15/06/2019 23:25:22;100;0;280.62;17;-25.10;2.22;28.1;11.20;70266;5122.557;-12839.740;313;-300;-305.0;73;73.0;-6;-6.3;28.8;0.0;
15/06/2019 23:25:42;100;0;270.35;17;-25.64;0.44;32.2;11.20;70237;5122.557;-12839.740;313;-300;-305.0;73;73.0;-13;-13.5;28.8;0.0;
15/06/2019 23:26:02;100;0;264.76;17;-25.56;-2.87;36.3;11.20;70222;5122.557;-12839.740;313;-300;-306.9;73;73.0;-15;-14.9;28.8;0.0;
15/06/2019 23:26:22;100;0;258.36;17;-26.25;-3.50;40.5;11.20;70191;5122.557;-12839.740;313;-300;-305.0;73;73.0;-17;-17.1;28.8;0.0;
15/06/2019 23:26:42;100;0;249.79;17;-25.47;-4.55;44.6;11.20;70155;5122.557;-12839.740;313;-300;-305.0;73;73.0;-22;-22.1;28.8;0.0;
15/06/2019 23:27:02;100;0;252.08;17;-25.03;-6.90;48.5;11.20;70132;5122.557;-12839.740;313;-300;-305.0;73;73.0;-18;-18.1;28.8;0.0;
15/06/2019 23:27:22;100;0;245.11;17;-25.49;-4.45;52.5;11.20;70106;5122.557;-12839.740;313;-300;-305.0;73;73.0;-24;-23.9;28.8;0.0;
15/06/2019 23:27:42;100;0;239.80;17;-25.23;-7.61;56.6;11.20;70093;5122.557;-12839.740;313;-300;-305.0;73;73.0;-28;-28.4;28.8;0.0;
15/06/2019 23:28:02;100;0;249.34;17;-24.87;-9.74;60.5;11.20;70066;5122.557;-12839.740;313;-300;-303.0;73;73.0;-22;-22.1;28.8;0.0;
15/06/2019 23:28:22;100;0;250.49;17;-25.29;-6.32;64.4;11.20;70058;5122.557;-12839.740;313;-300;-306.9;73;73.0;-22;-21.2;28.8;0.0;
15/06/2019 23:28:42;100;0;251.84;17;-24.87;-6.32;68.1;11.20;70044;5122.557;-12839.740;313;-300;-305.0;73;73.0;-22;-21.7;28.8;0.0;
15/06/2019 23:29:02;100;0;249.56;17;-25.20;-6.28;71.9;11.20;70045;5122.557;-12839.740;313;-300;-306.9;73;73.0;-24;-23.9;28.8;0.0;
15/06/2019 23:29:22;100;0;245.34;17;-25.04;-7.83;75.8;11.20;70027;5122.557;-12839.740;313;-300;-305.0;73;73.0;-26;-26.2;28.8;0.0;
15/06/2019 23:29:42;100;0;242.59;17;-24.96;-8.66;79.7;11.20;70016;5122.557;-12839.740;313;-300;-305.0;73;73.0;-27;-27.1;28.8;0.0;
15/06/2019 23:30:02;100;0;241.33;17;-24.91;-9.18;83.3;11.20;69988;5122.557;-12839.740;313;-300;-305.0;73;73.0;-27;-27.5;28.8;0.0;
15/06/2019 23:30:22;100;0;238.21;17;-25.22;-9.26;86.9;11.10;69968;5122.557;-12839.740;313;-300;-305.0;73;73.0;-28;-28.0;28.8;0.0;
15/06/2019 23:30:42;100;0;228.52;17;-25.48;-9.64;90.5;11.10;69949;5122.557;-12839.740;313;-300;-306.9;73;73.0;-33;-32.9;28.8;0.0;
15/06/2019 23:31:02;100;0;239.30;17;-23.82;-12.15;94.2;11.10;69933;5122.557;-12839.740;313;-300;-305.0;73;73.0;-24;-23.5;28.8;0.0;
15/06/2019 23:31:22;100;0;250.80;17;-23.37;-7.20;97.6;11.10;69913;5122.557;-12839.740;313;-300;-305.0;73;73.0;-18;-18.1;28.8;0.0;
15/06/2019 23:31:42;100;0;253.40;17;-22.89;-4.43;100.8;11.10;69903;5122.557;-12839.740;313;-300;-305.0;73;73.0;-19;-19.0;28.8;0.0;
15/06/2019 23:32:02;100;0;260.25;17;-22.60;-5.47;104.0;11.00;69870;5122.557;-12839.740;313;-300;-305.0;73;72.9;-17;-17.1;28.8;0.0;
15/06/2019 23:32:22;100;0;268.48;17;-21.60;-4.15;107.1;11.00;69860;5122.557;-12839.740;313;-300;-305.0;73;73.0;-15;-14.9;28.9;0.0;
15/06/2019 23:32:42;100;0;271.05;17;-21.78;-3.01;110.2;11.00;69851;5122.557;-12839.740;313;-300;-306.9;73;73.0;-16;-15.8;28.8;0.0;
15/06/2019 23:33:02;100;0;274.46;17;-21.40;-4.17;113.2;11.00;69834;5122.557;-12839.740;313;-300;-305.0;73;73.0;-16;-16.2;28.9;0.0;
15/06/2019 23:33:22;100;0;275.94;17;-21.78;-4.16;116.2;10.90;69822;5122.557;-12839.740;313;-300;-305.0;73;73.0;-17;-17.1;28.8;0.0;
15/06/2019 23:33:42;100;0;276.81;17;-21.48;-4.67;119.3;10.90;69813;5122.557;-12839.740;313;-300;-306.9;73;73.0;-17;-17.6;28.8;0.0;
15/06/2019 23:34:02;100;0;280.35;17;-20.45;-4.50;122.5;10.90;69795;5122.557;-12839.740;313;-300;-305.0;73;73.0;-15;-14.4;28.8;0.0;
15/06/2019 23:34:22;100;0;273.18;17;-20.23;-2.99;125.4;10.80;69788;5122.557;-12839.740;313;-300;-305.0;73;73.0;-20;-19.9;28.8;0.0;
15/06/2019 23:34:42;100;0;266.27;17;-20.25;-5.97;128.3;10.80;69768;5122.557;-12839.740;313;-300;-305.0;73;73.0;-24;-23.9;28.8;0.0;
15/06/2019 23:35:02;100;0;262.58;17;-20.33;-7.90;131.1;10.80;69755;5122.557;-12839.740;313;-300;-305.0;73;73.0;-24;-24.4;28.8;0.0;
15/06/2019 23:35:22;100;0;261.05;17;-20.16;-8.00;133.8;10.80;69748;5122.557;-12839.740;313;-300;-305.0;73;73.0;-23;-23.0;28.8;0.0;
15/06/2019 23:35:42;100;0;265.00;17;-19.91;-7.09;136.5;10.70;69734;5122.557;-12839.740;313;-300;-305.0;73;73.0;-20;-19.4;28.8;0.0;
15/06/2019 23:36:02;100;0;268.92;17;-19.99;-5.29;139.2;10.70;69731;5122.557;-12839.740;313;-300;-305.0;73;73.0;-19;-19.0;28.8;0.0;
15/06/2019 23:36:22;100;0;273.02;17;-20.11;-5.27;141.5;10.70;69724;5122.557;-12839.740;313;-300;-305.0;73;73.0;-16;-15.8;28.8;0.0;
15/06/2019 23:36:42;100;0;273.96;17;-19.79;-3.56;144.0;10.60;69715;5122.557;-12839.740;313;-300;-305.0;73;73.0;-18;-18.1;28.8;0.0;
15/06/2019 23:37:02;100;0;273.61;17;-19.93;-5.24;146.4;10.60;69712;5122.557;-12839.740;313;-300;-305.0;73;73.0;-18;-18.5;28.8;0.0;
15/06/2019 23:37:22;100;0;274.25;17;-19.64;-5.22;148.7;10.60;69697;5122.557;-12839.740;313;-300;-305.0;73;73.0;-18;-18.5;28.8;0.0;
15/06/2019 23:37:42;100;0;276.85;17;-19.48;-5.31;151.2;10.50;69689;5122.557;-12839.740;313;-300;-305.0;73;73.0;-17;-16.7;28.8;0.0;
15/06/2019 23:38:02;100;0;276.21;17;-19.55;-4.16;153.6;10.50;69675;5122.557;-12839.740;313;-300;-305.0;73;72.9;-18;-18.1;28.8;0.0;
15/06/2019 23:38:22;100;0;277.20;17;-19.56;-5.18;156.0;10.50;69670;5122.557;-12839.740;313;-300;-305.0;73;73.0;-17;-17.1;28.8;0.0;
15/06/2019 23:38:42;100;0;277.71;17;-19.49;-4.26;158.3;10.50;69661;5122.557;-12839.740;313;-300;-305.0;73;73.0;-18;-18.1;28.8;0.0;
15/06/2019 23:39:02;100;0;275.34;17;-19.61;-5.14;160.6;10.40;69666;5122.557;-12839.740;313;-300;-305.0;73;73.0;-19;-19.0;28.8;0.0;
15/06/2019 23:39:22;100;0;274.75;17;-19.60;-5.71;162.9;10.40;69657;5122.557;-12839.740;313;-300;-305.0;73;73.0;-19;-19.4;28.8;0.0;
15/06/2019 23:39:42;100;0;274.79;17;-19.54;-5.84;165.3;10.40;69656;5122.557;-12839.740;313;-300;-305.0;73;73.0;-19;-19.4;28.8;0.0;
15/06/2019 23:40:02;100;0;271.95;17;-18.86;-5.66;167.9;10.30;69636;5122.557;-12839.740;313;-300;-305.0;73;73.0;-21;-21.2;28.8;0.0;
15/06/2019 23:40:22;100;0;271.61;17;-18.74;-6.74;170.4;10.30;69630;5122.557;-12839.740;313;-300;-305.0;73;72.9;-20;-19.9;28.8;0.0;
15/06/2019 23:40:42;100;0;271.16;17;-18.71;-5.55;172.9;10.30;69621;5122.557;-12839.740;313;-300;-306.9;73;73.0;-20;-19.4;28.8;43.9;
15/06/2019 23:41:02;100;0;270.66;17;-18.53;-5.64;175.3;10.20;69609;5122.557;-12839.740;313;-300;-305.0;73;73.0;-20;-19.4;28.8;41.4;
15/06/2019 23:41:22;100;0;271.44;17;-18.59;-5.32;177.6;10.20;69607;5122.557;-12839.740;313;-300;-305.0;73;72.9;-19;-19.0;28.8;39.1;
15/06/2019 23:41:42;100;0;275.01;17;-18.49;-5.14;179.8;10.20;69609;5122.557;-12839.740;313;-300;-305.0;73;72.9;-17;-16.7;28.8;36.8;
15/06/2019 23:42:02;100;0;278.54;17;-18.71;-4.63;182.0;10.10;69589;5122.557;-12839.740;313;-300;-305.0;73;73.0;-16;-15.8;28.8;34.5;
15/06/2019 23:42:22;100;0;285.40;17;-19.20;-4.06;184.1;10.10;69577;5122.557;-12839.740;313;-300;-305.0;73;72.9;-13;-13.1;28.8;32.3;
15/06/2019 23:42:42;100;0;290.14;17;-17.81;-2.60;186.4;10.10;69573;5122.557;-12839.740;313;-300;-305.0;73;73.0;-12;-11.7;28.8;30.0;
15/06/2019 23:43:02;100;0;291.38;17;-19.17;-1.65;188.5;10.10;69567;5122.557;-12839.740;313;-300;-305.0;73;73.0;-13;-13.1;28.8;27.8;
15/06/2019 23:43:22;100;0;292.78;17;-18.10;-2.92;190.6;10.00;69553;5122.557;-12839.740;313;-300;-305.0;73;73.0;-14;-14.4;28.8;25.7;
15/06/2019 23:43:42;100;0;291.75;17;-18.69;-3.48;192.6;10.00;69554;5122.557;-12839.740;313;-300;-305.0;73;73.0;-15;-14.9;28.8;23.7;
15/06/2019 23:44:02;100;0;295.62;17;-18.38;-3.47;194.6;10.00;69536;5122.557;-12839.740;313;-300;-305.0;73;73.0;-15;-14.4;28.8;21.5;
15/06/2019 23:44:22;100;0;295.80;17;-18.81;-3.43;196.8;9.90;69533;5122.557;-12839.740;313;-300;-305.0;73;73.0;-15;-14.4;28.8;19.4;
15/06/2019 23:44:42;118;0;296.49;17;-18.46;-3.26;198.8;9.90;69528;5122.557;-12839.740;313;150;-291.1;57;56.8;0;0.5;28.8;17.4;
15/06/2019 23:44:52;118;0;350.38;17;2.11;3.95;199.6;9.90;69436;5122.557;-12839.740;313;150;-134.7;57;57.1;0;0.5;28.3;17.4;
15/06/2019 23:45:02;118;0;329.39;17;19.42;3.36;199.3;9.90;69231;5122.557;-12839.740;313;150;21.8;57;57.1;0;0.5;28.2;-1.0;
15/06/2019 23:45:12;118;0;323.36;17;23.91;3.66;198.4;9.90;68977;5122.557;-12839.740;313;150;156.4;57;57.1;0;0.5;28.2;-1.0;
15/06/2019 23:45:22;118;0;272.36;17;24.50;3.81;197.1;9.80;68779;5122.557;-12839.740;313;150;156.4;57;57.1;0;0.5;28.8;-1.0;
15/06/2019 23:45:32;118;0;270.97;17;26.93;3.68;195.5;9.80;68778;5122.557;-12839.740;313;150;156.4;57;57.1;0;0.5;28.8;-1.0;
15/06/2019 23:45:42;117;0;268.65;17;27.72;3.48;193.6;9.80;68782;5122.557;-12839.740;313;150;156.4;57;57.1;0;0.5;28.8;-1.0;
15/06/2019 23:46:02;117;0;261.39;17;28.65;3.83;189.4;9.80;68779;5122.557;-12839.740;313;150;156.4;57;57.1;34;33.8;28.8;-1.0;
15/06/2019 23:46:22;117;0;265.89;17;27.78;20.27;184.4;9.80;68766;5122.557;-12839.740;313;150;158.4;57;57.1;25;24.4;28.8;-1.0;
15/06/2019 23:46:42;117;0;268.73;17;28.43;14.13;180.0;9.80;68765;5122.557;-12839.740;313;150;156.4;57;57.1;21;21.2;28.8;-1.0;
15/06/2019 23:47:02;117;0;268.62;17;28.18;13.22;175.2;9.70;68774;5122.557;-12839.740;313;150;156.4;57;57.1;21;20.8;28.8;-1.0;
15/06/2019 23:47:22;117;0;277.14;17;27.37;13.06;170.7;9.70;68766;5122.557;-12839.740;313;150;158.4;57;57.1;15;14.9;28.8;-1.0;
15/06/2019 23:47:42;117;0;282.26;17;27.11;9.56;166.3;9.70;68769;5122.557;-12839.740;313;150;156.4;57;57.1;14;13.5;28.8;-1.0;
15/06/2019 23:48:02;117;0;284.77;17;27.36;9.14;162.3;9.60;68777;5122.557;-12839.740;313;150;158.4;57;57.1;14;13.1;28.8;-1.0;
15/06/2019 23:48:22;117;0;292.32;17;27.29;9.11;157.9;9.60;68787;5122.557;-12839.740;313;150;158.4;57;57.1;11;10.8;28.8;-1.0;
15/06/2019 23:48:42;117;0;294.89;17;27.18;7.67;153.6;9.60;68800;5122.557;-12839.740;313;150;158.4;57;57.1;12;12.2;28.8;-1.0;
15/06/2019 23:49:02;117;0;298.00;17;27.40;9.19;149.0;9.60;68802;5122.557;-12839.740;313;150;158.4;57;57.1;12;12.6;28.8;-1.0;
15/06/2019 23:49:22;117;0;298.34;17;27.02;9.24;144.6;9.60;68809;5122.557;-12839.740;313;150;158.4;57;57.1;12;12.6;28.8;-1.0;
15/06/2019 23:49:42;117;0;301.66;17;26.84;9.20;140.3;9.50;68804;5122.557;-12839.740;313;150;156.4;57;57.1;11;10.4;28.8;-1.0;
15/06/2019 23:50:02;117;0;305.52;17;27.04;7.96;135.9;9.50;68811;5122.557;-12839.740;313;150;158.4;57;57.1;10;9.9;28.8;-1.0;
15/06/2019 23:50:22;117;0;305.74;17;26.65;7.89;131.3;9.50;68814;5122.557;-12839.740;313;150;156.4;57;57.1;10;10.4;28.8;-1.0;
15/06/2019 23:50:42;117;0;308.84;17;26.02;7.80;127.0;9.50;68812;5122.557;-12839.740;313;150;158.4;57;57.1;9;8.6;28.8;-1.0;
15/06/2019 23:51:02;117;0;312.61;17;25.07;6.86;123.2;9.50;68818;5122.557;-12839.740;313;150;158.4;57;57.1;7;6.8;28.8;-1.0;
15/06/2019 23:51:22;117;0;316.58;17;24.89;6.15;119.6;9.50;68837;5122.557;-12839.740;313;150;158.4;57;57.1;5;4.5;28.8;-1.0;
15/06/2019 23:51:42;117;0;306.12;17;25.12;4.76;116.1;9.50;68835;5122.557;-12839.740;313;150;158.4;57;57.1;12;12.6;28.8;-1.0;
15/06/2019 23:52:02;117;0;307.48;17;23.97;9.33;112.8;9.50;68851;5122.557;-12839.740;313;150;156.4;57;57.1;10;9.5;28.8;-1.0;
15/06/2019 23:52:22;117;0;308.42;17;24.29;7.30;109.3;9.50;68858;5122.557;-12839.740;313;150;156.4;57;57.1;8;8.1;28.8;-1.0;
15/06/2019 23:52:42;117;0;304.49;17;23.95;6.70;105.9;9.50;68861;5122.557;-12839.740;313;150;158.4;57;57.1;10;9.9;28.8;-1.0;
15/06/2019 23:53:02;117;0;302.21;17;23.64;8.14;102.5;9.50;68872;5122.557;-12839.740;313;150;158.4;57;57.1;10;10.4;28.8;-1.0;
15/06/2019 23:53:22;117;0;296.67;17;22.78;8.23;99.1;9.50;68883;5122.557;-12839.740;313;150;158.4;57;57.1;10;10.4;28.8;-1.0;
15/06/2019 23:53:42;117;0;301.11;17;21.84;8.04;96.2;9.50;68891;5122.557;-12839.740;313;150;158.4;57;57.1;8;8.1;28.8;-1.0;
15/06/2019 23:54:02;117;0;309.73;17;21.73;6.83;93.2;9.50;68902;5122.557;-12839.740;313;150;158.4;57;57.1;3;2.7;28.8;-1.0;
15/06/2019 23:54:22;117;0;309.14;17;21.02;4.20;90.5;9.50;68915;5122.557;-12839.740;313;150;158.4;57;57.1;4;4.1;28.8;-1.0;
15/06/2019 23:54:42;117;0;307.88;17;20.31;5.13;87.8;9.50;68924;5122.557;-12839.740;313;150;158.4;57;57.1;6;5.9;28.8;-1.0;
15/06/2019 23:55:02;117;0;306.12;17;19.77;6.10;85.6;9.50;68942;5122.557;-12839.740;313;150;158.4;57;57.1;6;5.9;28.8;-1.0;
15/06/2019 23:55:23;117;0;314.33;17;19.35;6.16;83.6;9.50;68942;5122.557;-12839.740;313;150;158.4;57;57.1;1;0.5;28.8;-1.0;
15/06/2019 23:55:43;117;0;323.15;17;19.13;2.99;81.6;9.50;68969;5122.557;-12839.740;313;150;158.4;57;57.1;-3;-3.2;28.8;-1.0;
15/06/2019 23:56:03;117;0;324.93;17;18.99;1.18;79.8;9.50;68968;5122.557;-12839.740;313;150;158.4;57;57.1;-1;-0.9;28.8;-1.0;
15/06/2019 23:56:23;117;0;327.55;17;18.95;3.01;77.8;9.50;68979;5122.557;-12839.740;313;150;158.4;57;57.1;-2;-1.8;28.8;-1.0;
15/06/2019 23:56:43;117;0;330.16;17;18.74;1.81;75.9;9.60;69006;5122.557;-12839.740;313;150;158.4;57;57.1;-3;-3.6;28.8;-1.0;
15/06/2019 23:57:03;117;0;327.73;17;18.88;1.01;74.0;9.60;69031;5122.557;-12839.740;313;150;158.4;57;57.1;-1;-0.9;28.9;-1.0;
15/06/2019 23:57:23;117;0;328.62;17;18.94;2.78;72.1;9.60;69036;5122.557;-12839.740;313;150;156.4;57;57.1;-2;-1.8;28.8;-1.0;
15/06/2019 23:57:43;117;0;328.17;17;18.95;2.04;70.2;9.60;69046;5122.557;-12839.740;313;150;158.4;57;57.1;-3;-3.6;28.8;-1.0;
15/06/2019 23:58:03;117;0;327.26;17;18.88;1.15;68.2;9.60;69063;5122.557;-12839.740;313;150;158.4;57;57.1;-3;-4.1;28.8;-1.0;
15/06/2019 23:58:23;117;0;328.12;17;19.15;1.16;66.3;9.60;69060;5122.557;-12839.740;313;150;156.4;57;57.1;-4;-4.1;28.8;-1.0;
15/06/2019 23:58:43;117;0;329.43;17;19.28;1.28;64.1;9.60;69069;5122.557;-12839.740;313;150;158.4;57;57.1;-5;-5.0;28.8;-1.0;
15/06/2019 23:59:03;117;0;328.22;17;19.01;0.44;61.9;9.70;69074;5122.557;-12839.740;313;150;158.4;57;57.1;-5;-5.9;28.8;-1.0;
15/06/2019 23:59:23;117;0;323.85;17;18.93;0.54;59.7;9.70;69083;5122.557;-12839.740;313;150;158.4;57;57.1;-2;-1.4;28.8;-1.0;
15/06/2019 23:59:43;117;0;323.38;17;18.59;2.77;57.6;9.70;69080;5122.557;-12839.740;313;150;158.4;57;57.1;-4;-4.1;28.8;-1.0;
16/06/2019 00:00:03;117;0;320.84;17;18.46;1.14;55.5;9.70;69099;5122.557;-12839.740;313;150;158.4;57;57.1;-3;-3.2;28.8;-1.0;
16/06/2019 00:00:23;117;0;320.19;17;18.23;1.93;53.5;9.80;69105;5122.557;-12839.740;313;150;158.4;57;57.1;-5;-5.0;28.8;-1.0;
16/06/2019 00:00:43;117;0;315.89;17;18.24;0.58;51.5;9.80;69120;5122.557;-12839.740;313;150;158.4;57;57.1;-3;-3.2;28.8;-1.0;
16/06/2019 00:01:03;117;0;312.64;17;18.01;2.07;49.6;9.80;69124;5122.557;-12839.740;313;150;158.4;57;57.1;-3;-2.3;28.8;-1.0;
16/06/2019 00:01:23;117;0;309.02;17;18.26;2.07;47.6;9.80;69129;5122.557;-12839.740;313;150;158.4;57;57.1;-3;-2.3;28.8;-1.0;
16/06/2019 00:01:43;117;0;305.21;17;17.96;2.12;45.7;9.80;69144;5122.557;-12839.740;313;150;158.4;57;57.2;-2;-1.8;28.8;-1.0;
16/06/2019 00:02:03;117;0;305.19;17;17.98;2.75;43.8;9.90;69150;5122.557;-12839.740;313;150;158.4;57;57.1;-4;-4.5;28.8;-1.0;
16/06/2019 00:02:23;117;0;299.39;17;17.76;1.00;41.8;9.90;69171;5122.557;-12839.740;313;150;158.4;57;57.1;-1;-0.5;28.8;-1.0;
16/06/2019 00:02:43;117;0;291.94;17;17.77;3.38;39.8;9.90;69186;5122.557;-12839.740;313;150;158.4;57;57.1;-1;0.0;28.8;-1.0;
16/06/2019 00:03:03;117;0;286.28;17;17.53;3.36;37.9;9.90;69191;5122.557;-12839.740;313;150;158.4;57;57.1;2;1.8;28.8;-1.0;
16/06/2019 00:03:23;117;0;281.50;17;17.43;4.54;36.0;10.00;69210;5122.557;-12839.740;313;150;158.4;57;57.1;3;3.6;28.8;-1.0;
16/06/2019 00:03:43;117;0;277.73;17;17.42;5.51;34.3;10.00;69227;5122.557;-12839.740;313;150;158.4;57;57.1;4;4.1;28.8;-1.0;
16/06/2019 00:04:03;117;0;294.22;17;16.24;5.38;32.7;10.00;69249;5122.557;-12839.740;313;150;158.4;57;57.1;-6;-6.3;28.8;-1.0;
16/06/2019 00:04:23;117;0;294.19;17;16.09;-0.05;31.2;10.00;69281;5122.557;-12839.740;313;150;158.4;57;57.1;-4;-3.6;28.8;-1.0;
16/06/2019 00:04:43;117;0;290.66;17;16.14;1.75;29.7;10.10;69312;5122.557;-12839.740;313;150;158.4;57;57.1;0;0.0;28.8;-1.0;
16/06/2019 00:05:03;117;0;290.50;17;15.24;3.82;28.2;10.10;69349;5122.557;-12839.740;313;150;158.4;57;57.1;0;0.9;28.8;-1.0;
16/06/2019 00:05:23;117;0;290.87;17;15.83;3.78;26.6;10.20;69362;5122.557;-12839.740;313;150;158.4;57;57.1;0;0.9;28.8;-1.0;
16/06/2019 00:05:43;117;0;285.65;17;16.14;3.72;25.1;10.20;69387;5122.557;-12839.740;313;150;158.4;57;57.1;2;2.3;28.8;-1.0;
16/06/2019 00:06:03;117;0;283.44;17;16.04;4.52;23.4;10.30;69403;5122.557;-12839.740;313;150;158.4;57;57.1;3;3.2;28.8;-1.0;
16/06/2019 00:06:23;117;0;282.95;17;15.99;5.28;21.8;10.30;69417;5122.557;-12839.740;313;150;158.4;57;57.1;3;4.1;28.8;-1.0;
16/06/2019 00:06:43;117;0;281.26;17;16.01;5.26;20.3;10.40;69434;5122.557;-12839.740;313;150;158.4;57;57.1;4;4.1;28.8;-1.0;
16/06/2019 00:07:03;117;0;279.34;17;15.92;5.23;18.6;10.40;69439;5122.557;-12839.740;313;150;158.4;57;57.1;5;5.0;28.8;-1.0;
16/06/2019 00:07:23;117;0;278.93;17;15.96;6.04;17.0;10.50;69456;5122.557;-12839.740;313;150;158.4;57;57.1;6;5.9;28.8;-1.0;
16/06/2019 00:07:43;117;0;280.43;17;16.00;6.90;15.4;10.50;69470;5122.557;-12839.740;313;150;158.4;57;57.2;5;5.0;28.8;-1.0;
16/06/2019 00:08:03;117;0;283.58;17;15.67;5.61;13.8;10.60;69487;5122.557;-12839.740;313;150;158.4;57;57.1;3;3.2;28.8;-1.0;
16/06/2019 00:08:23;117;0;285.81;17;15.79;4.77;12.2;10.60;69493;5122.557;-12839.740;313;150;158.4;57;57.1;3;2.7;28.8;-1.0;
16/06/2019 00:08:43;117;0;292.08;17;16.05;4.77;10.7;10.60;69507;5122.557;-12839.740;313;150;158.4;57;57.1;0;0.0;28.8;-1.0;
