Timestamp;NavState;SecurityLevel;Heading;Declination;Pitch;Roll;Depth;Temperature;Pa;Lat;Lon;DesiredH;BallastCmd;BallastPos;LinCmd;LinPos;AngCmd;AngPos;Voltage;Altitude;
15/06/2019 18:09:13;117;0;243.81;17;15.63;5.86;8.9;10.20;69341;5123.648;-12837.494;276;150;156.4;57;57.1;4;3.6;28.9;-1.0;
15/06/2019 18:09:23;110;0;244.77;17;16.28;4.87;8.0;10.30;69352;5123.648;-12837.494;276;-300;-45.5;73;73.2;0;-0.9;28.9;-1.0;
15/06/2019 18:09:33;110;0;245.46;17;-7.19;3.07;7.4;10.30;69840;5123.648;-12837.494;276;-300;-301.0;73;72.9;0;-0.5;28.8;-1.0;
15/06/2019 18:09:43;110;0;254.86;17;-20.36;3.57;8.1;10.30;70161;5123.648;-12837.494;276;-300;-303.0;73;72.9;0;-0.5;28.9;-1.0;
15/06/2019 18:09:53;100;0;254.97;17;-26.60;3.47;9.7;10.30;70154;5123.648;-12837.494;276;-300;-306.9;73;72.9;0;-0.5;28.9;-1.0;
15/06/2019 18:10:13;100;0;255.84;17;-26.57;3.18;13.5;10.40;70152;5123.648;-12837.494;276;-300;-306.9;73;72.7;2;1.8;28.8;0.0;
15/06/2019 18:10:33;100;0;243.91;17;-26.55;4.98;17.7;10.50;70146;5123.648;-12837.494;276;-300;-306.9;73;72.9;-6;-5.9;28.8;0.0;
15/06/2019 18:10:53;100;0;232.64;17;-24.71;0.78;22.0;10.50;70084;5123.648;-12837.494;276;-300;-305.0;73;72.9;-12;-12.2;28.9;0.0;
15/06/2019 18:11:13;100;0;232.72;17;-24.78;-2.10;26.1;10.50;70060;5123.648;-12837.494;276;-300;-305.0;73;72.9;-10;-9.5;28.8;0.0;
15/06/2019 18:11:34;100;0;232.82;17;-24.38;-0.49;30.2;10.50;70027;5123.648;-12837.494;276;-300;-306.9;73;72.9;-9;-9.0;28.8;0.0;
15/06/2019 18:11:54;100;0;225.05;17;-24.34;-0.70;34.2;10.50;69982;5123.648;-12837.494;276;-300;-306.9;73;72.9;-13;-13.1;28.9;0.0;
15/06/2019 18:12:14;100;0;220.78;17;-24.44;-2.58;38.0;10.50;69971;5123.648;-12837.494;276;-300;-306.9;73;72.9;-15;-15.3;28.9;0.0;
15/06/2019 18:12:34;100;0;211.39;17;-24.62;-3.75;42.0;10.50;69956;5123.648;-12837.494;276;-300;-305.0;73;72.9;-20;-20.3;28.9;0.0;
15/06/2019 18:12:54;100;0;209.87;17;-24.44;-5.89;45.9;10.50;69934;5123.648;-12837.494;276;-300;-306.9;73;72.9;-20;-20.3;28.9;0.0;
15/06/2019 18:13:14;100;0;208.34;17;-24.46;-5.87;49.8;10.50;69929;5123.648;-12837.494;276;-300;-306.9;73;72.9;-21;-21.2;28.9;0.0;
15/06/2019 18:13:34;100;0;206.43;17;-24.62;-6.43;53.8;10.50;69916;5123.648;-12837.494;276;-300;-305.0;73;72.9;-24;-24.4;28.9;0.0;
15/06/2019 18:13:54;100;0;203.02;17;-24.56;-8.00;57.7;10.50;69909;5123.648;-12837.494;276;-300;-306.9;73;72.9;-27;-27.1;28.9;0.0;
15/06/2019 18:14:14;100;0;203.60;17;-24.64;-9.06;61.7;10.50;69898;5123.648;-12837.494;276;-300;-306.9;73;72.9;-27;-27.5;28.9;0.0;
15/06/2019 18:14:34;100;0;207.68;17;-23.88;-9.28;65.5;10.50;69887;5123.648;-12837.494;276;-300;-306.9;73;72.9;-24;-23.9;28.9;0.0;
15/06/2019 18:14:54;100;0;207.05;17;-23.59;-7.11;69.3;10.50;69875;5123.648;-12837.494;276;-300;-305.0;73;72.9;-24;-23.0;28.9;0.0;
15/06/2019 18:15:14;100;0;210.77;17;-23.03;-7.47;72.8;10.40;69850;5123.648;-12837.494;276;-300;-306.9;73;72.9;-23;-23.0;28.9;0.0;
15/06/2019 18:15:34;100;0;216.18;17;-23.50;-7.25;76.2;10.50;69852;5123.648;-12837.494;276;-300;-306.9;73;72.9;-20;-19.4;28.9;0.0;
15/06/2019 18:15:54;100;0;221.68;17;-23.35;-4.89;79.5;10.40;69841;5123.648;-12837.494;276;-300;-306.9;73;72.9;-19;-19.0;28.9;0.0;
15/06/2019 18:16:14;100;0;217.92;17;-23.04;-5.69;82.8;10.40;69822;5123.648;-12837.494;276;-300;-306.9;73;72.9;-23;-23.5;28.9;0.0;
15/06/2019 18:16:34;100;0;210.48;17;-22.84;-7.60;85.9;10.40;69808;5123.648;-12837.494;276;-300;-305.0;73;72.9;-27;-27.5;28.9;0.0;
15/06/2019 18:16:54;100;0;204.01;17;-22.61;-9.47;89.2;10.40;69793;5123.648;-12837.494;276;-300;-306.9;73;72.9;-29;-28.9;28.9;0.0;
15/06/2019 18:17:14;100;0;198.84;17;-22.52;-10.22;92.3;10.40;69775;5123.648;-12837.494;276;-300;-306.9;73;72.9;-30;-29.8;28.8;0.0;
15/06/2019 18:17:34;100;0;197.09;17;-22.20;-10.32;95.4;10.40;69778;5123.648;-12837.494;276;-300;-305.0;73;72.9;-29;-28.4;28.9;0.0;
15/06/2019 18:17:54;100;0;197.42;17;-22.46;-9.41;98.3;10.30;69766;5123.648;-12837.494;276;-300;-306.9;73;72.9;-28;-28.0;28.9;0.0;
15/06/2019 18:18:14;100;0;200.18;17;-22.10;-9.84;101.1;10.30;69764;5123.648;-12837.494;276;-300;-306.9;73;72.9;-26;-25.7;28.9;0.0;
15/06/2019 18:18:34;100;0;202.93;17;-22.07;-8.34;104.0;10.30;69754;5123.648;-12837.494;276;-300;-306.9;73;72.9;-25;-24.8;28.8;0.0;
15/06/2019 18:18:54;100;0;201.48;17;-22.35;-7.59;106.8;10.30;69755;5123.648;-12837.494;276;-300;-306.9;73;72.9;-26;-26.2;28.9;0.0;
15/06/2019 18:19:14;100;0;196.92;17;-22.04;-9.05;109.9;10.30;69744;5123.648;-12837.494;276;-300;-305.0;73;72.9;-29;-28.9;28.9;0.0;
15/06/2019 18:19:34;100;0;202.05;17;-21.43;-10.25;112.7;10.30;69732;5123.648;-12837.494;276;-300;-305.0;73;72.9;-24;-23.5;28.9;0.0;
15/06/2019 18:19:54;100;0;208.36;17;-20.71;-7.20;115.6;10.20;69724;5123.648;-12837.494;276;-300;-306.9;73;72.9;-22;-21.7;28.9;0.0;
15/06/2019 18:20:14;100;0;206.04;17;-20.91;-6.25;118.5;10.20;69715;5123.648;-12837.494;276;-300;-306.9;73;72.9;-24;-23.9;28.9;0.0;
15/06/2019 18:20:34;100;0;207.02;17;-20.02;-7.93;121.3;10.20;69705;5123.648;-12837.494;276;-300;-305.0;73;72.9;-24;-24.4;28.9;0.0;
15/06/2019 18:20:54;100;0;213.90;17;-20.61;-8.16;123.9;10.20;69703;5123.648;-12837.494;276;-300;-306.9;73;72.9;-21;-21.2;28.8;0.0;
15/06/2019 18:21:14;100;0;221.11;17;-21.39;-6.01;126.4;10.20;69690;5123.648;-12837.494;276;-300;-306.9;73;72.9;-18;-18.1;28.9;0.0;
15/06/2019 18:21:34;100;0;214.72;17;-19.70;-4.53;129.0;10.10;69680;5123.648;-12837.494;276;-300;-306.9;73;72.9;-24;-23.9;28.9;0.0;
15/06/2019 18:21:54;100;0;210.74;17;-19.58;-8.01;131.7;10.10;69669;5123.648;-12837.494;276;-300;-306.9;73;72.9;-26;-26.2;28.9;0.0;
15/06/2019 18:22:14;100;0;217.38;17;-19.60;-9.24;134.2;10.10;69660;5123.648;-12837.494;276;-300;-306.9;73;72.9;-21;-21.2;28.9;0.0;
15/06/2019 18:22:34;100;0;215.74;17;-19.87;-6.16;136.6;10.10;69652;5123.648;-12837.494;276;-300;-306.9;73;72.9;-23;-23.0;28.9;0.0;
15/06/2019 18:22:54;100;0;214.18;17;-19.72;-7.62;139.0;10.10;69649;5123.648;-12837.494;276;-300;-306.9;73;72.9;-24;-24.4;28.9;0.0;
15/06/2019 18:23:14;100;0;210.81;17;-20.10;-8.02;141.4;10.00;69640;5123.648;-12837.494;276;-300;-306.9;73;72.9;-26;-26.2;28.8;0.0;
15/06/2019 18:23:34;100;0;209.62;17;-19.55;-9.15;144.0;10.00;69629;5123.648;-12837.494;276;-300;-305.0;73;72.9;-26;-26.6;28.9;0.0;
15/06/2019 18:23:54;100;0;210.19;17;-19.52;-9.12;146.4;10.00;69630;5123.648;-12837.494;276;-300;-306.9;73;72.9;-24;-23.9;28.9;0.0;
15/06/2019 18:24:14;100;0;213.50;17;-19.50;-7.41;148.7;10.00;69624;5123.648;-12837.494;276;-300;-306.9;73;72.9;-22;-22.1;28.9;0.0;
15/06/2019 18:24:34;100;0;217.44;17;-18.98;-6.57;151.2;9.90;69617;5123.648;-12837.494;276;-300;-306.9;73;72.9;-21;-21.2;28.9;0.0;
15/06/2019 18:24:54;100;0;219.99;17;-19.56;-6.57;153.4;9.90;69603;5123.648;-12837.494;276;-300;-305.0;73;72.9;-21;-21.2;28.9;0.0;
15/06/2019 18:25:14;100;0;222.23;17;-19.01;-6.51;155.6;9.90;69609;5123.648;-12837.494;276;-300;-305.0;73;72.9;-20;-19.4;28.9;0.0;
15/06/2019 18:25:34;100;0;221.02;17;-19.23;-5.34;157.9;9.90;69594;5123.648;-12837.494;276;-300;-305.0;73;72.9;-21;-21.2;28.9;0.0;
15/06/2019 18:25:54;100;0;219.28;17;-19.11;-6.73;160.1;9.90;69598;5123.648;-12837.494;276;-300;-306.9;73;72.9;-23;-23.0;28.9;0.0;
15/06/2019 18:26:14;100;0;221.13;17;-19.01;-7.65;162.4;9.80;69590;5123.648;-12837.494;276;-300;-305.0;73;72.9;-21;-21.2;28.9;0.0;
15/06/2019 18:26:34;100;0;224.47;17;-18.70;-6.22;164.5;9.80;69592;5123.648;-12837.494;276;-300;-305.0;73;72.9;-20;-19.4;28.9;0.0;
15/06/2019 18:26:54;100;0;223.62;17;-18.92;-5.31;166.6;9.80;69572;5123.648;-12837.494;276;-300;-305.0;73;72.9;-21;-21.2;28.9;0.0;
15/06/2019 18:27:14;100;0;223.51;17;-18.99;-6.75;168.8;9.80;69567;5123.648;-12837.494;276;-300;-306.9;73;72.9;-21;-21.7;28.8;44.4;
15/06/2019 18:27:34;100;0;222.67;17;-19.15;-6.78;170.9;9.70;69567;5123.648;-12837.494;276;-300;-306.9;73;72.9;-22;-22.6;28.9;42.3;
15/06/2019 18:27:54;100;0;224.68;17;-19.07;-7.43;173.0;9.70;69556;5123.648;-12837.494;276;-300;-306.9;73;72.9;-21;-21.2;28.9;40.1;
15/06/2019 18:28:14;100;0;228.76;17;-19.07;-6.12;175.1;9.70;69568;5123.648;-12837.494;276;-300;-306.9;73;72.9;-19;-18.5;28.9;38.0;
15/06/2019 18:28:34;100;0;231.68;17;-19.09;-5.11;177.2;9.70;69541;5123.648;-12837.494;276;-300;-306.9;73;72.9;-18;-18.1;28.9;35.8;
15/06/2019 18:28:54;100;0;232.04;17;-18.70;-5.01;179.3;9.60;69545;5123.648;-12837.494;276;-300;-305.0;73;72.9;-18;-18.1;28.9;33.7;
15/06/2019 18:29:14;100;0;234.68;17;-18.67;-5.07;181.4;9.60;69519;5123.648;-12837.494;276;-300;-306.9;73;72.9;-18;-18.1;28.9;31.6;
15/06/2019 18:29:34;100;0;235.44;17;-18.67;-5.03;183.4;9.60;69521;5123.648;-12837.494;276;-300;-306.9;73;72.9;-18;-18.1;28.9;29.5;
15/06/2019 18:29:54;100;0;235.51;17;-18.70;-4.98;185.4;9.60;69518;5123.648;-12837.494;276;-300;-306.9;73;72.9;-19;-19.4;28.9;27.5;
15/06/2019 18:30:14;100;0;235.96;17;-18.77;-5.85;187.5;9.50;69512;5123.648;-12837.494;276;-300;-305.0;73;72.9;-19;-19.9;28.9;25.5;
15/06/2019 18:30:34;100;0;236.36;17;-18.81;-5.89;189.5;9.50;69499;5123.648;-12837.494;276;-300;-305.0;73;72.9;-18;-18.1;28.9;23.4;
15/06/2019 18:30:54;100;0;238.02;17;-18.91;-4.70;191.5;9.50;69499;5123.648;-12837.494;276;-300;-306.9;73;72.9;-17;-17.1;28.8;21.4;
15/06/2019 18:31:14;100;0;239.40;17;-18.45;-4.60;193.6;9.50;69492;5123.648;-12837.494;276;-300;-305.0;73;72.9;-17;-17.1;28.9;19.1;
15/06/2019 18:31:34;118;0;245.58;17;-17.06;-5.03;195.8;9.40;69479;5123.648;-12837.494;276;150;-291.1;57;56.6;0;0.5;28.9;16.8;
15/06/2019 18:31:44;118;0;173.99;17;3.94;3.56;196.6;9.40;69400;5123.648;-12837.494;276;150;-134.7;57;56.9;0;0.5;28.3;16.8;
15/06/2019 18:31:54;118;0;174.51;17;19.91;3.31;196.3;9.40;69176;5123.648;-12837.494;276;150;21.8;57;56.9;0;0.5;28.2;-1.0;
15/06/2019 18:32:04;118;0;168.86;17;25.82;3.17;195.6;9.40;68925;5123.648;-12837.494;276;150;156.4;57;56.9;0;0.5;28.3;-1.0;
15/06/2019 18:32:14;118;0;217.27;17;25.27;4.21;194.3;9.40;68726;5123.648;-12837.494;276;150;154.5;57;56.9;0;0.5;28.8;-1.0;
15/06/2019 18:32:24;118;0;218.88;17;27.21;2.89;192.6;9.40;68738;5123.648;-12837.494;276;150;158.4;57;56.9;0;0.5;28.9;-1.0;
15/06/2019 18:32:34;117;0;219.13;17;28.34;3.44;190.7;9.40;68744;5123.648;-12837.494;276;150;156.4;57;57.1;0;0.5;28.8;-1.0;
15/06/2019 18:32:54;117;0;216.07;17;28.80;3.81;186.3;9.40;68725;5123.648;-12837.494;276;150;156.4;57;56.9;31;31.1;28.9;-1.0;
15/06/2019 18:33:14;117;0;225.59;17;28.15;19.05;181.2;9.30;68724;5123.648;-12837.494;276;150;156.4;57;56.9;22;22.1;28.9;-1.0;
15/06/2019 18:33:34;117;0;227.71;17;28.50;13.64;176.8;9.30;68728;5123.648;-12837.494;276;150;156.4;57;56.9;20;19.9;28.8;-1.0;
15/06/2019 18:33:54;117;0;230.76;17;28.31;12.49;172.1;9.30;68732;5123.648;-12837.494;276;150;156.4;57;56.9;19;19.0;28.9;-1.0;
15/06/2019 18:34:14;117;0;237.03;17;27.98;12.41;167.4;9.30;68742;5123.648;-12837.494;276;150;156.4;57;56.9;15;14.9;28.9;-1.0;
15/06/2019 18:34:34;117;0;239.10;17;28.20;10.27;163.0;9.30;68751;5123.648;-12837.494;276;150;156.4;57;56.9;16;16.2;28.9;-1.0;
15/06/2019 18:34:54;117;0;243.02;17;27.13;11.02;158.6;9.20;68748;5123.648;-12837.494;276;150;156.4;57;56.9;15;14.9;28.8;-1.0;
15/06/2019 18:35:14;117;0;245.96;17;27.01;9.82;154.5;9.20;68760;5123.648;-12837.494;276;150;156.4;57;56.9;15;14.4;28.9;-1.0;
15/06/2019 18:35:34;117;0;249.81;17;27.83;10.05;150.4;9.20;68760;5123.648;-12837.494;276;150;156.4;57;56.9;14;14.0;28.9;-1.0;
15/06/2019 18:35:54;117;0;249.12;17;27.12;9.35;146.0;9.20;68752;5123.648;-12837.494;276;150;156.4;57;56.9;15;14.9;28.9;-1.0;
15/06/2019 18:36:14;117;0;254.91;17;26.44;10.50;141.9;9.20;68776;5123.648;-12837.494;276;150;158.4;57;56.9;13;13.1;28.9;-1.0;
15/06/2019 18:36:34;117;0;260.91;17;26.38;9.14;138.0;9.20;68772;5123.648;-12837.494;276;150;158.4;57;56.9;13;12.6;28.9;-1.0;
15/06/2019 18:36:54;117;0;266.76;17;26.63;8.98;134.0;9.20;68768;5123.648;-12837.494;276;150;156.4;57;56.9;9;9.0;28.8;-1.0;
15/06/2019 18:37:14;117;0;265.76;17;26.39;6.86;129.9;9.20;68788;5123.648;-12837.494;276;150;156.4;57;56.9;11;11.3;28.8;-1.0;
15/06/2019 18:37:34;117;0;267.32;17;26.72;8.76;126.1;9.20;68780;5123.648;-12837.494;276;150;156.4;57;56.9;11;11.7;28.9;-1.0;
15/06/2019 18:37:54;117;0;276.74;17;25.50;8.49;122.2;9.20;68788;5123.648;-12837.494;276;150;156.4;57;56.9;5;5.0;28.9;-1.0;
15/06/2019 18:38:14;117;0;262.33;17;26.40;5.35;118.4;9.20;68807;5123.648;-12837.494;276;150;158.4;57;56.9;15;14.9;28.9;-1.0;
15/06/2019 18:38:34;117;0;265.64;17;24.33;10.59;114.7;9.10;68813;5123.648;-12837.494;276;150;156.4;57;56.9;12;12.2;28.9;-1.0;
15/06/2019 18:38:54;117;0;272.41;17;23.92;8.61;111.7;9.10;68829;5123.648;-12837.494;276;150;156.4;57;56.9;7;7.2;28.9;-1.0;
15/06/2019 18:39:14;117;0;279.54;17;23.81;6.17;108.4;9.20;68837;5123.648;-12837.494;276;150;156.4;57;56.9;4;4.1;28.9;-1.0;
15/06/2019 18:39:34;117;0;289.62;17;23.51;4.89;105.2;9.20;68837;5123.648;-12837.494;276;150;156.4;57;56.9;0;-0.5;28.9;-1.0;
15/06/2019 18:39:54;117;0;292.86;17;23.69;2.46;102.1;9.20;68843;5123.648;-12837.494;276;150;156.4;57;56.9;0;-0.9;28.9;-1.0;
15/06/2019 18:40:14;117;0;297.55;17;23.64;2.51;98.9;9.20;68847;5123.648;-12837.494;276;150;156.4;57;56.9;-1;-0.9;28.9;-1.0;
15/06/2019 18:40:34;117;0;304.04;17;23.49;2.39;95.6;9.20;68847;5123.648;-12837.494;276;150;156.4;57;56.9;-5;-5.4;28.9;-1.0;
15/06/2019 18:40:54;117;0;305.67;17;23.03;0.48;92.6;9.20;68853;5123.648;-12837.494;276;150;158.4;57;56.9;-5;-5.9;28.9;-1.0;
15/06/2019 18:41:14;117;0;301.57;17;22.93;0.45;89.6;9.20;68870;5123.648;-12837.494;276;150;156.4;57;56.9;-2;-1.8;28.8;-1.0;
15/06/2019 18:41:34;117;0;295.33;17;22.38;2.60;86.8;9.20;68873;5123.648;-12837.494;276;150;156.4;57;56.9;0;0.5;28.9;-1.0;
15/06/2019 18:41:54;117;0;292.89;17;22.46;3.70;83.8;9.20;68872;5123.648;-12837.494;276;150;156.4;57;56.9;0;0.5;28.9;-1.0;
15/06/2019 18:42:14;117;0;294.54;17;22.57;3.66;80.9;9.20;68873;5123.648;-12837.494;276;150;158.4;57;56.9;-2;-1.8;28.9;-1.0;
15/06/2019 18:42:35;117;0;288.15;17;21.78;2.21;77.9;9.20;68890;5123.648;-12837.494;276;150;156.4;57;56.9;0;0.5;28.9;-1.0;
15/06/2019 18:42:55;117;0;279.19;17;21.57;3.79;75.0;9.20;68886;5123.648;-12837.494;276;150;156.4;57;56.9;3;3.2;28.9;-1.0;
15/06/2019 18:43:15;117;0;280.97;17;21.44;5.13;72.1;9.20;68889;5123.648;-12837.494;276;150;156.4;57;56.9;0;0.0;28.9;-1.0;
15/06/2019 18:43:35;117;0;275.89;17;21.30;2.87;69.2;9.20;68901;5123.648;-12837.494;276;150;158.4;57;56.9;1;0.9;28.8;-1.0;
15/06/2019 18:43:55;117;0;275.32;17;21.39;4.07;66.2;9.20;68893;5123.648;-12837.494;276;150;156.4;57;56.9;0;0.0;28.9;-1.0;
15/06/2019 18:44:15;117;0;267.05;17;20.51;2.86;63.4;9.20;68917;5123.648;-12837.494;276;150;156.4;57;56.9;2;1.8;28.8;-1.0;
15/06/2019 18:44:35;117;0;260.49;17;20.48;4.29;60.7;9.20;68930;5123.648;-12837.494;276;150;156.4;57;56.9;5;5.0;28.8;-1.0;
15/06/2019 18:44:55;117;0;262.48;17;19.94;6.16;58.2;9.20;68935;5123.648;-12837.494;276;150;156.4;57;56.9;1;0.9;28.9;-1.0;
15/06/2019 18:45:15;117;0;261.44;17;19.71;3.59;55.8;9.30;68946;5123.648;-12837.494;276;150;156.4;57;56.9;1;0.9;28.9;-1.0;
15/06/2019 18:45:35;117;0;263.07;17;19.68;3.60;53.5;9.30;68966;5123.648;-12837.494;276;150;158.4;57;57.1;0;0.0;28.9;-1.0;
15/06/2019 18:45:55;117;0;259.72;17;19.64;2.82;51.2;9.30;68972;5123.648;-12837.494;276;150;156.4;57;56.9;0;-0.5;28.9;-1.0;
15/06/2019 18:46:15;117;0;257.95;17;19.52;2.99;48.9;9.30;68975;5123.648;-12837.494;276;150;156.4;57;56.9;0;-0.5;28.9;-1.0;
15/06/2019 18:46:35;117;0;255.54;17;19.68;2.95;46.7;9.30;68985;5123.648;-12837.494;276;150;156.4;57;56.9;2;1.8;28.9;-1.0;
15/06/2019 18:46:55;117;0;255.02;17;19.58;4.44;44.4;9.30;68991;5123.648;-12837.494;276;150;156.4;57;56.9;1;0.9;28.9;-1.0;
15/06/2019 18:47:15;117;0;250.63;17;19.71;3.28;42.2;9.40;68996;5123.648;-12837.494;276;150;158.4;57;56.9;4;4.5;28.8;-1.0;
15/06/2019 18:47:35;117;0;253.27;17;19.21;5.81;39.9;9.40;69005;5123.648;-12837.494;276;150;156.4;57;56.9;2;1.4;28.9;-1.0;
15/06/2019 18:47:55;117;0;254.58;17;19.06;3.88;37.8;9.40;69003;5123.648;-12837.494;276;150;156.4;57;56.9;1;0.9;28.9;-1.0;
15/06/2019 18:48:15;117;0;253.81;17;19.16;3.76;35.7;9.40;69022;5123.648;-12837.494;276;150;156.4;57;56.9;2;1.8;28.8;-1.0;
15/06/2019 18:48:35;117;0;254.06;17;18.85;4.54;33.5;9.40;69021;5123.648;-12837.494;276;150;158.4;57;56.9;2;2.3;28.9;-1.0;
15/06/2019 18:48:55;117;0;256.35;17;19.04;4.61;31.4;9.40;69031;5123.648;-12837.494;276;150;156.4;57;56.9;1;0.9;28.9;-1.0;
15/06/2019 18:49:15;117;0;256.65;17;19.09;3.33;29.3;9.50;69039;5123.648;-12837.494;276;150;158.4;57;56.9;1;0.0;28.8;-1.0;
15/06/2019 18:49:35;117;0;251.23;17;18.73;3.33;27.1;9.50;69058;5123.648;-12837.494;276;150;156.4;57;56.9;5;5.0;28.9;-1.0;
15/06/2019 18:49:55;117;0;250.29;17;18.40;6.05;25.1;9.50;69067;5123.648;-12837.494;276;150;156.4;57;57.1;5;5.4;28.9;-1.0;
15/06/2019 18:50:15;117;0;248.80;17;18.58;5.98;23.1;9.50;69084;5123.648;-12837.494;276;150;156.4;57;56.9;6;5.9;28.9;-1.0;
15/06/2019 18:50:35;117;0;246.89;17;18.65;6.69;21.0;9.60;69102;5123.648;-12837.494;276;150;158.4;57;56.9;7;7.2;28.9;-1.0;
15/06/2019 18:50:55;117;0;247.84;17;17.88;7.59;19.0;9.60;69108;5123.648;-12837.494;276;150;158.4;57;56.9;6;5.9;28.9;-1.0;
15/06/2019 18:51:15;117;0;249.97;17;17.55;6.09;17.1;9.60;69123;5123.648;-12837.494;276;150;158.4;57;56.9;5;5.0;28.9;-1.0;
15/06/2019 18:51:35;117;0;255.79;17;17.39;5.45;15.4;9.60;69138;5123.648;-12837.494;276;150;156.4;57;56.9;2;1.4;28.9;-1.0;
15/06/2019 18:51:55;117;0;258.24;17;17.06;3.85;13.8;9.70;69166;5123.648;-12837.494;276;150;158.4;57;56.9;2;0.9;28.9;-1.0;
15/06/2019 18:52:15;117;0;258.18;17;16.74;3.61;12.2;9.70;69194;5123.648;-12837.494;276;150;158.4;57;56.9;2;0.9;28.9;-1.0;
15/06/2019 18:52:35;117;0;253.34;17;17.11;3.56;10.4;9.70;69225;5123.648;-12837.494;276;150;158.4;57;56.9;6;5.9;28.9;-1.0;
