Timestamp;NavState;SecurityLevel;Heading;Declination;Pitch;Roll;Depth;Temperature;Pa;Lat;Lon;DesiredH;BallastCmd;BallastPos;LinCmd;LinPos;AngCmd;AngPos;Voltage;Altitude;
16/06/2019 13:56:20;117;0;20.45;17;15.50;4.44;8.7;10.30;69447;5124.971;-12838.415;52;150;158.4;57;57.2;0;0.0;28.7;-1.0;
16/06/2019 13:56:30;115;0;19.47;17;15.70;2.97;8.0;10.30;69456;5124.971;-12838.415;52;500;170.3;100;100.3;0;-0.5;28.7;-1.0;
16/06/2019 13:56:40;115;0;42.23;17;-24.79;3.87;7.5;10.30;69391;5124.971;-12838.415;52;500;318.8;100;100.0;0;-0.5;28.3;-1.0;
16/06/2019 13:56:50;115;0;31.64;17;-62.56;2.21;8.3;10.30;69184;5124.971;-12838.415;52;500;471.3;100;100.1;0;-0.5;28.3;-1.0;
16/06/2019 13:57:00;115;0;29.80;17;-59.09;3.79;7.2;10.40;68948;5124.971;-12838.415;52;500;505.0;100;100.0;0;-0.5;28.3;-1.0;
16/06/2019 13:57:10;115;0;5.33;17;-32.20;3.64;4.5;10.40;68911;5124.971;-12838.415;52;500;506.9;100;99.9;0;-0.5;28.7;-1.0;
16/06/2019 13:57:20;116;0;328.86;17;-63.77;18.37;1.6;10.50;68915;5124.971;-12838.415;52;500;506.9;100;99.9;0;-0.5;28.6;-1.0;
16/06/2019 13:57:40;116;0;291.12;17;-16.17;7.52;1.4;10.50;68942;5124.971;-12838.415;52;500;508.9;100;99.9;0;-0.5;28.7;-1.0;
16/06/2019 13:58:00;116;0;272.48;17;-12.87;5.80;1.5;10.60;68945;5125.208;-12838.626;52;500;506.9;100;99.7;0;-0.5;28.6;-1.0;
16/06/2019 13:58:20;116;0;243.37;17;-13.65;5.23;1.3;10.70;68953;5125.207;-12838.629;52;500;508.9;100;99.9;0;-0.9;28.6;-1.0;
16/06/2019 13:58:40;116;0;226.63;17;-14.17;1.73;1.4;10.90;68978;5125.205;-12838.634;52;500;506.9;100;99.9;0;-0.5;28.6;-1.0;
16/06/2019 13:59:00;116;0;218.63;17;-11.55;3.18;1.5;11.00;68974;5125.203;-12838.640;52;500;508.9;100;99.9;0;-0.5;28.6;-1.0;
16/06/2019 13:59:20;116;0;215.73;17;-5.50;2.70;1.3;11.10;68982;5125.201;-12838.646;52;500;508.9;100;99.9;0;-0.5;28.7;-1.0;
16/06/2019 13:59:40;116;0;206.55;17;-15.95;2.77;1.5;11.20;68990;5125.200;-12838.648;52;500;510.9;100;99.9;0;-0.5;28.7;-1.0;
16/06/2019 14:00:00;116;0;220.15;17;-21.11;2.61;1.5;11.30;69008;5125.199;-12838.652;54;500;508.9;100;99.9;0;-0.5;28.7;-1.0;
16/06/2019 14:00:20;116;0;219.10;17;-16.23;-0.53;1.4;11.40;69017;5125.188;-12838.669;54;500;508.9;100;99.9;0;-0.9;28.7;-1.0;
16/06/2019 14:01:43;116;0;218.08;17;-7.37;-0.10;1.4;12.10;69046;5125.188;-12838.670;54;500;508.9;100;99.9;0;-0.5;28.6;-1.0;
16/06/2019 14:02:03;116;0;213.37;17;-6.16;2.40;1.3;12.20;69056;5125.186;-12838.672;54;500;508.9;100;99.9;0;-0.5;28.7;-1.0;
16/06/2019 14:02:23;116;0;197.48;17;-9.80;0.44;1.4;12.30;69054;5125.186;-12838.673;54;500;508.9;100;99.9;0;-0.5;28.7;-1.0;
16/06/2019 14:02:48;116;0;213.40;17;-8.70;3.85;1.4;12.50;69066;5125.192;-12838.668;54;500;508.9;100;99.9;0;-0.5;28.6;-1.0;
16/06/2019 14:03:08;116;0;200.57;17;-9.41;3.53;1.5;12.60;69063;5125.241;-12838.566;54;500;508.9;100;99.9;0;-0.5;28.7;-1.0;
16/06/2019 14:03:28;116;0;206.79;17;-9.30;1.18;1.3;12.80;69069;5125.186;-12838.678;54;500;508.9;100;99.9;0;-0.5;28.7;-1.0;
16/06/2019 14:04:34;116;0;204.43;17;-9.71;2.89;1.4;13.30;69091;5125.187;-12838.679;54;500;508.9;100;99.9;0;-0.5;28.5;-1.0;
16/06/2019 14:04:54;116;0;218.61;17;-12.59;0.38;1.4;13.50;69104;5125.181;-12838.691;54;500;508.9;100;99.9;0;-0.5;28.7;-1.0;
16/06/2019 14:05:14;116;0;221.30;17;-7.29;1.25;1.4;13.60;69105;5125.177;-12838.690;54;500;508.9;100;99.9;0;-0.5;28.7;-1.0;
16/06/2019 14:05:42;116;0;203.60;17;-5.51;0.20;1.4;13.70;69119;5125.180;-12838.687;54;500;508.9;100;99.9;0;-0.5;28.7;-1.0;
16/06/2019 14:06:02;116;0;198.82;17;-9.67;3.20;1.4;13.80;69120;5125.208;-12838.665;54;500;510.9;100;99.9;0;-0.5;28.6;-1.0;
16/06/2019 14:06:22;116;0;203.24;17;-8.80;1.44;1.4;14.00;69134;5125.197;-12838.666;54;500;508.9;100;99.9;0;-0.9;28.7;-1.0;
16/06/2019 14:06:42;116;0;207.33;17;-5.48;2.34;1.4;14.10;69117;5125.202;-12838.662;54;500;508.9;100;99.9;0;-0.5;28.7;-1.0;
16/06/2019 14:07:02;116;0;217.25;17;-6.59;5.73;1.3;14.20;69140;5125.159;-12838.723;54;500;508.9;100;99.9;0;-0.5;28.7;-1.0;
16/06/2019 14:07:22;116;0;218.64;17;-17.82;3.89;1.4;14.30;69122;5125.159;-12838.723;54;500;508.9;100;99.9;0;-0.5;28.7;-1.0;
16/06/2019 14:07:42;116;0;212.65;17;-9.51;3.30;1.4;14.40;69139;5125.159;-12838.723;54;500;508.9;100;99.9;0;-0.5;28.7;-1.0;
16/06/2019 14:08:02;116;0;222.10;17;-7.28;3.50;1.4;14.50;69129;5125.154;-12838.733;54;500;508.9;100;99.9;0;-0.9;28.7;-1.0;
16/06/2019 14:08:22;116;0;205.83;17;-6.83;4.30;1.3;14.50;69140;5125.147;-12838.749;54;500;510.9;100;99.9;0;-0.5;28.7;-1.0;
16/06/2019 14:09:33;116;0;206.05;17;-6.90;3.54;1.3;14.80;69157;5125.147;-12838.749;54;500;508.9;100;99.9;0;-0.5;28.7;-1.0;
16/06/2019 14:09:53;116;0;204.54;17;-8.88;4.45;1.5;14.90;69163;5125.144;-12838.756;54;500;510.9;100;99.9;0;-0.5;28.7;-1.0;
16/06/2019 14:10:13;116;0;210.78;17;-8.64;2.17;1.4;15.00;69166;5125.141;-12838.762;54;500;508.9;100;99.9;0;-0.5;28.7;-1.0;
16/06/2019 14:10:33;116;0;211.00;17;-9.16;1.31;1.4;15.00;69156;5125.141;-12838.763;54;500;508.9;100;99.9;0;-0.9;28.6;-1.0;
16/06/2019 14:10:53;116;0;221.20;17;-6.84;1.43;1.3;15.00;69169;5125.140;-12838.765;54;500;508.9;100;99.9;0;-0.9;28.7;-1.0;
16/06/2019 14:11:13;116;0;218.69;17;-9.28;6.57;1.3;15.10;69170;5125.138;-12838.768;54;500;508.9;100;99.9;0;-0.9;28.7;-1.0;
16/06/2019 14:11:33;116;0;219.24;17;-7.44;5.35;1.4;15.10;69174;5125.138;-12838.771;54;500;508.9;100;99.9;0;-0.5;28.7;-1.0;
16/06/2019 14:11:53;116;0;205.85;17;-11.53;2.42;1.3;15.10;69179;5125.135;-12838.779;54;500;508.9;100;99.9;0;-0.5;28.7;-1.0;
16/06/2019 14:12:13;110;0;218.63;17;-5.35;2.10;1.4;15.10;69179;5125.135;-12838.779;54;-300;407.9;100;99.9;0;-0.5;28.7;-1.0;
16/06/2019 14:12:23;110;0;194.29;17;-6.28;3.63;1.4;15.20;69427;5125.135;-12838.779;54;-300;267.3;100;99.9;0;-0.5;28.6;-1.0;
16/06/2019 14:12:33;110;0;202.51;17;-8.22;2.65;1.3;15.20;69614;5125.135;-12838.779;54;-300;126.7;100;99.7;0;-0.5;28.5;-1.0;
16/06/2019 14:12:43;110;0;193.95;17;-16.66;4.21;1.5;15.20;69839;5125.135;-12838.779;54;-300;-27.7;100;99.9;0;-0.5;28.6;-1.0;
16/06/2019 14:12:53;110;0;196.59;17;-48.87;2.75;2.3;15.20;70082;5125.135;-12838.779;54;-300;-217.8;97;96.9;0;-0.9;28.6;-1.0;
16/06/2019 14:13:03;110;0;201.91;17;-60.72;3.74;4.2;15.20;70407;5125.135;-12838.779;54;-300;-301.0;80;79.7;0;-0.5;28.6;-1.0;
16/06/2019 14:13:13;110;0;215.44;17;-48.09;3.11;7.0;15.20;70504;5125.135;-12838.779;54;-300;-301.0;73;73.0;0;-0.5;28.6;-1.0;
16/06/2019 14:13:23;100;0;203.84;17;-37.09;3.73;10.3;15.20;70516;5125.135;-12838.779;54;-300;-301.0;73;73.0;0;-0.5;28.7;-1.0;
16/06/2019 14:13:43;100;0;185.13;17;-27.71;3.08;15.7;15.10;70495;5125.135;-12838.779;54;-300;-297.0;73;72.9;45;45.1;28.7;0.0;
16/06/2019 14:14:03;100;0;170.21;17;-23.17;25.28;20.3;15.10;70473;5125.135;-12838.779;54;-300;-295.0;73;73.0;45;45.6;28.7;0.0;
16/06/2019 14:14:23;100;0;151.12;17;-22.90;25.39;24.1;15.00;70447;5125.135;-12838.779;54;-300;-297.0;73;73.0;43;42.9;28.7;0.0;
16/06/2019 14:14:43;100;0;137.28;17;-23.16;23.07;27.9;14.90;70434;5125.135;-12838.779;54;-300;-297.0;73;72.9;32;31.6;28.7;0.0;
16/06/2019 14:15:03;100;0;129.61;17;-24.54;18.34;31.6;14.80;70373;5125.135;-12838.779;54;-300;-295.0;73;73.0;29;28.9;28.7;0.0;
16/06/2019 14:15:23;100;0;110.75;17;-23.40;16.48;35.0;14.80;70322;5125.135;-12838.779;54;-300;-295.0;73;73.0;20;19.9;28.7;0.0;
16/06/2019 14:15:43;100;0;97.45;17;-23.83;12.14;38.7;14.70;70272;5125.135;-12838.779;54;-300;-297.0;73;72.9;17;17.1;28.7;0.0;
16/06/2019 14:16:03;100;0;84.69;17;-23.90;10.92;42.2;14.60;70234;5125.135;-12838.779;54;-300;-295.0;73;73.0;15;14.9;28.7;0.0;
16/06/2019 14:16:23;100;0;76.35;17;-24.25;9.53;45.8;14.50;70210;5125.135;-12838.779;54;-300;-295.0;73;73.0;14;14.0;28.7;0.0;
16/06/2019 14:16:43;100;0;65.21;17;-24.19;9.03;49.5;14.40;70194;5125.135;-12838.779;54;-300;-295.0;73;72.9;12;12.2;28.6;0.0;
16/06/2019 14:17:03;100;0;54.79;17;-23.77;8.74;53.3;14.30;70175;5125.135;-12838.779;54;-300;-295.0;73;72.9;10;9.5;28.7;0.0;
16/06/2019 14:17:23;100;0;47.40;17;-24.37;6.91;56.7;14.20;70154;5125.135;-12838.779;54;-300;-295.0;73;73.0;10;8.6;28.7;0.0;
16/06/2019 14:17:43;100;0;40.62;17;-24.38;7.21;60.2;14.20;70146;5125.135;-12838.779;54;-300;-295.0;73;72.9;9;9.5;28.7;0.0;
16/06/2019 14:18:03;100;0;30.35;17;-24.45;8.05;64.0;14.10;70124;5125.135;-12838.779;54;-300;-295.0;73;72.9;9;9.9;28.7;0.0;
16/06/2019 14:18:23;100;0;20.16;17;-23.47;7.84;67.8;14.00;70106;5125.135;-12838.779;54;-300;-295.0;73;72.9;4;4.1;28.7;0.0;
16/06/2019 14:18:43;100;0;16.53;17;-23.75;4.72;71.5;13.90;70086;5125.135;-12838.779;54;-300;-295.0;73;72.9;4;3.6;28.7;0.0;
16/06/2019 14:19:03;100;0;11.61;17;-23.74;4.74;74.9;13.80;70051;5125.135;-12838.779;54;-300;-295.0;73;72.9;3;3.2;28.7;0.0;
16/06/2019 14:19:23;100;0;5.97;17;-23.38;4.27;78.3;13.80;70039;5125.135;-12838.779;54;-300;-295.0;73;72.9;1;0.9;28.7;0.0;
16/06/2019 14:19:43;100;0;354.46;17;-22.97;3.55;81.5;13.70;70010;5125.135;-12838.779;54;-300;-295.0;73;72.9;-2;-2.3;28.7;0.0;
16/06/2019 14:20:03;100;0;350.73;17;-23.24;2.09;84.5;13.60;69990;5125.135;-12838.779;54;-300;-295.0;73;72.9;-3;-3.6;28.7;0.0;
16/06/2019 14:20:23;100;0;341.83;17;-22.80;1.40;87.5;13.50;69974;5125.135;-12838.779;54;-300;-295.0;73;72.9;-8;-8.1;28.7;0.0;
16/06/2019 14:20:43;100;0;340.57;17;-23.12;-0.61;90.3;13.50;69957;5125.135;-12838.779;54;-300;-293.1;73;72.9;-8;-8.6;28.7;0.0;
16/06/2019 14:21:03;100;0;341.27;17;-23.02;-0.57;93.2;13.40;69933;5125.135;-12838.779;54;-300;-293.1;73;72.9;-8;-8.6;28.7;0.0;
16/06/2019 14:21:23;100;0;339.60;17;-22.82;-0.65;95.8;13.30;69930;5125.135;-12838.779;54;-300;-293.1;73;72.9;-11;-10.8;28.7;0.0;
16/06/2019 14:21:43;100;0;334.19;17;-22.38;-1.89;98.7;13.20;69912;5125.135;-12838.779;54;-300;-293.1;73;72.9;-16;-15.8;28.7;0.0;
16/06/2019 14:22:03;100;0;327.63;17;-22.52;-4.06;101.3;13.20;69907;5125.135;-12838.779;54;-300;-295.0;73;72.9;-21;-21.2;28.7;0.0;
16/06/2019 14:22:23;100;0;329.33;17;-22.70;-6.48;103.9;13.10;69885;5125.135;-12838.779;54;-300;-295.0;73;72.9;-21;-21.7;28.7;0.0;
16/06/2019 14:22:43;100;0;334.89;17;-21.77;-6.40;106.3;13.00;69878;5125.135;-12838.779;54;-300;-295.0;73;72.9;-20;-19.9;28.7;0.0;
16/06/2019 14:23:03;100;0;338.96;17;-21.28;-5.53;108.5;13.00;69865;5125.135;-12838.779;54;-300;-293.1;73;72.9;-21;-21.2;28.7;0.0;
16/06/2019 14:23:23;100;0;347.43;17;-21.28;-6.62;110.9;12.90;69853;5125.135;-12838.779;54;-300;-293.1;73;72.9;-19;-19.0;28.7;0.0;
16/06/2019 14:23:43;100;0;351.72;17;-20.60;-4.83;113.1;12.80;69826;5125.135;-12838.779;54;-300;-293.1;73;72.7;-20;-20.3;28.7;0.0;
16/06/2019 14:24:03;100;0;357.00;17;-20.61;-6.38;115.3;12.70;69815;5125.135;-12838.779;54;-300;-293.1;73;72.9;-18;-17.6;28.7;0.0;
16/06/2019 14:24:23;100;0;2.43;17;-20.88;-4.48;117.8;12.70;69801;5125.135;-12838.779;54;-300;-293.1;73;72.9;-17;-17.1;28.7;0.0;
16/06/2019 14:24:43;100;0;5.13;17;-20.43;-4.34;119.9;12.60;69804;5125.135;-12838.779;54;-300;-293.1;73;72.9;-18;-18.1;28.7;0.0;
16/06/2019 14:25:03;100;0;9.94;17;-20.34;-5.42;122.2;12.60;69787;5125.135;-12838.779;54;-300;-293.1;73;72.9;-17;-17.1;28.7;0.0;
16/06/2019 14:25:23;100;0;7.63;17;-20.18;-4.27;124.7;12.50;69770;5125.135;-12838.779;54;-300;-293.1;73;72.9;-20;-19.9;28.7;0.0;
16/06/2019 14:25:43;100;0;5.03;17;-19.79;-5.88;127.0;12.40;69764;5125.135;-12838.779;54;-300;-293.1;73;72.9;-21;-21.2;28.7;0.0;
16/06/2019 14:26:03;100;0;1.62;17;-19.83;-6.74;129.4;12.30;69746;5125.135;-12838.779;54;-300;-291.1;73;72.9;-23;-23.0;28.7;0.0;
16/06/2019 14:26:23;100;0;1.99;17;-19.52;-7.52;131.7;12.30;69736;5125.135;-12838.779;54;-300;-293.1;73;72.9;-22;-22.1;28.7;0.0;
16/06/2019 14:26:43;100;0;359.82;17;-19.45;-6.62;134.1;12.20;69729;5125.135;-12838.779;54;-300;-293.1;73;72.9;-23;-23.5;28.7;0.0;
16/06/2019 14:27:03;100;0;358.56;17;-19.91;-7.78;136.2;12.20;69713;5125.135;-12838.779;54;-300;-293.1;73;72.9;-23;-23.9;28.7;0.0;
16/06/2019 14:27:23;100;0;356.63;17;-19.58;-7.78;138.5;12.10;69708;5125.135;-12838.779;54;-300;-293.1;73;72.9;-24;-23.9;28.7;0.0;
16/06/2019 14:27:43;100;0;355.67;17;-19.46;-7.75;140.8;12.10;69687;5125.135;-12838.779;54;-300;-291.1;73;72.9;-24;-23.9;28.7;0.0;
16/06/2019 14:28:03;100;0;355.48;17;-19.18;-7.76;143.1;12.00;69673;5125.135;-12838.779;54;-300;-291.1;73;72.9;-23;-22.6;28.7;0.0;
16/06/2019 14:28:23;100;0;354.06;17;-19.20;-6.86;145.3;11.90;69664;5125.135;-12838.779;54;-300;-293.1;73;72.9;-24;-23.9;28.7;0.0;
16/06/2019 14:28:43;100;0;355.01;17;-19.35;-7.95;147.6;11.80;69654;5125.135;-12838.779;54;-300;-291.1;73;72.9;-23;-23.0;28.7;0.0;
16/06/2019 14:29:03;100;0;357.43;17;-19.13;-7.16;149.8;11.80;69644;5125.135;-12838.779;54;-300;-293.1;73;72.9;-22;-22.1;28.7;0.0;
16/06/2019 14:29:23;100;0;358.42;17;-19.19;-6.58;152.0;11.70;69631;5125.135;-12838.779;54;-300;-291.1;73;72.9;-21;-21.2;28.7;0.0;
16/06/2019 14:29:43;100;0;0.11;17;-19.07;-6.60;154.1;11.70;69618;5125.135;-12838.779;54;-300;-291.1;73;72.9;-21;-21.2;28.6;0.0;
16/06/2019 14:30:03;100;0;2.56;17;-18.90;-6.65;156.3;11.60;69612;5125.135;-12838.779;54;-300;-291.1;73;72.9;-20;-19.4;28.7;0.0;
16/06/2019 14:30:23;100;0;2.58;17;-19.02;-5.52;158.4;11.50;69599;5125.135;-12838.779;54;-300;-293.1;73;72.9;-21;-21.2;28.7;0.0;
16/06/2019 14:30:43;100;0;3.48;17;-19.04;-6.96;160.5;11.40;69581;5125.135;-12838.779;54;-300;-291.1;73;72.9;-20;-19.9;28.7;0.0;
16/06/2019 14:31:03;100;0;5.50;17;-18.64;-5.62;162.6;11.40;69576;5125.135;-12838.779;54;-300;-291.1;73;72.9;-20;-19.4;28.7;0.0;
16/06/2019 14:31:23;100;0;5.20;17;-18.68;-5.72;164.6;11.30;69570;5125.135;-12838.779;54;-300;-293.1;73;72.9;-20;-19.4;28.7;0.0;
16/06/2019 14:31:43;100;0;5.56;17;-19.06;-5.61;166.6;11.30;69563;5125.135;-12838.779;54;-300;-291.1;73;72.9;-20;-19.4;28.7;0.0;
16/06/2019 14:32:03;100;0;5.99;17;-18.30;-5.51;168.8;11.20;69552;5125.135;-12838.779;54;-300;-293.1;73;72.9;-21;-21.2;28.7;44.4;
16/06/2019 14:32:23;100;0;8.35;17;-18.68;-6.89;170.7;11.20;69550;5125.135;-12838.779;54;-300;-293.1;73;72.9;-19;-19.0;28.7;42.4;
16/06/2019 14:32:43;100;0;9.13;17;-19.42;-4.93;172.8;11.10;69537;5125.135;-12838.779;54;-300;-293.1;73;72.9;-19;-18.1;28.7;40.2;
16/06/2019 14:33:03;100;0;10.33;17;-19.36;-4.96;174.7;11.00;69533;5125.135;-12838.779;54;-300;-291.1;73;72.9;-19;-18.1;28.7;38.3;
16/06/2019 14:33:23;100;0;8.79;17;-18.96;-5.11;176.7;11.00;69533;5125.135;-12838.779;54;-300;-291.1;73;72.9;-20;-19.9;28.7;36.2;
16/06/2019 14:33:43;100;0;10.52;17;-18.56;-6.04;178.7;10.90;69536;5125.135;-12838.779;54;-300;-293.1;73;72.9;-19;-19.0;28.7;34.2;
16/06/2019 14:34:03;100;0;10.00;17;-18.41;-5.05;180.6;10.90;69516;5125.135;-12838.779;54;-300;-291.1;73;72.9;-19;-18.5;28.6;32.2;
16/06/2019 14:34:23;100;0;8.51;17;-19.66;-4.87;182.5;10.80;69516;5125.135;-12838.779;54;-300;-293.1;73;72.9;-21;-21.2;28.6;30.4;
16/06/2019 14:34:43;100;0;10.67;17;-18.70;-6.76;184.6;10.80;69508;5125.135;-12838.779;54;-300;-293.1;73;72.9;-19;-19.0;28.7;28.2;
16/06/2019 14:35:03;100;0;10.10;17;-19.54;-5.00;186.6;10.70;69509;5125.135;-12838.779;54;-300;-291.1;73;72.9;-19;-18.1;28.7;26.1;
16/06/2019 14:35:23;100;0;11.99;17;-18.71;-5.06;188.6;10.70;69511;5125.135;-12838.779;54;-300;-291.1;73;72.9;-19;-18.1;28.7;24.0;
16/06/2019 14:35:43;100;0;10.81;17;-18.91;-5.06;190.6;10.60;69507;5125.135;-12838.779;54;-300;-291.1;73;72.9;-20;-19.9;28.6;22.0;
16/06/2019 14:36:03;100;0;10.42;17;-18.73;-6.27;192.7;10.60;69497;5125.135;-12838.779;54;-300;-291.1;73;72.9;-20;-20.3;28.7;20.0;
16/06/2019 14:36:23;118;0;11.28;17;-18.73;-6.35;194.7;10.60;69498;5125.135;-12838.779;54;150;-277.2;57;56.8;0;0.9;28.7;17.9;
16/06/2019 14:36:34;118;0;42.24;17;3.14;4.02;195.6;10.50;69408;5125.135;-12838.779;54;150;-116.8;57;57.4;0;0.9;28.1;17.9;
16/06/2019 14:36:44;118;0;41.83;17;19.92;3.83;195.3;10.50;69193;5125.135;-12838.779;54;150;39.6;57;57.2;0;0.9;28.1;-1.0;
16/06/2019 14:36:54;118;0;40.55;17;24.19;3.55;194.4;10.50;68945;5125.135;-12838.779;54;150;156.4;57;57.2;0;0.9;28.1;-1.0;
16/06/2019 14:37:04;118;0;7.09;17;24.18;3.78;193.2;10.50;68783;5125.135;-12838.779;54;150;154.5;57;57.2;0;0.9;28.7;-1.0;
16/06/2019 14:37:14;118;0;7.03;17;26.71;3.84;191.5;10.50;68779;5125.135;-12838.779;54;150;156.4;57;57.2;0;0.9;28.7;-1.0;
16/06/2019 14:37:24;117;0;9.21;17;28.09;4.18;189.7;10.50;68772;5125.135;-12838.779;54;150;154.5;57;57.2;0;0.9;28.7;-1.0;
16/06/2019 14:37:44;117;0;7.20;17;27.82;4.12;185.6;10.40;68777;5125.135;-12838.779;54;150;154.5;57;57.2;21;21.2;28.7;-1.0;
16/06/2019 14:38:04;117;0;13.25;17;27.79;14.02;180.6;10.40;68775;5125.135;-12838.779;54;150;156.4;57;57.1;18;18.1;28.7;-1.0;
16/06/2019 14:38:24;117;0;17.03;17;27.32;11.34;176.1;10.30;68773;5125.135;-12838.779;54;150;154.5;57;57.2;16;15.3;28.7;-1.0;
16/06/2019 14:38:44;117;0;22.13;17;27.75;10.33;171.6;10.30;68752;5125.135;-12838.779;54;150;158.4;57;57.1;14;14.0;28.7;-1.0;
16/06/2019 14:39:04;117;0;24.21;17;27.82;9.89;167.1;10.20;68754;5125.135;-12838.779;54;150;154.5;57;57.2;15;14.9;28.7;-1.0;
16/06/2019 14:39:24;117;0;28.65;17;27.82;10.92;162.7;10.20;68751;5125.135;-12838.779;54;150;154.5;57;57.2;13;13.1;28.7;-1.0;
16/06/2019 14:39:44;117;0;32.57;17;27.82;9.17;158.1;10.20;68754;5125.135;-12838.779;54;150;156.4;57;57.2;12;12.2;28.7;-1.0;
16/06/2019 14:40:04;117;0;32.99;17;28.19;9.17;153.5;10.10;68741;5125.135;-12838.779;54;150;156.4;57;57.2;14;14.0;28.7;-1.0;
16/06/2019 14:40:24;117;0;40.33;17;27.95;10.45;148.8;10.10;68746;5125.135;-12838.779;54;150;156.4;57;57.2;14;14.4;28.7;-1.0;
16/06/2019 14:40:44;117;0;46.83;17;27.36;10.51;144.2;10.00;68749;5125.135;-12838.779;54;150;156.4;57;57.2;8;8.1;28.7;-1.0;
16/06/2019 14:41:04;117;0;52.75;17;26.91;6.81;139.8;10.00;68767;5125.135;-12838.779;54;150;156.4;57;57.2;6;5.9;28.7;-1.0;
16/06/2019 14:41:24;117;0;55.20;17;26.53;5.38;135.5;10.00;68764;5125.135;-12838.779;54;150;158.4;57;57.2;6;5.0;28.6;-1.0;
16/06/2019 14:41:44;117;0;52.53;17;26.34;5.74;131.6;9.90;68779;5125.135;-12838.779;54;150;154.5;57;57.2;9;9.0;28.7;-1.0;
16/06/2019 14:42:04;117;0;56.06;17;25.22;7.83;127.5;9.90;68789;5125.135;-12838.779;54;150;156.4;57;57.2;6;5.9;28.7;-1.0;
16/06/2019 14:42:24;117;0;54.56;17;25.59;5.64;123.9;9.90;68805;5125.135;-12838.779;54;150;156.4;57;57.2;7;7.2;28.7;-1.0;
16/06/2019 14:42:44;117;0;48.92;17;25.86;6.88;119.9;9.90;68803;5125.135;-12838.779;54;150;156.4;57;57.2;11;10.8;28.7;-1.0;
16/06/2019 14:43:04;117;0;45.13;17;26.20;8.54;115.9;9.90;68810;5125.135;-12838.779;54;150;158.4;57;57.2;11;11.7;28.7;-1.0;
16/06/2019 14:43:24;117;0;39.23;17;26.70;9.35;111.6;9.80;68814;5125.135;-12838.779;54;150;156.4;57;57.2;13;13.1;28.7;-1.0;
16/06/2019 14:43:44;117;0;36.92;17;25.99;10.17;107.0;9.90;68838;5125.135;-12838.779;54;150;156.4;57;57.2;13;14.0;28.7;-1.0;
16/06/2019 14:44:04;117;0;40.51;17;24.61;10.10;102.7;9.80;68843;5125.135;-12838.779;54;150;156.4;57;57.2;10;9.5;28.7;-1.0;
16/06/2019 14:44:24;117;0;40.43;17;22.75;7.58;98.8;9.80;68857;5125.135;-12838.779;54;150;156.4;57;57.2;9;9.0;28.7;-1.0;
16/06/2019 14:44:44;117;0;46.94;17;21.50;7.56;95.5;9.80;68865;5125.135;-12838.779;54;150;156.4;57;57.2;6;5.9;28.7;-1.0;
16/06/2019 14:45:04;117;0;47.95;17;21.81;5.67;92.6;9.80;68868;5125.135;-12838.779;54;150;156.4;57;57.2;6;5.4;28.7;-1.0;
16/06/2019 14:45:24;117;0;48.94;17;21.87;5.71;89.8;9.80;68884;5125.135;-12838.779;54;150;158.4;57;57.2;5;5.0;28.7;-1.0;
16/06/2019 14:45:44;117;0;47.91;17;22.61;5.38;86.8;9.80;68892;5125.135;-12838.779;54;150;156.4;57;57.2;6;5.9;28.7;-1.0;
16/06/2019 14:46:04;117;0;52.48;17;21.75;6.65;83.5;9.80;68895;5125.135;-12838.779;54;150;156.4;57;57.2;3;2.7;28.7;-1.0;
16/06/2019 14:46:24;117;0;58.89;17;21.16;4.26;80.6;9.80;68909;5125.135;-12838.779;54;150;156.4;57;57.2;0;0.0;28.7;-1.0;
16/06/2019 14:46:44;117;0;67.49;17;20.35;2.70;77.8;9.80;68910;5125.135;-12838.779;54;150;156.4;57;57.2;-3;-3.2;28.7;-1.0;
16/06/2019 14:47:04;117;0;67.11;17;19.97;1.32;75.3;9.80;68914;5125.135;-12838.779;54;150;156.4;57;57.2;-2;-1.8;28.7;-1.0;
16/06/2019 14:47:24;117;0;62.10;17;20.22;2.68;73.0;9.80;68941;5125.135;-12838.779;54;150;156.4;57;57.2;1;1.4;28.7;-1.0;
16/06/2019 14:47:44;117;0;64.81;17;19.79;4.19;70.5;9.80;68940;5125.135;-12838.779;54;150;156.4;57;57.2;0;0.0;28.7;-1.0;
16/06/2019 14:48:04;117;0;66.61;17;19.34;2.92;68.0;9.80;68966;5125.135;-12838.779;54;150;156.4;57;57.2;-2;-1.8;28.7;-1.0;
16/06/2019 14:48:24;117;0;64.25;17;19.33;1.99;65.8;9.80;68975;5125.135;-12838.779;54;150;158.4;57;57.2;-1;-0.5;28.7;-1.0;
16/06/2019 14:48:44;117;0;64.77;17;18.81;3.34;63.7;9.80;68986;5125.135;-12838.779;54;150;156.4;57;57.2;-1;0.0;28.7;-1.0;
16/06/2019 14:49:04;117;0;68.22;17;18.82;3.36;61.7;9.90;69005;5125.135;-12838.779;54;150;156.4;57;57.2;-4;-4.1;28.7;-1.0;
16/06/2019 14:49:24;117;0;69.13;17;18.78;0.91;59.7;9.90;69012;5125.135;-12838.779;54;150;158.4;57;57.2;-5;-5.0;28.7;-1.0;
16/06/2019 14:49:44;117;0;68.75;17;18.89;0.57;57.8;9.90;69021;5125.135;-12838.779;54;150;156.4;57;57.2;-4;-4.1;28.7;-1.0;
16/06/2019 14:50:04;117;0;66.22;17;19.04;1.34;55.9;9.90;69029;5125.135;-12838.779;54;150;156.4;57;57.2;-4;-3.6;28.7;-1.0;
16/06/2019 14:50:24;117;0;64.77;17;18.68;1.45;53.9;9.90;69049;5125.135;-12838.779;54;150;156.4;57;57.2;-3;-3.2;28.7;-1.0;
16/06/2019 14:50:44;117;0;63.04;17;19.09;2.12;51.8;9.90;69048;5125.135;-12838.779;54;150;156.4;57;57.2;-4;-4.1;28.7;-1.0;
16/06/2019 14:51:04;117;0;59.79;17;19.25;1.15;49.6;9.90;69075;5125.135;-12838.779;54;150;156.4;57;57.2;-3;-2.7;28.7;-1.0;
16/06/2019 14:51:24;117;0;57.81;17;18.40;2.31;47.5;9.90;69075;5125.135;-12838.779;54;150;156.4;57;57.2;-3;-2.3;28.7;-1.0;
16/06/2019 14:51:44;117;0;57.17;17;18.32;2.23;45.5;10.00;69085;5125.135;-12838.779;54;150;158.4;57;57.2;-5;-5.0;28.7;-1.0;
16/06/2019 14:52:04;117;0;57.62;17;18.16;0.71;43.7;10.00;69107;5125.135;-12838.779;54;150;156.4;57;57.2;-6;-5.9;28.7;-1.0;
16/06/2019 14:52:24;117;0;57.03;17;17.93;0.14;41.8;10.00;69115;5125.135;-12838.779;54;150;158.4;57;57.2;-6;-6.3;28.7;-1.0;
16/06/2019 14:52:44;117;0;52.41;17;17.83;0.12;40.0;10.00;69127;5125.135;-12838.779;54;150;158.4;57;57.2;-4;-4.1;28.7;-1.0;
16/06/2019 14:53:04;117;0;52.44;17;17.73;1.66;38.1;10.00;69133;5125.135;-12838.779;54;150;156.4;57;57.2;-6;-5.9;28.7;-1.0;
16/06/2019 14:53:24;117;0;50.92;17;17.63;0.22;36.2;10.10;69138;5125.135;-12838.779;54;150;156.4;57;57.2;-6;-6.3;28.7;-1.0;
16/06/2019 14:53:44;117;0;50.15;17;17.52;0.20;34.2;10.10;69162;5125.135;-12838.779;54;150;158.4;57;57.2;-7;-7.2;28.7;-1.0;
16/06/2019 14:54:04;117;0;44.78;17;17.24;-0.39;32.3;10.10;69175;5125.135;-12838.779;54;150;156.4;57;57.2;-4;-4.1;28.6;-1.0;
16/06/2019 14:54:24;117;0;41.77;17;16.63;1.65;30.5;10.10;69182;5125.135;-12838.779;54;150;158.4;57;57.2;-4;-3.6;28.7;-1.0;
16/06/2019 14:54:44;117;0;37.86;17;16.26;1.60;28.8;10.20;69211;5125.135;-12838.779;54;150;156.4;57;57.2;-4;-3.6;28.7;-1.0;
16/06/2019 14:55:04;117;0;37.62;17;16.24;1.77;27.3;10.20;69233;5125.135;-12838.779;54;150;156.4;57;57.2;-4;-3.2;28.7;-1.0;
16/06/2019 14:55:24;117;0;35.06;17;15.65;1.68;25.9;10.20;69262;5125.135;-12838.779;54;150;156.4;57;57.2;-4;-3.2;28.7;-1.0;
16/06/2019 14:55:44;117;0;39.23;17;15.57;1.78;24.3;10.30;69297;5125.135;-12838.779;54;150;156.4;57;57.2;-4;-3.2;28.7;-1.0;
16/06/2019 14:56:04;117;0;41.95;17;15.74;1.81;22.8;10.30;69320;5125.135;-12838.779;54;150;156.4;57;57.2;-7;-7.7;28.7;-1.0;
16/06/2019 14:56:24;117;0;42.41;17;15.43;-0.57;21.2;10.30;69344;5125.135;-12838.779;54;150;156.4;57;57.2;-8;-8.1;28.7;-1.0;
16/06/2019 14:56:44;117;0;35.36;17;15.72;-0.63;19.7;10.40;69361;5125.135;-12838.779;54;150;158.4;57;57.4;-8;-8.1;28.7;-1.0;
16/06/2019 14:57:04;117;0;33.00;17;15.38;-0.66;18.2;10.40;69402;5125.135;-12838.779;54;150;156.4;57;57.2;-3;-3.2;28.7;-1.0;
16/06/2019 14:57:24;117;0;30.02;17;15.53;2.11;16.8;10.50;69421;5125.135;-12838.779;54;150;156.4;57;57.2;-2;-1.8;28.7;-1.0;
16/06/2019 14:57:44;117;0;27.79;17;15.71;2.75;15.5;10.50;69437;5125.135;-12838.779;54;150;158.4;57;57.2;-1;-0.9;28.7;-1.0;
16/06/2019 14:58:04;117;0;27.11;17;15.39;2.80;14.1;10.60;69449;5125.135;-12838.779;54;150;158.4;57;57.2;-2;-1.8;28.7;-1.0;
16/06/2019 14:58:24;117;0;26.25;17;15.35;2.13;12.6;10.60;69464;5125.135;-12838.779;54;150;156.4;57;57.2;-1;-0.9;28.7;-1.0;
16/06/2019 14:58:44;117;0;24.93;17;14.99;3.36;11.2;10.70;69497;5125.135;-12838.779;54;150;158.4;57;57.2;0;0.0;28.7;-1.0;
