Timestamp;NavState;SecurityLevel;Heading;Declination;Pitch;Roll;Depth;Temperature;Pa;Lat;Lon;DesiredH;BallastCmd;BallastPos;LinCmd;LinPos;AngCmd;AngPos;Voltage;Altitude;
16/06/2019 08:15:46;117;0;30.29;17;16.15;2.88;8.5;10.20;69348;5125.013;-12838.275;51;150;156.4;57;56.9;1;0.9;28.7;-1.0;
16/06/2019 08:15:56;110;0;24.92;17;16.34;4.08;7.8;10.20;69356;5125.013;-12838.275;51;-300;-45.5;73;73.5;0;-0.5;28.8;-1.0;
16/06/2019 08:16:06;110;0;33.40;17;-8.68;3.30;7.3;10.20;69830;5125.013;-12838.275;51;-300;-301.0;73;72.9;0;-0.5;28.6;-1.0;
16/06/2019 08:16:16;110;0;22.45;17;-22.37;3.31;8.1;10.30;70155;5125.013;-12838.275;51;-300;-301.0;73;72.9;0;-0.5;28.7;-1.0;
16/06/2019 08:16:26;100;0;20.64;17;-27.47;3.07;9.7;10.30;70143;5125.013;-12838.275;51;-300;-305.0;73;72.7;0;-0.5;28.7;-1.0;
16/06/2019 08:16:46;100;0;10.63;17;-26.24;3.51;13.9;10.30;70150;5125.013;-12838.275;51;-300;-305.0;73;72.9;-12;-12.2;28.7;0.0;
16/06/2019 08:17:06;100;0;5.07;17;-26.53;-2.53;18.8;10.40;70149;5125.013;-12838.275;51;-300;-305.0;73;72.9;-12;-13.1;28.7;0.0;
16/06/2019 08:17:26;100;0;8.19;17;-24.77;-2.38;23.2;10.50;70107;5125.013;-12838.275;51;-300;-305.0;73;72.9;-8;-8.1;28.8;0.0;
16/06/2019 08:17:46;100;0;6.00;17;-24.34;0.23;27.3;10.50;70057;5125.013;-12838.275;51;-300;-305.0;73;72.9;-9;-9.5;28.7;0.0;
16/06/2019 08:18:06;100;0;3.87;17;-24.96;-1.00;31.1;10.50;70026;5125.013;-12838.275;51;-300;-305.0;73;72.9;-10;-9.9;28.7;0.0;
16/06/2019 08:18:26;100;0;3.51;17;-24.62;-0.88;35.0;10.50;70009;5125.013;-12838.275;51;-300;-305.0;73;72.9;-10;-9.9;28.7;0.0;
16/06/2019 08:18:46;100;0;1.02;17;-24.70;-1.02;38.9;10.50;69982;5125.013;-12838.275;51;-300;-305.0;73;72.7;-11;-10.8;28.7;0.0;
16/06/2019 08:19:06;100;0;359.77;17;-24.52;-1.83;42.7;10.50;69964;5125.013;-12838.275;51;-300;-303.0;73;72.9;-12;-12.2;28.8;0.0;
16/06/2019 08:19:26;100;0;357.68;17;-24.79;-2.36;46.5;10.50;69953;5125.013;-12838.275;51;-300;-305.0;73;72.7;-13;-13.1;28.8;0.0;
16/06/2019 08:19:46;100;0;352.67;17;-24.55;-2.94;50.4;10.50;69933;5125.013;-12838.275;51;-300;-305.0;73;72.9;-16;-15.8;28.8;0.0;
16/06/2019 08:20:06;100;0;350.34;17;-24.21;-4.08;54.3;10.50;69925;5125.013;-12838.275;51;-300;-305.0;73;72.9;-16;-16.2;28.7;0.0;
16/06/2019 08:20:26;100;0;350.79;17;-24.03;-4.12;58.2;10.50;69906;5125.013;-12838.275;51;-300;-305.0;73;72.9;-16;-16.7;28.7;0.0;
16/06/2019 08:20:47;100;0;352.84;17;-24.15;-4.11;61.8;10.50;69892;5125.013;-12838.275;51;-300;-303.0;73;72.9;-15;-14.9;28.7;0.0;
16/06/2019 08:21:07;100;0;353.02;17;-24.52;-2.93;65.4;10.50;69867;5125.013;-12838.275;51;-300;-305.0;73;72.9;-15;-14.0;28.7;0.0;
16/06/2019 08:21:27;100;0;353.89;17;-23.69;-2.87;69.0;10.40;69844;5125.013;-12838.275;51;-300;-305.0;73;72.9;-16;-15.8;28.7;0.0;
16/06/2019 08:21:47;100;0;359.57;17;-23.45;-3.77;72.7;10.40;69833;5125.013;-12838.275;51;-300;-303.0;73;72.7;-13;-12.6;28.8;0.0;
16/06/2019 08:22:07;100;0;0.97;17;-23.54;-1.92;76.3;10.40;69827;5125.013;-12838.275;51;-300;-305.0;73;72.9;-14;-14.0;28.8;0.0;
16/06/2019 08:22:27;100;0;355.58;17;-23.65;-3.20;79.7;10.40;69814;5125.013;-12838.275;51;-300;-305.0;73;72.9;-19;-19.0;28.7;0.0;
16/06/2019 08:22:47;100;0;354.28;17;-23.30;-5.33;83.3;10.40;69796;5125.013;-12838.275;51;-300;-305.0;73;72.9;-19;-19.0;28.7;0.0;
16/06/2019 08:23:07;100;0;354.55;17;-23.26;-5.25;86.8;10.40;69789;5125.013;-12838.275;51;-300;-303.0;73;72.9;-19;-19.0;28.7;0.0;
16/06/2019 08:23:27;100;0;353.25;17;-22.88;-5.27;90.4;10.40;69784;5125.013;-12838.275;51;-300;-303.0;73;72.9;-20;-19.9;28.7;0.0;
16/06/2019 08:23:47;100;0;350.73;17;-22.41;-5.73;93.9;10.30;69777;5125.013;-12838.275;51;-300;-303.0;73;72.9;-22;-22.6;28.8;0.0;
16/06/2019 08:24:07;100;0;348.97;17;-22.74;-7.10;97.3;10.30;69767;5125.013;-12838.275;51;-300;-303.0;73;72.9;-25;-24.8;28.8;0.0;
16/06/2019 08:24:27;100;0;349.29;17;-22.58;-8.17;100.8;10.30;69767;5125.013;-12838.275;51;-300;-305.0;73;72.9;-24;-23.9;28.8;0.0;
16/06/2019 08:24:47;100;0;346.99;17;-22.45;-7.40;104.0;10.30;69760;5125.013;-12838.275;51;-300;-305.0;73;72.9;-25;-25.3;28.8;0.0;
16/06/2019 08:25:07;100;0;341.40;17;-22.49;-8.52;107.1;10.30;69750;5125.013;-12838.275;51;-300;-305.0;73;72.9;-27;-27.1;28.7;0.0;
16/06/2019 08:25:27;100;0;335.39;17;-22.13;-9.46;110.3;10.30;69744;5125.013;-12838.275;51;-300;-305.0;73;72.7;-30;-29.8;28.8;0.0;
16/06/2019 08:25:47;100;0;335.00;17;-21.57;-10.67;113.2;10.30;69733;5125.013;-12838.275;51;-300;-305.0;73;72.9;-28;-27.5;28.7;0.0;
16/06/2019 08:26:07;100;0;334.61;17;-21.44;-8.93;115.9;10.30;69726;5125.013;-12838.275;51;-300;-303.0;73;72.9;-27;-27.1;28.8;0.0;
16/06/2019 08:26:27;100;0;334.54;17;-21.63;-9.14;118.7;10.20;69712;5125.013;-12838.275;51;-300;-305.0;73;72.9;-27;-27.1;28.7;0.0;
16/06/2019 08:26:47;100;0;331.95;17;-21.72;-9.32;121.6;10.20;69706;5125.013;-12838.275;51;-300;-303.0;73;72.9;-28;-28.0;28.7;0.0;
16/06/2019 08:27:07;100;0;329.79;17;-21.01;-9.97;124.4;10.20;69705;5125.013;-12838.275;51;-300;-303.0;73;72.9;-29;-28.9;28.7;0.0;
16/06/2019 08:27:27;100;0;334.01;17;-20.75;-10.12;127.0;10.20;69698;5125.013;-12838.275;51;-300;-305.0;73;72.9;-25;-24.8;28.8;0.0;
16/06/2019 08:27:47;100;0;339.86;17;-20.79;-8.41;129.5;10.20;69687;5125.013;-12838.275;51;-300;-305.0;73;72.9;-23;-23.0;28.7;0.0;
16/06/2019 08:28:07;100;0;342.89;17;-20.65;-7.08;132.0;10.10;69682;5125.013;-12838.275;51;-300;-305.0;73;72.9;-22;-22.1;28.8;0.0;
16/06/2019 08:28:27;100;0;349.08;17;-20.32;-7.16;134.4;10.10;69675;5125.013;-12838.275;51;-300;-305.0;73;72.7;-20;-19.4;28.8;0.0;
16/06/2019 08:28:47;100;0;356.58;17;-20.26;-5.26;136.8;10.10;69670;5125.013;-12838.275;51;-300;-305.0;73;72.9;-17;-17.1;28.8;0.0;
16/06/2019 08:29:07;100;0;0.02;17;-19.92;-4.09;139.1;10.10;69655;5125.013;-12838.275;51;-300;-305.0;73;72.9;-17;-16.2;28.7;0.0;
16/06/2019 08:29:27;100;0;4.57;17;-19.14;-4.13;141.7;10.10;69640;5125.013;-12838.275;51;-300;-303.0;73;72.9;-17;-16.2;28.8;0.0;
16/06/2019 08:29:47;100;0;359.56;17;-19.56;-4.11;143.9;10.00;69631;5125.013;-12838.275;51;-300;-305.0;73;72.9;-21;-21.2;28.7;0.0;
16/06/2019 08:30:07;100;0;356.33;17;-19.63;-6.72;146.1;10.00;69626;5125.013;-12838.275;51;-300;-303.0;73;72.7;-23;-23.0;28.7;0.0;
16/06/2019 08:30:27;100;0;358.57;17;-19.48;-7.62;148.3;10.00;69613;5125.013;-12838.275;51;-300;-305.0;73;72.9;-21;-21.2;28.7;0.0;
16/06/2019 08:30:47;100;0;357.12;17;-18.96;-6.11;150.6;10.00;69599;5125.013;-12838.275;51;-300;-305.0;73;72.9;-22;-22.1;28.7;0.0;
16/06/2019 08:31:07;100;0;355.25;17;-18.81;-7.14;152.8;9.90;69597;5125.013;-12838.275;51;-300;-303.0;73;72.9;-23;-23.0;28.7;0.0;
16/06/2019 08:31:27;100;0;358.23;17;-18.85;-7.26;154.8;9.90;69587;5125.013;-12838.275;51;-300;-305.0;73;72.9;-21;-21.2;28.8;0.0;
16/06/2019 08:31:47;100;0;0.13;17;-18.83;-6.10;156.8;9.90;69581;5125.013;-12838.275;51;-300;-305.0;73;72.7;-20;-19.9;28.8;0.0;
16/06/2019 08:32:07;100;0;2.61;17;-18.64;-5.51;158.9;9.90;69569;5125.013;-12838.275;51;-300;-303.0;73;72.9;-19;-19.0;28.7;0.0;
16/06/2019 08:32:27;100;0;6.45;17;-18.72;-5.40;160.9;9.80;69557;5125.013;-12838.275;51;-300;-305.0;73;72.9;-18;-18.1;28.8;0.0;
16/06/2019 08:32:47;100;0;8.40;17;-18.94;-4.72;163.0;9.80;69559;5125.013;-12838.275;51;-300;-305.0;73;72.9;-18;-17.1;28.7;0.0;
16/06/2019 08:33:07;100;0;10.08;17;-18.35;-4.61;165.0;9.80;69554;5125.013;-12838.275;51;-300;-305.0;73;72.9;-17;-17.1;28.7;0.0;
16/06/2019 08:33:27;100;0;10.79;17;-18.30;-4.64;167.0;9.70;69534;5125.013;-12838.275;51;-300;-305.0;73;72.9;-18;-18.1;28.7;0.0;
16/06/2019 08:33:47;100;0;9.49;17;-18.16;-5.15;169.1;9.70;69529;5125.013;-12838.275;51;-300;-303.0;73;72.9;-19;-19.0;28.8;0.0;
16/06/2019 08:34:07;100;0;7.09;17;-18.37;-5.69;171.0;9.70;69508;5125.013;-12838.275;51;-300;-303.0;73;72.9;-20;-19.9;28.7;0.0;
16/06/2019 08:34:27;100;0;4.98;17;-18.38;-6.10;173.0;9.70;69493;5125.013;-12838.275;51;-300;-303.0;73;72.7;-22;-22.1;28.7;43.8;
16/06/2019 08:34:47;100;0;4.67;17;-18.25;-6.93;175.0;9.60;69494;5125.013;-12838.275;51;-300;-305.0;73;72.9;-21;-20.8;28.8;41.8;
16/06/2019 08:35:07;100;0;5.60;17;-18.65;-6.05;177.0;9.60;69488;5125.013;-12838.275;51;-300;-303.0;73;72.9;-20;-19.4;28.7;39.6;
16/06/2019 08:35:27;100;0;3.73;17;-18.44;-5.27;178.9;9.60;69481;5125.013;-12838.275;51;-300;-305.0;73;72.9;-21;-21.7;28.7;37.6;
16/06/2019 08:35:47;100;0;3.50;17;-18.48;-6.91;181.0;9.60;69483;5125.013;-12838.275;51;-300;-303.0;73;72.9;-21;-22.1;28.7;35.4;
16/06/2019 08:36:07;100;0;2.85;17;-18.51;-6.53;183.1;9.50;69469;5125.013;-12838.275;51;-300;-303.0;73;72.9;-21;-22.1;28.7;33.3;
16/06/2019 08:36:27;100;0;4.21;17;-18.16;-6.91;185.1;9.50;69455;5125.013;-12838.275;51;-300;-303.0;73;72.7;-20;-19.9;28.7;31.1;
16/06/2019 08:36:47;100;0;1.80;17;-18.13;-5.59;187.2;9.50;69462;5125.013;-12838.275;51;-300;-305.0;73;72.9;-22;-22.6;28.8;29.0;
16/06/2019 08:37:07;100;0;1.93;17;-18.06;-7.33;189.2;9.50;69458;5125.013;-12838.275;51;-300;-305.0;73;72.9;-21;-21.2;28.7;27.0;
16/06/2019 08:37:27;100;0;2.66;17;-18.39;-6.20;191.3;9.40;69447;5125.013;-12838.275;51;-300;-305.0;73;72.9;-21;-20.3;28.7;24.9;
16/06/2019 08:37:47;100;0;2.45;17;-18.39;-6.15;193.4;9.40;69454;5125.013;-12838.275;51;-300;-305.0;73;72.9;-21;-20.3;28.7;22.6;
16/06/2019 08:38:07;100;0;1.60;17;-18.22;-6.25;195.4;9.40;69444;5125.013;-12838.275;51;-300;-305.0;73;72.7;-21;-20.3;28.7;20.4;
16/06/2019 08:38:27;100;0;1.87;17;-18.65;-6.26;197.5;9.30;69446;5125.013;-12838.275;51;-300;-305.0;73;72.9;-21;-20.3;28.7;18.3;
16/06/2019 08:38:47;118;0;3.60;17;-18.15;-5.93;199.6;9.30;69447;5125.013;-12838.275;51;150;-289.1;57;56.8;0;0.9;28.8;16.2;
16/06/2019 08:38:57;118;0;39.34;17;2.74;4.09;200.3;9.30;69359;5125.013;-12838.275;51;150;-132.7;57;57.1;0;0.9;28.1;16.2;
16/06/2019 08:39:07;118;0;36.66;17;20.14;3.66;200.0;9.30;69146;5125.013;-12838.275;51;150;23.8;57;57.1;0;0.9;28.1;-1.0;
16/06/2019 08:39:17;118;0;35.42;17;24.30;3.84;199.2;9.30;68900;5125.013;-12838.275;51;150;156.4;57;56.9;0;0.9;28.2;-1.0;
16/06/2019 08:39:27;118;0;352.05;17;24.82;4.09;198.0;9.30;68699;5125.013;-12838.275;51;150;156.4;57;57.1;0;0.9;28.7;-1.0;
16/06/2019 08:39:37;118;0;353.10;17;26.96;3.87;196.3;9.30;68697;5125.013;-12838.275;51;150;156.4;57;57.1;0;0.9;28.7;-1.0;
16/06/2019 08:39:47;117;0;353.30;17;28.03;3.92;194.4;9.30;68695;5125.013;-12838.275;51;150;156.4;57;57.1;0;0.9;28.7;-1.0;
16/06/2019 08:40:07;117;0;354.21;17;28.33;3.87;190.1;9.30;68699;5125.013;-12838.275;51;150;156.4;57;56.9;25;24.8;28.8;-1.0;
16/06/2019 08:40:27;117;0;3.12;17;27.75;15.83;185.3;9.20;68692;5125.013;-12838.275;51;150;158.4;57;57.1;19;19.0;28.7;-1.0;
16/06/2019 08:40:47;117;0;13.75;17;27.81;12.23;181.0;9.20;68684;5125.013;-12838.275;51;150;158.4;57;56.9;14;14.0;28.7;-1.0;
16/06/2019 08:41:07;117;0;20.45;17;28.03;9.82;176.6;9.20;68683;5125.013;-12838.275;51;150;156.4;57;56.9;12;12.2;28.7;-1.0;
16/06/2019 08:41:27;117;0;28.20;17;27.71;8.86;172.3;9.20;68686;5125.013;-12838.275;51;150;158.4;57;56.9;10;9.9;28.7;-1.0;
16/06/2019 08:41:47;117;0;37.78;17;27.94;7.70;168.0;9.20;68679;5125.013;-12838.275;51;150;156.4;57;56.9;10;9.5;28.7;-1.0;
16/06/2019 08:42:07;117;0;36.73;17;27.92;7.84;163.8;9.10;68682;5125.013;-12838.275;51;150;156.4;57;56.9;10;9.5;28.7;-1.0;
16/06/2019 08:42:27;117;0;31.80;17;28.37;7.97;159.5;9.10;68690;5125.013;-12838.275;51;150;156.4;57;56.9;10;9.5;28.8;-1.0;
16/06/2019 08:42:47;117;0;28.05;17;27.89;7.97;155.3;9.10;68699;5125.013;-12838.275;51;150;156.4;57;56.9;17;17.1;28.7;-1.0;
16/06/2019 08:43:07;117;0;32.49;17;26.83;11.61;151.1;9.10;68718;5125.013;-12838.275;51;150;156.4;57;56.9;14;13.5;28.8;-1.0;
16/06/2019 08:43:27;117;0;36.88;17;26.69;9.64;147.1;9.10;68717;5125.013;-12838.275;51;150;158.4;57;57.1;14;13.1;28.8;-1.0;
16/06/2019 08:43:47;117;0;48.75;17;26.89;8.92;143.0;9.10;68728;5125.013;-12838.275;51;150;158.4;57;56.9;6;5.9;28.8;-1.0;
16/06/2019 08:44:07;117;0;37.75;17;27.52;5.46;139.0;9.00;68731;5125.013;-12838.275;51;150;158.4;57;56.9;15;14.9;28.7;-1.0;
16/06/2019 08:44:27;117;0;29.50;17;28.77;11.55;134.7;9.00;68746;5125.013;-12838.275;51;150;158.4;57;56.9;15;15.3;28.7;-1.0;
16/06/2019 08:44:47;117;0;38.38;17;25.80;10.74;130.3;9.00;68754;5125.013;-12838.275;51;150;156.4;57;56.9;12;11.7;28.7;-1.0;
16/06/2019 08:45:07;117;0;45.00;17;26.36;8.91;126.5;9.00;68760;5125.013;-12838.275;51;150;156.4;57;56.9;8;8.1;28.7;-1.0;
16/06/2019 08:45:27;117;0;55.45;17;25.35;7.09;122.4;9.00;68777;5125.013;-12838.275;51;150;156.4;57;57.2;3;3.2;28.8;-1.0;
16/06/2019 08:45:47;117;0;59.43;17;24.52;4.37;118.8;9.00;68785;5125.013;-12838.275;51;150;158.4;57;57.1;3;2.7;28.7;-1.0;
16/06/2019 08:46:07;117;0;58.32;17;24.07;4.46;115.5;9.00;68793;5125.013;-12838.275;51;150;158.4;57;56.9;5;5.0;28.7;-1.0;
16/06/2019 08:46:27;117;0;64.68;17;23.57;6.35;112.3;9.00;68808;5125.013;-12838.275;51;150;158.4;57;56.9;2;1.8;28.7;-1.0;
16/06/2019 08:46:47;117;0;69.97;17;23.67;3.65;109.2;9.00;68811;5125.013;-12838.275;51;150;158.4;57;56.9;0;0.0;28.7;-1.0;
16/06/2019 08:47:07;117;0;70.68;17;22.89;2.72;106.2;9.00;68806;5125.013;-12838.275;51;150;158.4;57;57.1;0;-0.5;28.7;-1.0;
16/06/2019 08:47:27;117;0;68.23;17;23.03;2.85;103.5;9.10;68834;5125.013;-12838.275;51;150;158.4;57;56.9;2;1.8;28.7;-1.0;
16/06/2019 08:47:47;117;0;71.24;17;22.71;4.14;100.7;9.10;68830;5125.013;-12838.275;51;150;158.4;57;56.9;0;0.0;28.7;-1.0;
16/06/2019 08:48:07;117;0;68.38;17;21.99;2.97;97.9;9.10;68835;5125.013;-12838.275;51;150;156.4;57;56.9;2;1.8;28.8;-1.0;
16/06/2019 08:48:27;117;0;69.52;17;21.77;4.27;95.3;9.10;68848;5125.013;-12838.275;51;150;158.4;57;57.1;0;-0.5;28.7;-1.0;
16/06/2019 08:48:47;117;0;69.65;17;21.68;2.67;92.7;9.10;68863;5125.013;-12838.275;51;150;158.4;57;56.9;0;-0.9;28.7;-1.0;
16/06/2019 08:49:07;117;0;67.24;17;21.41;2.76;90.0;9.10;68856;5125.013;-12838.275;51;150;158.4;57;57.1;0;-0.9;28.7;-1.0;
16/06/2019 08:49:27;117;0;62.62;17;21.93;2.65;87.4;9.10;68864;5125.013;-12838.275;51;150;158.4;57;56.9;2;1.8;28.7;-1.0;
16/06/2019 08:49:47;117;0;52.75;17;21.88;4.26;84.8;9.10;68873;5125.013;-12838.275;51;150;156.4;57;57.1;6;5.9;28.7;-1.0;
16/06/2019 08:50:07;117;0;54.82;17;20.69;6.51;82.1;9.10;68870;5125.013;-12838.275;51;150;158.4;57;56.9;2;1.4;28.8;-1.0;
16/06/2019 08:50:27;117;0;60.04;17;20.98;3.60;79.4;9.10;68881;5125.013;-12838.275;51;150;158.4;57;56.9;-2;-1.8;28.7;-1.0;
16/06/2019 08:50:47;117;0;58.27;17;20.72;1.78;76.7;9.10;68878;5125.013;-12838.275;51;150;158.4;57;57.1;-1;-0.5;28.7;-1.0;
16/06/2019 08:51:07;117;0;51.51;17;20.95;3.24;74.0;9.10;68884;5125.013;-12838.275;51;150;156.4;57;56.9;2;1.8;28.7;-1.0;
16/06/2019 08:51:27;117;0;47.74;17;21.07;4.45;71.2;9.20;68889;5125.013;-12838.275;51;150;158.4;57;57.1;2;2.7;28.7;-1.0;
16/06/2019 08:51:48;117;0;45.56;17;20.87;4.39;68.6;9.20;68897;5125.013;-12838.275;51;150;158.4;57;56.9;1;0.9;28.7;-1.0;
16/06/2019 08:52:08;117;0;42.86;17;20.42;3.17;66.1;9.20;68891;5125.013;-12838.275;51;150;156.4;57;57.1;2;1.8;28.7;-1.0;
16/06/2019 08:52:28;117;0;39.36;17;20.88;4.47;63.6;9.20;68894;5125.013;-12838.275;51;150;158.4;57;57.1;2;2.7;28.8;-1.0;
16/06/2019 08:52:48;117;0;41.36;17;20.30;4.63;60.9;9.20;68899;5125.013;-12838.275;51;150;156.4;57;57.1;0;-0.5;28.8;-1.0;
16/06/2019 08:53:08;117;0;48.65;17;20.06;2.68;58.5;9.20;68903;5125.013;-12838.275;51;150;158.4;57;57.1;-4;-4.1;28.8;-1.0;
16/06/2019 08:53:28;117;0;48.72;17;20.02;1.00;55.9;9.20;68927;5125.013;-12838.275;51;150;160.4;57;57.1;-3;-2.7;28.7;-1.0;
16/06/2019 08:53:48;117;0;43.72;17;19.66;2.24;53.3;9.20;68933;5125.013;-12838.275;51;150;158.4;57;57.1;0;0.5;28.8;-1.0;
16/06/2019 08:54:08;117;0;43.27;17;19.25;3.61;50.8;9.20;68956;5125.013;-12838.275;51;150;158.4;57;56.9;-1;-0.9;28.7;-1.0;
16/06/2019 08:54:28;117;0;41.00;17;18.99;2.51;48.4;9.20;68958;5125.013;-12838.275;51;150;156.4;57;57.1;0;0.0;28.7;-1.0;
16/06/2019 08:54:48;117;0;40.67;17;18.81;3.28;46.2;9.30;68972;5125.013;-12838.275;51;150;158.4;57;57.1;-1;-0.9;28.8;-1.0;
16/06/2019 08:55:08;117;0;41.38;17;18.78;2.61;44.0;9.30;68989;5125.013;-12838.275;51;150;158.4;57;56.9;-2;-2.3;28.7;-1.0;
16/06/2019 08:55:28;117;0;42.67;17;18.82;1.95;41.8;9.30;69001;5125.013;-12838.275;51;150;156.4;57;56.9;-3;-3.2;28.7;-1.0;
16/06/2019 08:55:48;117;0;42.69;17;18.87;1.43;39.8;9.30;69010;5125.013;-12838.275;51;150;158.4;57;57.1;-3;-3.6;28.7;-1.0;
16/06/2019 08:56:08;117;0;40.30;17;18.84;1.41;37.5;9.40;69026;5125.013;-12838.275;51;150;156.4;57;57.1;-2;-1.8;28.7;-1.0;
16/06/2019 08:56:28;117;0;34.29;17;19.11;2.61;35.4;9.40;69030;5125.013;-12838.275;51;150;158.4;57;57.1;-2;-1.4;28.8;-1.0;
16/06/2019 08:56:48;117;0;29.77;17;19.06;2.65;33.1;9.40;69040;5125.013;-12838.275;51;150;158.4;57;56.9;1;1.4;28.7;-1.0;
16/06/2019 08:57:08;117;0;29.85;17;18.78;4.12;30.7;9.40;69040;5125.013;-12838.275;51;150;158.4;57;56.9;0;0.0;28.7;-1.0;
16/06/2019 08:57:28;117;0;29.98;17;18.58;2.96;28.5;9.50;69061;5125.013;-12838.275;51;150;158.4;57;57.1;0;-0.5;28.7;-1.0;
16/06/2019 08:57:48;117;0;29.53;17;18.68;2.90;26.2;9.50;69072;5125.013;-12838.275;51;150;158.4;57;56.9;0;-0.5;28.7;-1.0;
16/06/2019 08:58:08;117;0;35.01;17;18.57;3.08;24.1;9.50;69087;5125.013;-12838.275;51;150;158.4;57;57.1;0;-0.5;28.7;-1.0;
16/06/2019 08:58:28;117;0;31.51;17;18.16;2.94;21.8;9.50;69111;5125.013;-12838.275;51;150;158.4;57;57.1;0;-0.5;28.7;-1.0;
16/06/2019 08:58:48;117;0;22.65;17;17.14;2.98;19.7;9.60;69126;5125.013;-12838.275;51;150;156.4;57;57.1;4;4.1;28.7;-1.0;
16/06/2019 08:59:08;117;0;22.32;17;16.85;5.69;17.8;9.60;69158;5125.013;-12838.275;51;150;158.4;57;57.1;3;3.2;28.7;-1.0;
16/06/2019 08:59:28;117;0;26.90;17;16.16;4.55;16.3;9.60;69196;5125.013;-12838.275;51;150;158.4;57;57.1;0;0.0;28.7;-1.0;
16/06/2019 08:59:48;117;0;30.40;17;16.29;3.11;14.6;9.70;69214;5125.013;-12838.275;51;150;156.4;57;57.1;-1;-0.9;28.7;-1.0;
16/06/2019 09:00:08;117;0;33.88;17;16.37;2.62;13.0;9.70;69253;5125.013;-12838.275;51;150;158.4;57;57.1;-1;-1.8;28.7;-1.0;
16/06/2019 09:00:28;117;0;33.46;17;16.76;2.54;11.3;9.80;69275;5125.013;-12838.275;51;150;158.4;57;57.1;-1;-1.8;28.7;-1.0;
